     2.10           OBSERVATION DATA    G (GPS)             RINEX VERSION / TYPE
teqc  2002Mar14                         20101013 04:51:22UTCPGM / RUN BY / DATE
Linux 2.0.36|Pentium II|gcc -static|Linux|486/DX+           COMMENT
teqc  2002Mar14     GSI, JAPAN          20101011 06:33:09UTCCOMMENT
0728                                                        MARKER NAME
GSI, JAPAN          GEOSPATIAL INFORMATION AUTHORITY OF JAPAOBSERVER / AGENCY
00000               TPS NETG3           3.4 EG3 Jul,02,2010 REC # / TYPE / VERS
                    TRM29659.00     GSI                     ANT # / TYPE
 -3585816.5935  4190366.7164  3193080.7964                  APPROX POSITION XYZ
        0.0000        0.0000        0.0000                  ANTENNA: DELTA H/E/N
     1     1                                                WAVELENGTH FACT L1/2
     6    L1    C1    L2    P2    S1    S2                  # / TYPES OF OBSERV
    30.0000                                                 INTERVAL
teqc windowed: start @ 2010 Oct 11 00:00:00.000             COMMENT
teqc windowed:  end  @ 2010 Oct 11 23:59:59.000             COMMENT
  2010    10    11     0     0    0.0000000     GPS         TIME OF FIRST OBS
                                                            END OF HEADER
 10 10 11  0  0  0.0000000  0 10G 6G14G32G16G 3G31G19G21G23G29
 109280411.64146  20795366.769    85153569.82646  20795363.9374         41.5004
        41.0004
 129554918.48041  24653490.319   100951870.64041  24653489.7444          9.9004
        10.3004
 132957676.11142  25301011.168   103603372.20742  25301010.7574         12.4004
        12.9004
 110048910.93446  20941612.464    85752397.12046  20941607.8844         40.8004
        40.7004
 113956445.24145  21685188.236    88797235.53745  21685184.9704         35.4004
        35.6004
 111385918.98947  21196034.894    86794222.93647  21196030.8324         42.8004
        42.9004
 129738314.41343  24688378.465   101094787.52243  24688373.6114         19.2004
        19.0004
 127618344.43343  24284959.671    99442868.42343  24284956.2054         19.4004
        19.3004
 118691676.62745  22586274.329    92487021.48745  22586268.1524         30.3004
        30.3004
 129527361.97743  24648240.120   100930405.54843  24648236.7904         20.6004
        20.5004
 10 10 11  0  0 30.0000000  0 10G 6G14G32G16G 3G31G19G21G23G29
 109193783.02046  20778881.616    85086066.99946  20778879.2734         40.9004
        41.1004
 129640504.88642  24669776.680   101018561.14641  24669776.4474         12.5004
        10.3004
 132985748.93841  25306354.504   103625247.10341  25306352.5614         11.4004
        11.4004
 110023810.52946  20936835.900    85732838.35546  20936831.6364         40.7004
        41.0004
 113836383.78545  21662340.911    88703681.16745  21662338.3584         35.7004
        35.8004
 111381903.46847  21195270.865    86791093.94047  21195266.7604         42.9004
        42.9004
 129595254.43442  24661154.081   100983312.22243  24661150.4584         17.8004
        18.2004
 127562419.35243  24274317.936    99399290.42443  24274314.1044         19.8004
        19.9004
 118598927.29345  22568624.823    92414749.27645  22568619.4564         30.4004
        30.4004
 129600178.61643  24662097.430   100987145.70343  24662093.9754         20.6004
        20.5004
 10 10 11  0  1  0.0000000  0 10G 6G14G32G16G 3G31G19G21G23G29
 109107624.80446  20762486.478    85018930.73246  20762483.6014         41.3004
        41.3004
 129726094.98642  24686063.381   101085254.50942  24686063.3754         12.5004
        13.0004
 133013788.95341  25311689.637   103647096.42441  25311688.6934         11.4004
        11.4004
 109998916.94646  20932098.728    85713440.76146  20932094.5994         41.0004
        41.1004
 113716670.47545  21639560.502    88610398.07545  21639557.9384         35.6004
        35.8004
 111378217.71847  21194569.598    86788221.91147  21194565.5434         42.9004
        42.8004
 129452268.97142  24633946.123   100871894.96443  24633940.8474         17.8004
        18.2004
 127506813.09243  24263735.992    99355960.87143  24263731.9624         19.8004
        19.9004
 118506666.70245  22551068.071    92342857.90645  22551062.2314         30.7004
        30.7004
 129673129.25143  24675979.077   101043990.25043  24675975.8764         20.8004
        20.7004
 10 10 11  0  1 30.0000000  0 10G 6G14G32G16G 3G31G19G21G23G29
 109021936.93646  20746180.732    84952160.95846  20746177.6714         41.0004
        41.5004
 129811685.01342  24702351.497   101151947.80942  24702350.9984         14.2004
        13.0004
 133041792.44142  25317019.057   103668917.26642  25317018.8944         13.3004
        13.1004
 109974228.04846  20927400.723    85694202.65246  20927396.4954         41.0004
        40.9004
 113597306.09745  21616846.107    88517386.87346  21616843.6714         35.9004
        36.1004
 111374861.37247  21193930.870    86785606.55247  21193927.0994         42.9004
        43.0004
 129309359.41043  24606751.269   100760536.86443  24606746.2334         18.7004
        18.2004
 127451526.37243  24253215.484    99312880.31643  24253211.3854         20.1004
        20.1004
 118414895.82445  22533604.667    92271348.11145  22533598.7134         30.7004
        30.8004
 129746210.71643  24689886.328   101100936.78543  24689883.3464         20.0004
        20.0004
 10 10 11  0  2  0.0000000  0 10G 6G14G32G16G 3G31G19G21G23G29
 108936721.09546  20729964.673    84885758.99846  20729961.9994         41.4004
        41.5004
 129897272.73442  24718638.249   101218639.31742  24718636.6704         14.2004
        14.7004
 133069757.29242  25322341.196   103690707.99942  25322339.3554         13.3004
        13.1004
 109949743.02246  20922741.366    85675123.40446  20922737.0054         40.9004
        40.7004
 113478293.02645  21594198.643    88424649.41946  21594195.9254         35.9004
        36.1004
 111371835.52247  21193355.105    86783248.73247  21193351.0744         43.0004
        43.3004
 129166528.42443  24579570.385   100649240.00243  24579566.3954         20.6004
        20.6004
 127396561.32843  24242755.727    99270050.42043  24242752.3504         20.6004
        20.6004
 118323617.07445  22516234.887    92200221.80745  22516228.9754         30.8004
        30.8004
 129819420.53043  24703817.901   101157983.34443  24703814.8494         20.0004
        20.0004
 10 10 11  0  2 30.0000000  0 10G 6G14G32G16G 3G31G19G21G23G29
 108851974.57046  20713837.942    84819722.74446  20713835.1724         41.6004
        41.7004
 129982851.58142  24734922.374   101285323.90842  24734921.9234         15.5004
        14.7004
 133097677.14242  25327653.177   103712463.69642  25327653.3144         12.8004
        13.0004
 109925457.02246  20918119.932    85656199.23846  20918115.5284         40.7004
        40.8004
 113359629.41646  21571617.408    88332184.27646  21571615.5684         36.1004
        36.2004
 111369137.19447  21192841.585    86781146.12347  21192837.5964         43.1004
        43.3004
 129023774.53843  24552405.701   100538003.23243  24552400.9514         20.6004
        20.6004
 127341916.08143  24232357.222    99227469.68943  24232353.8064         20.6004
        20.6004
 118232828.77945  22498958.233    92129477.66845  22498952.7784         31.1004
        31.1004
 129892752.49343  24717772.196   101215125.02043  24717769.5354         18.9004
        18.9004
 10 10 11  0  3  0.0000000  0 10G 6G14G32G16G 3G31G19G21G23G29
 108767701.35146  20697801.078    84754055.30046  20697798.4684         41.3004
        41.6004
 130068421.72142  24751206.803   101352001.69942  24751205.8624         15.5004
        15.1004
 133125552.29441  25332957.472   103734184.56242  25332957.9694         11.6004
        13.0004
 109901371.57546  20913536.685    85637431.34946  20913532.1534         40.6004
        40.9004
 113241320.44846  21549104.041    88239995.47746  21549102.0684         36.2004
        36.3004
 111366770.18447  21192391.329    86779301.68547  21192387.2604         42.9004
        42.9004
 128881103.11043  24525256.101   100426830.70643  24525251.7844         19.2004
        19.2004
 127287595.14843  24222019.712    99185141.67343  24222017.4724         20.5004
        20.6004
 118142535.59045  22481776.017    92059119.34245  22481770.9314         31.3004
        31.2004
 129966206.70743  24731749.913   101272362.02443  24731746.9024         18.9004
        18.9004
 10 10 11  0  3 30.0000000  0 10G 6G14G32G16G 3G31G19G21G23G29
 108683903.70246  20681854.924    84688758.43446  20681852.6114         41.7004
        41.6004
 130153981.78942  24767488.282   101418671.65842  24767487.0284         14.4004
        15.1004
 133153381.03141  25338253.758   103755869.24441  25338253.1174         11.6004
        11.5004
 109877486.95246  20908991.381    85618819.95046  20908987.0704         40.8004
        41.0004
 113123368.98146  21526658.567    88148085.24846  21526656.6254         36.1004
        36.2004
 111364736.13547  21192004.293    86777716.69547  21192000.2754         42.7004
        43.0004
 128738517.52743  24498123.238   100315725.04043  24498118.7944         19.2004
        19.2004
 127233601.26843  24211746.505    99143068.51043  24211743.0614         21.2004
        21.4004
 118052740.85445  22464688.400    91989149.41645  22464683.4794         31.4004
        31.5004
 130039781.98343  24745751.405   101329693.27843  24745748.2634         18.9004
        18.6004
 10 10 11  0  4  0.0000000  0 10G 6G14G32G16G 3G31G19G21G23G29
 108600583.52746  20665999.617    84623833.62146  20665997.1104         41.4004
        41.7004
 130239529.74842  24783767.807   101485332.16442  24783767.2584         14.4004
        13.9004
 133181161.54941  25343539.889   103777516.33441  25343538.8544         10.1004
        11.5004
 109853802.47446  20904484.517    85600364.50446  20904480.2304         40.6004
        40.8004
 113005777.72746  21504282.072    88056455.69446  21504279.2444         36.2004
        36.2004
 111363036.29547  21191680.667    86776392.12947  21191676.7744         42.7004
        43.1004
 128596020.93443  24471006.873   100204688.75043  24471002.3764         19.7004
        19.7004
 127179937.02043  24201533.530    99101252.19543  24201529.8104         21.2004
        21.4004
 117963447.50645  22447696.678    91919570.18745  22447691.5934         31.6004
        31.7004
 130113476.58643  24759774.565   101387117.51743  24759771.5814         20.3004
        18.6004
 10 10 11  0  4 30.0000000  0 10G 6G14G32G16G 3G31G19G21G23G29
 108517738.88546  20650234.731    84559279.34746  20650232.3284         41.6004
        41.8004
 130325059.78042  24800043.775   101551978.72342  24800043.2714         13.8004
        13.9004
 133208888.36241  25348815.724   103799121.58141  25348815.8254         10.1004
        10.1004
 109830313.93446  20900014.929    85582061.74046  20900010.2784         40.9004
        40.7004
 112888545.70946  21481973.903    87965106.07346  21481970.8404         36.6004
        36.6004
 111361668.50647  21191420.328    86775326.30347  21191416.2854         42.8004
        42.7004
 128453612.66743  24443906.419   100093721.31943  24443903.3994         20.4004
        20.2004
 127126601.26243  24191384.065    99059691.85643  24191380.4084         21.9004
        21.7004
 117874654.06845  22430799.980    91850380.49145  22430794.4844         31.8004
        31.8004
 130187284.68543  24773820.345   101444630.22143  24773818.1504         20.3004
        21.2004
 10 10 11  0  5  0.0000000  0 10G 6G14G32G16G 3G31G19G21G23G29
 108435371.76946  20634560.895    84495097.17946  20634558.3574         41.5004
        41.7004
 130410570.17942  24816315.338   101618609.94642  24816316.4524         13.8004
        12.5004
 133236559.77541  25354081.805   103820683.65141  25354081.9044          8.4004
        10.1004
 109807021.24646  20895582.389    85563911.59046  20895578.1734         40.8004
        40.8004
 112771675.56446  21459733.461    87874038.44046  21459731.5824         36.5004
        36.5004
 111360634.53447  21191223.737    86774520.59647  21191219.3734         43.0004
        43.0004
 128311296.09343  24416825.108    99982825.30543  24416821.0354         20.4004
        20.2004
 127073596.90243  24181297.889    99018389.75143  24181294.0424         20.7004
        21.7004
 117786363.80945  22413999.400    91781582.87945  22413993.4464         31.7004
        31.6004
 130261204.94143  24787886.556   101502230.35542  24787884.1674         18.3004
        14.3004
 10 10 11  0  5 30.0000000  0  9G 6G14G16G 3G31G19G21G23G29
 108353484.21046  20618978.397    84431288.70146  20618975.7924         41.4004
        41.4004
 130496059.23141  24832584.099   101685224.54442  24832585.4784         11.7004
        12.5004
 109783924.37146  20891187.237    85545914.01746  20891182.9624         41.0004
        40.6004
 112655170.19046  21437563.688    87783255.03346  21437560.8744         36.7004
        36.9004
 111359936.00347  21191090.648    86773976.26947  21191086.5684         42.7004
        42.9004
 128169074.61343  24389761.067    99872003.36443  24389757.3354         20.2004
        20.3004
 127020926.28943  24171275.009    98977347.71843  24171270.9054         22.0004
        21.0004
 117698579.84145  22397294.202    91713179.78445  22397288.8424         31.5004
        31.5004
 130335236.04543  24801975.497   101559916.87042  24801967.7094         18.3004
        14.3004
 10 10 11  0  6  0.0000000  0  8G 6G14G16G 3G31G19G21G23
 108272075.12146  20603486.589    84367853.05147  20603483.7184         41.8004
        42.0004
 130581522.48441  24848846.827   101751819.04041  24848848.9084         11.7004
         9.4004
 109761019.74046  20886828.499    85528066.24646  20886824.0194         40.4004
        40.7004
 112539029.52146  21415462.957    87692755.81646  21415460.3554         37.0004
        37.0004
 111359571.48547  21191021.554    86773692.21447  21191017.4214         42.5004
        42.5004
 128026948.08743  24362715.171    99761255.40843  24362710.8144         19.5004
        20.3004
 126968589.31043  24161315.591    98936565.64343  24161311.4324         22.0004
        22.2004
 117611301.58145  22380685.626    91645170.74845  22380680.3344         31.5004
        31.5004
 10 10 11  0  6 30.0000000  0  8G 6G14G16G 3G31G19G21G23
 108191147.00846  20588086.520    84304792.18146  20588083.8454         41.6004
        41.7004
 130666958.35641  24865106.138   101818392.22241  24865105.6824          8.1004
         9.4004
 109738307.95046  20882506.512    85510368.74946  20882502.1034         40.6004
        40.7004
 112423256.95846  21393431.908    87602543.43846  21393429.1524         36.9004
        37.0004
 111359542.85747  21191016.187    86773669.88947  21191011.9504         42.8004
        42.9004
 127884920.65943  24335688.406    99650584.71543  24335684.9214         19.5004
        19.4004
 126916588.48243  24151420.370    98896045.51843  24151416.2924         22.3004
        22.2004
 117524532.61245  22364174.197    91577558.56345  22364168.5904         31.3004
        31.3004
 10 10 11  0  7  0.0000000  0  8G 6G14G16G 3G31G19G21G23
 108110701.11746  20572778.066    84242107.07547  20572775.3414         41.5004
        42.1004
 130752364.515 5  24881357.405                                          34.500

 109715788.27646  20878221.197    85492820.94746  20878216.7634         40.5004
        40.4004
 112307854.85946  21371471.716    87512619.73446  21371469.0484         37.0004
        37.2004
 111359851.07247  21191074.663    86773910.04347  21191070.6464         42.8004
        42.9004
 127742994.87743  24308681.388    99539993.23043  24308677.1044         20.7004
        19.4004
 126864926.38243  24141589.098    98855789.33243  24141585.4394         22.3004
        22.5004
 117438275.20945  22347759.445    91510344.99145  22347753.9354         31.3004
        31.4004
 10 10 11  0  7 30.0000000  0  8G 6G14G16G 3G31G19G21G23
 108030739.26946  20557562.086    84179799.15147  20557559.2934         41.8004
        42.1004
 130837739.659 5  24897603.164                                          34.000

 109693460.36846  20873972.748    85475422.57946  20873967.9644         40.5004
        40.5004
 112192825.70646  21349582.245    87422986.63246  21349579.7674         37.0004
        37.0004
 111360497.82747  21191197.900    86774413.99047  21191193.5424         42.9004
        42.9004
 127601174.22343  24281694.340    99429483.64643  24281689.6684         21.7004
        21.4004
 126813605.40243  24131823.390    98815798.96743  24131818.6714         22.3004
        22.3004
 117352531.93645  22331443.418    91443532.04645  22331438.0724         31.6004
        31.7004
 10 10 11  0  8  0.0000000  0  8G 6G14G16G 3G31G19G21G23
 107951260.01747  20542437.672    84117867.27347  20542434.9764         42.0004
        42.3004
 130923078.218 5  24913843.808                                          34.000

 109671320.28546  20869759.227    85458170.56146  20869754.6824         40.2004
        40.7004
 112078168.84646  21327763.569    87333643.63346  21327761.4574         37.1004
        37.2004
 111361481.11647  21191385.020    86775180.17147  21191380.8664         42.7004
        42.6004
 127459458.35243  24254725.086    99319055.69343  24254721.1314         21.7004
        21.2004
 126762624.16143  24122121.736    98776073.31643  24122118.1214         22.1004
        22.3004
 117267302.42845  22315224.755    91377119.43945  22315219.1434         31.9004
        32.0004
 10 10 11  0  8 30.0000000  0  8G 6G14G16G 3G31G19G21G23
 107872268.08247  20527405.855    84056315.12347  20527403.1234         42.3004
        42.2004
 131008381.590 5  24930076.784                                          33.000

 109649371.02046  20865582.374    85441067.24746  20865578.1804         40.6004
        40.5004
 111963890.24046  21306016.987    87244595.37546  21306015.0514         37.2004
        37.4004
 111362805.81947  21191636.938    86776212.39347  21191633.0494         42.9004
        42.9004
 127317853.46543  24227779.049    99208714.26143  24227775.5294         20.1004
        21.2004
 126711988.90143  24112485.941    98736617.28043  24112483.3984         21.5004
        21.8004
 117182592.17445  22299105.473    91311111.43945  22299100.0534         31.9004
        31.9004
 10 10 11  0  9  0.0000000  0  8G 6G14G16G 3G31G19G21G23
 107793762.98746  20512466.858    83995142.32147  20512464.2964         41.9004
        42.0004
 131093645.761 5  24946302.270                                          32.200

 109627610.30946  20861441.346    85424110.84446  20861436.8474         40.3004
        40.2004
 111849990.28646  21284342.717    87155842.17646  21284340.5924         37.6004
        37.6004
 111364470.77847  21191953.945    86777509.74147  21191949.9994         42.7004
        43.0004
 127176360.75043  24200853.863    99098460.22843  24200850.1194         20.1004
        20.5004
 126661699.77343  24102915.898    98697430.96543  24102912.1274         21.7004
        21.8004
 117098401.50745  22283084.150    91245508.30845  22283078.5824         31.7004
        31.7004
 10 10 11  0  9 30.0000000  0  8G 6G14G16G 3G31G19G21G23
 107715745.64947  20497620.640    83934349.59247  20497617.8954         42.1004
        42.0004
 131178868.078 5  24962521.126                                          32.100

 109606036.87846  20857336.368    85407300.38146  20857332.0404         40.1004
        40.3004
 111736470.50646  21262740.363    87067385.22146  21262738.5084         37.5004
        37.6004
 111366476.36147  21192335.812    86779072.51747  21192331.3944         42.9004
        42.8004
 127034982.30343  24173949.617    98988295.26343  24173946.8734         21.7004
        21.7004
 126611757.97243  24093412.768    98658515.27843  24093409.0414         21.7004
        21.8004
 117014732.33645  22267162.201    91180311.53645  22267157.5594         31.6004
        31.7004
 10 10 11  0 10  0.0000000  0  8G 6G14G16G 3G31G19G21G23
 107638217.34147  20482867.518    83873937.93547  20482864.9804         42.2004
        42.2004
 131264046.004 5  24978728.427                                          31.400

 109584649.77446  20853266.458    85390635.10246  20853262.2284         40.5004
        40.3004
 111623333.03346  21241211.407    86979226.15746  21241209.6674         37.7004
        37.8004
 111368823.72747  21192782.419    86780901.61447  21192778.0784         42.7004
        42.9004
 126893720.66443  24147069.144    98878221.31443  24147065.0824         21.2004
        21.7004
 126562165.49143  24083975.562    98619871.79643  24083971.3054         21.1004
        21.3004
 116931587.00545  22251340.590    91115522.95945  22251334.7814         31.6004
        31.6004
 10 10 11  0 10 30.0000000  0  8G 6G14G16G 3G31G19G21G23
 107561178.12047  20468207.457    83813907.38147  20468204.6134         42.5004
        42.7004
 131349176.493 4  24994929.199                                          29.700

 109563447.17446  20849231.692    85374113.59746  20849227.5774         40.1004
        40.4004
 111510579.12146  21219754.940    86891365.97546  21219752.6104         37.8004
        37.9004
 111371512.79547  21193294.312    86782996.97247  21193289.8264         42.6004
        42.7004
 126752577.86843  24120210.083    98768239.94943  24120206.4934         21.2004
        21.2004
 126512923.45843  24074605.067    98581501.39143  24074600.9094         20.4004
        20.4004
 116848966.26845  22235617.699    91051143.14945  22235612.4434         31.6004
        31.6004
 10 10 11  0 11  0.0000000  0  8G 6G14G16G 3G31G19G21G23
 107484627.33847  20453640.190    83754257.42647  20453637.4504         42.2004
        42.4004
 131434255.671 4  25011120.159                                          29.900

 109542426.89546  20845231.558    85357734.15046  20845227.4804         40.0004
        40.3004
 111398209.58146  21198371.644    86803805.29946  21198369.4664         37.8004
        37.6004
 111374542.82747  21193870.709    86785358.02347  21193866.5194         42.5004
        42.2004
 126611554.73043  24093374.563    98658351.83643  24093370.8204         21.6004
        21.2004
 126464031.98943  24065301.743    98543404.15443  24065297.3204         20.4004
        20.4004
 116766870.78645  22219995.857    90987172.62645  22219990.4654         31.6004
        31.4004
 10 10 11  0 11 30.0000000  0  7G 6G16G 3G31G19G21G23
 107408567.44047  20439166.341    83694989.98147  20439163.7404         42.3004
        42.6004
 109521589.04746  20841266.350    85341496.86246  20841262.1854         40.0004
        39.9004
 111286226.86346  21177062.179    86716546.04346  21177060.0304         38.0004
        38.2004
 111377915.64247  21194512.736    86787986.18147  21194508.4304         42.7004
        42.7004
 126470654.98643  24066561.945    98548559.91243  24066558.4464         22.7004
        22.4004
 126415494.06243  24056064.876    98505582.41343  24056061.0144         21.7004
        21.6004
 116685303.68745  22204474.069    90923613.83545  22204468.2374         31.2004
        31.4004
 10 10 11  0 12  0.0000000  0  7G 6G16G 3G31G19G21G23
 107333000.24047  20424786.458    83636106.45647  20424783.8784         42.0004
        42.1004
 109500933.32246  20837335.678    85325401.48046  20837331.3554         40.0004
        40.0004
 111174633.90146  21155826.823    86629590.49846  21155824.5964         37.9004
        38.3004
 111381632.42747  21195219.871    86790882.35847  21195215.8534         43.1004
        43.2004
 126329881.77943  24039773.941    98438866.58243  24039770.0344         22.8004
        22.9004
 126367311.73443  24046896.267    98468037.75443  24046892.9014         22.5004
        22.6004
 116604267.17745  22189052.545    90860468.48945  22189048.4904         31.3004
        31.2004
 10 10 11  0 12 30.0000000  0  7G 6G16G 3G31G19G21G23
 107257926.38247  20410500.350    83577607.34947  20410497.8014         42.1004
        42.1004
 109480459.46146  20833439.506    85309447.81846  20833435.3814         39.8004
        39.9004
 111063433.18446  21134665.763    86542940.59146  21134663.8254         37.9004
        37.9004
 111385694.56347  21195993.189    86794047.63547  21195988.9184         42.8004
        42.7004
 126189238.28543  24013010.741    98329274.29243  24013007.0094         22.8004
        22.9004
 126319487.71343  24037796.265    98430772.30143  24037792.0444         22.5004
        22.6004
 116523763.93745  22173733.610    90797738.67245  22173728.8864         31.0004
        30.9004
 10 10 11  0 13  0.0000000  0  7G 6G16G 3G31G19G21G23
 107183344.45647  20396307.756    83519491.56747  20396305.5934         42.4004
        42.6004
 109460164.03246  20829577.655    85293633.18746  20829573.3424         39.8004
        39.7004
 110952624.14946  21113579.523    86456595.89446  21113577.3884         38.2004
        38.2004
 111390100.13547  21196831.183    86797480.52947  21196827.0464         42.9004
        42.9004
 126048724.38043  23986270.427    98219782.99243  23986268.1374         21.9004
        22.0004
 126272021.07143  24028763.715    98393785.31043  24028759.5104         23.1004
        23.3004
 116443793.16445  22158516.312    90735423.77645  22158510.9404         31.1004
        31.1004
 10 10 11  0 13 30.0000000  0  7G 6G16G 3G31G19G21G23
 107109255.13947  20382209.354    83461759.63147  20382206.6324         42.6004
        42.7004
 109440045.41946  20825749.084    85277956.33846  20825744.9214         39.7004
        39.7004
 110842208.18146  21092568.120    86370557.48946  21092565.9994         38.2004
        38.1004
 111394849.36147  21197735.197    86801181.20547  21197730.6024         42.7004
        42.3004
 125908341.99943  23959556.983    98110394.20543  23959554.0804         21.8004
        21.9004
 126224913.00043  24019798.963    98357077.75043  24019794.8654         23.5004
        23.4004
 116364356.16245  22143400.261    90673524.79245  22143394.1734         31.2004
        31.0004
 10 10 11  0 14  0.0000000  0  7G 6G16G 3G31G19G21G23
 107035662.74347  20368205.057    83404414.91047  20368202.6184         42.9004
        43.1004
 109420106.03446  20821954.471    85262419.14646  20821950.2504         39.3004
        39.3004
 110732190.30446  21071632.343    86284829.27646  21071629.9514         38.1004
        38.2004
 111399946.32847  21198705.040    86805152.84347  21198700.7554         42.5004
        42.7004
 125768096.91743  23932869.289    98001112.36143  23932866.2374         21.8004
        21.9004
 126178167.98943  24010903.872    98320653.06743  24010899.1764         22.9004
        23.4004
 116285458.04545  22128385.378    90612045.71945  22128380.8944         31.1004
        30.9004
 10 10 11  0 14 30.0000000  0  7G 6G16G 3G31G19G21G23
 106962567.65747  20354295.701    83347457.70247  20354293.0704         42.8004
        42.9004
 109400344.72946  20818193.859    85247020.71346  20818190.0264         38.9004
        39.1004
 110622571.88446  21050772.531    86199412.33446  21050770.5464         38.3004
        38.4004
 111405391.29347  21199741.181    86809395.65447  21199736.8224         42.5004
        42.7004
 125627991.21243  23906208.060    97891939.13143  23906205.3234         23.1004
        23.0004
 126131787.51943  24002078.095    98284512.45243  24002073.6054         22.9004
        22.9004
 116207099.94445  22113474.815    90550987.44445  22113470.0034         31.1004
        31.1004
 10 10 11  0 15  0.0000000  0  7G 6G16G 3G31G19G21G23
 106889970.63247  20340481.091    83290888.59347  20340478.1784         42.7004
        42.8004
 109380760.51346  20814467.492    85231760.28246  20814463.1264         39.3004
        39.3004
 110513355.37546  21029989.400    86114308.56846  21029987.2224         38.6004
        38.9004
 111411184.71647  21200843.477    86813909.98947  21200839.2774         42.3004
        42.6004
 125488027.54343  23879574.560    97782876.57243  23879570.7424         23.5004
        23.4004
 126085772.98543  23993321.549    98248656.97543  23993317.5084         23.0004
        23.4004
 116129283.81445  22098666.747    90490351.48345  22098661.9474         31.0004
        31.0004
 10 10 11  0 15 30.0000000  0  7G 6G16G 3G31G19G21G23
 106817871.89347  20326760.814    83234707.75247  20326758.2824         42.6004
        42.6004
 109361352.00546  20810774.113    85216636.76946  20810770.0304         38.9004
        38.8004
 110404541.16946  21009282.619    86029518.28646  21009280.3004         38.3004
        38.5004
 111417326.60747  21202012.747    86818695.85947  21202008.0354         42.5004
        42.6004
 125348207.83743  23852967.316    97673926.18843  23852963.5914         23.6004
        23.8004
 126040125.46143  23984635.135    98213087.48243  23984631.0934         23.5004
        22.9004
 116052011.04245  22083962.594    90430138.92245  22083957.0694         31.3004
        31.2004
 10 10 11  0 16  0.0000000  0  7G 6G16G 3G31G19G21G23
 106746269.82847  20313135.614    83178913.94547  20313132.8464         42.6004
        42.6004
 109342115.92646  20807113.326    85201647.61746  20807109.4264         38.7004
        38.6004
 110296129.41146  20988652.784    85945041.60046  20988650.2314         38.5004
        38.7004
 111423815.29247  21203247.312    86823751.95747  21203242.9904         42.6004
        42.8004
 125208532.12743  23826388.429    97565088.00943  23826384.1864         23.6004
        23.8004
 125994844.57743  23976018.785    98177803.67543  23976013.8674         22.2004
        22.9004
 115975280.76245  22069361.291    90370349.07245  22069356.3814         31.4004
        31.3004
 10 10 11  0 16 30.0000000  0  7G 6G16G 3G31G19G21G23
 106675165.02747  20299604.372    83123507.61047  20299601.9954         42.7004
        42.8004
 109323051.12046  20803485.668    85186791.91446  20803481.8294         38.9004
        38.8004
 110188121.15846  20968099.461    85860879.33946  20968097.0754         38.8004
        38.9004
 111430651.39147  21204548.160    86829078.76647  21204543.8554         42.2004
        42.4004
 125069002.80844  23799836.216    97456363.90144  23799831.1304         24.3004
        24.1004
 125949931.68543  23967471.858    98142806.61843  23967468.1104         22.9004
        22.4004
 115899094.39745  22054863.298    90310983.06045  22054858.3064         31.2004
        31.3004
 10 10 11  0 17  0.0000000  0  7G 6G16G 3G31G19G21G23
 106604557.67447  20286168.578    83068488.90247  20286165.7894         42.3004
        42.9004
 109304156.11146  20799889.832    85172068.52846  20799886.1054         38.6004
        38.6004
 110080518.01446  20947623.436    85777032.74946  20947620.7194         38.8004
        38.9004
 111437834.57747  21205915.176    86834676.03147  21205910.8764         42.3004
        42.6004
 124929621.79243  23773313.372    97347755.34943  23773308.7964         23.1004
        23.1004
 125905387.55043  23958995.156    98108096.89343  23958990.0944         22.9004
        23.1004
 115823453.27245  22040468.779    90252041.91545  22040463.6564         31.2004
        31.1004
 10 10 11  0 17 30.0000000  0  7G 6G16G 3G31G19G21G23
 106534450.31647  20272827.536    83013859.79747  20272824.6714         43.0004
        42.9004
 109285431.95346  20796326.443    85157478.27346  20796323.1204         38.8004
        38.8004
 109973323.37646  20927224.990    85693504.47246  20927222.2884         38.9004
        38.9004
 111445367.29847  21207348.699    86840545.66447  21207344.1644         42.1004
        42.3004
 124790393.21643  23746818.603    97239265.57943  23746814.5354         23.7004
        23.1004
 125861215.43643  23950589.580    98073677.08043  23950583.8024         22.7004
        23.1004
 115748360.71245  22026178.912    90193528.21645  22026174.6734         31.2004
        31.1004
 10 10 11  0 18  0.0000000  0  7G 6G16G 3G31G19G21G23
 106464842.14347  20259581.739    82959619.66547  20259578.7154         42.6004
        42.5004
 109266876.23746  20792795.441    85143019.26946  20792791.8924         38.8004
        38.7004
 109866537.68646  20906904.257    85610294.85046  20906901.5464         39.0004
        39.0004
 111453248.45647  21208848.641    86846686.80947  21208843.9134         42.4004
        42.7004
 124651318.08144  23720352.988    97130895.41244  23720350.0254         24.0004
        24.1004
 125817415.54843  23942254.633    98039547.29043  23942250.3774         21.9004
        22.0004
 115673816.74845  22011994.244    90135442.00945  22011989.3054         31.0004
        31.0004
 10 10 11  0 18 30.0000000  0  7G 6G16G 3G31G19G21G23
 106395734.36447  20246431.021    82905769.45047  20246427.9444         42.6004
        42.8004
 109248488.60646  20789296.862    85128691.24446  20789292.9194         39.0004
        38.9004
 109760162.94246  20886662.067    85527405.45346  20886659.2764         39.0004
        38.8004
 111461479.37747  21210414.774    86853100.49447  21210410.0384         42.0004
        42.2004
 124512399.28144  23693918.406    97022647.03443  23693914.0544         24.0004
        23.9004
 125773989.60843  23933991.081    98005708.87443  23933986.5754         21.9004
        22.2004
 115599823.56845  21997913.781    90077784.95245  21997908.6794         31.2004
        31.3004
 10 10 11  0 19  0.0000000  0  7G 6G16G 3G31G19G21G23
 106327126.67947  20233375.195    82852308.91647  20233372.5614         42.7004
        43.3004
 109230267.33346  20785829.657    85114492.83946  20785825.4654         39.0004
        39.0004
 109654200.50846  20866497.573    85444837.33146  20866495.5254         39.2004
        39.2004
 111470059.76347  21212047.392    86859786.48847  21212042.9994         42.4004
        42.5004
 124373638.66544  23667513.500    96914521.91844  23667508.4254         24.3004
        24.5004
 125730938.31243  23925798.952    97972162.41743  23925794.5124         22.2004
        22.2004
 115526381.97045  21983938.582    90020557.71745  21983933.4274         31.2004
        31.1004
 10 10 11  0 19 30.0000000  0  7G 6G16G 3G31G19G21G23
 106259022.06747  20220415.151    82799240.39547  20220412.4264         42.4004
        42.4004
 109212213.46446  20782393.918    85100424.89246  20782390.0934         39.2004
        39.2004
 109548653.91146  20846413.090    85362593.24046  20846410.4944         39.2004
        39.2004
 111478992.25347  21213747.443    86866746.84947  21213743.1134         42.5004
        42.4004
 124235040.89244  23641138.229    96806523.71644  23641134.1074         24.4004
        24.5004
 125688265.44843  23917678.620    97938910.87143  23917673.3474         22.4004
        22.5004
 115453495.30045  21970068.289    89963762.90745  21970063.6964         31.2004
        31.3004
 10 10 11  0 20  0.0000000  0  7G 6G16G 3G31G19G21G23
 106191419.01847  20207550.804    82746562.70047  20207548.3004         42.8004
        42.7004
 109194324.64446  20778989.649    85086485.54746  20778986.1644         39.3004
        39.1004
 109443522.75846  20826407.016    85280672.86946  20826404.8474         39.3004
        39.4004
 111488275.35047  21215513.882    86873980.41747  21215509.3894         42.5004
        42.6004
 124096606.53343  23614795.512    96698652.83643  23614791.5414         23.9004
        23.9004
 125645970.65843  23909629.725    97905953.88143  23909627.1464         21.7004
        21.8004
 115381163.59945  21956304.266    89907400.53045  21956299.9594         31.2004
        31.2004
 10 10 11  0 20 30.0000000  0  8G 6G16G 3G31G19G13G21G23
 106124319.41047  20194782.107    82694277.29947  20194779.6644         42.6004
        42.7004
 109176600.81946  20775616.808    85072674.77746  20775613.1544         39.0004
        38.9004
 109338809.89046  20806480.592    85199078.43646  20806478.5134         39.3004
        39.5004
 111497910.53547  21217347.382    86881488.34147  21217343.0774         42.1004
        42.0004
 123958339.22944  23588483.154    96590912.11644  23588479.5364         24.6004
        24.6004
 125540869.95541  23889632.237    97824052.78041  23889629.6644         11.8004
         6.9004
 125604056.04643  23901653.366    97873293.14843  23901649.9734         21.7004
        21.8004
 115309389.20645  21942645.950    89851472.41245  21942641.0074         31.3004
        31.3004
 10 10 11  0 21  0.0000000  0  8G 6G16G 3G31G19G13G21G23
 107633143.81647  20481902.019    83869984.62447  20481899.3974         42.7004
        43.1004
 110734459.68446  21072067.319    86286590.76946  21072063.8794         39.2004
        39.1004
 110809938.61746  21086427.258    86345412.51646  21086424.9994         39.4004
        39.4004
 113083316.17347  21519039.541    88116869.34747  21519035.4954         42.2004
        42.3004
 125395663.53744  23861997.042    97710905.12143  23861993.9204         24.6004
        23.8004
 127001785.28742  24167636.261    98962428.36941  24167634.2404         13.1004
        10.3004
 127137942.76043  24193542.416    99068529.54843  24193539.0464         21.7004
        21.6004
 116813594.04945  22228886.325    91023580.06845  22228881.9784         31.6004
        31.6004
 10 10 11  0 21 30.0000000  0  8G 6G16G 3G31G19G13G21G23
 107567049.29147  20469324.719    83818482.40447  20469321.9444         42.8004
        43.0004
 110717060.18246  21068756.543    86273032.71346  21068753.0614         39.2004
        39.0004
 110706064.63246  21066660.821    86264471.75946  21066658.3814         39.3004
        39.3004
 113093654.18347  21521007.118    88124924.92747  21521003.0154         42.3004
        42.5004
 125257733.82643  23835750.268    97603427.47544  23835746.1654         23.9004
        25.1004
 126887641.88842  24145914.733    98873485.48641  24145914.0344         13.2004
        10.9004
 127096790.31743  24185712.141    99036462.71343  24185707.2194         21.4004
        21.6004
 116742935.24045  22215441.056    90968521.24145  22215436.1564         31.5004
        31.4004
 10 10 11  0 22  0.0000000  0  8G 6G16G 3G31G19G13G21G23
 107501457.61747  20456843.121    83767372.01547  20456839.9884         42.5004
        43.2004
 110699821.08246  21065476.232    86259599.63646  21065472.5854         39.2004
        39.2004
 110602612.15546  21046974.407    86183859.45146  21046972.2764         39.3004
        39.6004
 113104343.84147  21523041.544    88133254.51647  21523037.2294         42.0004
        42.1004
 125119976.45044  23809535.876    97496084.09144  23809531.7844         25.5004
        25.1004
 126773865.72442  24124262.802    98784828.78941  24124261.8284         13.2004
        10.9004
 127056020.97543  24177953.234    99004694.38443  24177948.8364         21.4004
        21.7004
 116672835.97445  22202101.005    90913898.42645  22202096.5664         31.6004
        31.7004
 10 10 11  0 22 30.0000000  0  8G 6G16G 3G31G19G13G21G23
 107436367.94447  20444456.823    83716652.79647  20444453.9354         42.8004
        43.1004
 110682740.40646  21062226.069    86246290.01046  21062221.8044         39.4004
        39.1004
 110499580.99546  21027367.929    86103575.44046  21027365.9964         39.5004
        39.6004
 113115383.84646  21525142.251    88141857.10347  21525137.7914         41.9004
        42.2004
 124982392.07744  23783354.033    97388875.50944  23783350.6354         25.5004
        25.7004
 126660458.12542  24102684.154    98696459.27042  24102681.5254         14.1004
        14.2004
 127015633.84943  24170268.169    98973223.91043  24170264.3404         21.6004
        21.6004
 116603296.75845  22188868.970    90859712.00645  22188864.0064         31.8004
        31.8004
 10 10 11  0 23  0.0000000  0  8G 6G16G 3G31G19G13G21G23
 107371783.51847  20432166.790    83666327.27647  20432164.0034         43.0004
        43.0004
 110665819.79546  21059005.992    86233105.11146  21059001.9144         39.7004
        39.5004
 110396975.70946  21007842.770    86023623.26946  21007840.6374         39.6004
        39.5004
 113126777.58646  21527310.148    88150735.32247  21527305.8154         41.8004
        42.2004
 124844985.90544  23757206.798    97281805.79744  23757203.5464         25.0004
        25.0004
 126547424.31642  24081173.876    98608381.00042  24081171.4074         14.4004
        14.2004
 126975632.99143  24162655.715    98942054.41643  24162651.8504         22.0004
        21.6004
 116534321.34145  22175743.761    90805964.91045  22175737.8134         32.0004
        32.1004
 10 10 11  0 23 30.0000000  0  8G 6G16G 3G31G19G13G21G23
 107307704.39547  20419972.935    83616395.49747  20419970.1504         42.9004
        43.2004
 110649057.96346  21055816.217    86220043.93446  21055812.6184         39.7004
        39.4004
 110294797.92746  20988399.290    85944004.22646  20988397.0624         39.7004
        39.6004
 113138525.02846  21529545.948    88159889.15846  21529541.3644         41.8004
        41.9004
 124707760.11844  23731093.309    97174876.63444  23731089.5544         25.9004
        26.0004
 126434767.06942  24059735.335    98520596.16342  24059734.1874         14.4004
        14.5004
 126936019.41343  24155117.576    98911186.68243  24155113.3834         22.0004
        21.9004
 116465910.71145  22162725.220    90752657.91345  22162719.9364         32.3004
        32.2004
 10 10 11  0 24  0.0000000  0  8G 6G16G 3G31G19G13G21G23
 107244132.03747  20407875.757    83566858.60647  20407872.5394         42.5004
        42.8004
 110632455.18546  21052657.074    86207106.70046  21052653.1104         39.6004
        39.4004
 110193049.73346  20969037.129    85864719.91846  20969035.0204         39.8004
        39.7004
 113150627.85146  21531848.901    88169319.91747  21531844.4484         41.6004
        42.0004
 124570718.03344  23705015.658    97068090.62744  23705011.1534         25.9004
        25.9004
 126322489.78742  24038370.003    98433107.35542  24038367.2884         14.3004
        14.5004
 126896795.87143  24147653.307    98880622.88343  24147650.2614         21.7004
        21.9004
 116398066.97145  22149814.977    90699792.63545  22149809.1104         32.4004
        32.3004
 10 10 11  0 24 30.0000000  0  8G 6G16G 3G31G19G13G21G23
 107181064.96647  20395874.365    83517715.44147  20395871.3984         42.8004
        43.0004
 110616008.68746  21049527.219    86194291.23846  21049523.2994         39.6004
        39.5004
 110091730.26946  20949756.874    85785769.69546  20949754.1884         39.6004
        39.9004
 113163084.39247  21534219.133    88179026.29747  21534215.1264         42.0004
        42.3004
 124433860.31844  23678972.129    96961448.25844  23678968.3524         25.6004
        25.7004
 126210593.05442  24017076.403    98345915.11442  24017074.8084         14.3004
        13.9004
 126857961.78043  24140263.994    98850362.54843  24140260.3234         22.4004
        21.9004
 116330789.63045  22137012.699    90647368.71945  22137007.4884         32.4004
        32.3004
 10 10 11  0 25  0.0000000  0  8G 6G16G 3G31G19G13G21G23
 107118504.84347  20383969.539    83468967.29647  20383966.7794         43.0004
        43.1004
 110599719.26546  21046427.926    86181598.18046  21046423.8014         39.5004
        39.7004
 109990843.49546  20930558.676    85707156.62746  20930556.2254         39.7004
        39.8004
 113175896.08246  21536657.117    88189009.40746  21536653.1484         41.5004
        41.6004
 124297190.90244  23652965.026    96854952.63344  23652961.3424         26.0004
        26.1004
 126099081.34242  23995857.401    98259022.94542  23995854.9414         15.0004
        13.9004
 126819519.49243  24132948.642    98820407.50443  24132945.1404         22.5004
        22.6004
 116264081.43345  22124318.906    90595388.28745  22124313.5204         32.6004
        32.5004
 10 10 11  0 25 30.0000000  0  8G 6G16G 3G31G19G13G21G23
 107056449.37347  20372160.694    83420612.39247  20372158.0534         42.8004
        42.7004
 110583582.92846  21043357.163    86169024.39646  21043353.2124         39.6004
        39.6004
 109890387.57046  20911442.698    85628879.28946  20911440.1614         40.0004
        40.1004
 113189060.59747  21539162.407    88199267.46146  21539158.1424         42.0004
        41.7004
 124160709.00244  23626993.406    96748603.12844  23626989.3354         26.5004
        26.5004
 125987954.44342  23974709.497    98172430.60442  23974707.4354         15.0004
        15.7004
 126781467.83543  24125707.647    98790756.84943  24125704.1274         22.5004
        22.7004
 116197940.51945  22111732.860    90543849.90345  22111727.1614         32.8004
        32.7004
 10 10 11  0 26  0.0000000  0  8G 6G16G 3G31G19G13G21G23
 106994900.29547  20360448.371    83372652.08047  20360445.3384         42.9004
        43.0004
 110567600.46046  21040315.599    86156570.52446  21040311.8174         39.6004
        39.5004
 109790365.60746  20892409.138    85550940.09846  20892406.6394         40.1004
        40.3004
 113202579.85447  21541735.203    88209801.93346  21541731.0404         42.1004
        41.7004
 124024418.64044  23601058.117    96642402.85344  23601054.3674         26.6004
        26.5004
 125877216.64342  23953637.286    98086141.45742  23953634.7304         16.2004
        15.7004
 126743809.50843  24118541.355    98761412.69143  24118537.6554         22.6004
        22.7004
 116132369.68945  22099254.901    90492755.72745  22099249.3884         32.7004
        32.7004
 10 10 11  0 26 30.0000000  0  8G 6G16G 3G31G19G13G21G23
 106933857.20947  20348831.961    83325086.04647  20348829.4134         42.8004
        42.9004
 110551770.54846  21037303.503    86144235.52046  21037299.7024         39.5004
        39.5004
 109690778.17646  20873458.314    85473339.51146  20873455.8404         39.9004
        40.0004
 113216453.35646  21544374.821    88220612.43946  21544370.7184         41.4004
        41.4004
 123888321.84344  23575159.894    96536353.40744  23575155.7874         26.5004
        26.8004
 125766869.70942  23932639.830    98000156.89142  23932636.9364         16.2004
        15.9004
 126706544.73443  24111449.933    98732375.18743  24111447.0144         23.0004
        22.8004
 116067369.86745  22086885.293    90442106.49745  22086880.3294         32.8004
        32.7004
 10 10 11  0 27  0.0000000  0  8G 6G16G 3G31G19G13G21G23
 106873317.06147  20337311.829    83277911.90947  20337308.8504         42.8004
        42.6004
 110536088.94346  21034318.998    86132016.08046  21034315.4584         39.5004
        39.4004
 109591623.71546  20854589.964    85396076.30646  20854587.2394         40.1004
        40.2004
 113230678.34746  21547081.882    88231696.83146  21547077.7314         41.2004
        41.3004
 123752417.30744  23549297.965    96430453.79344  23549295.3254         26.9004
        27.0004
 125656912.92042  23911713.645    97914476.32742  23911711.0474         16.4004
        17.0004
 126669671.70643  24104433.598    98703642.94243  24104429.1584         22.8004
        23.0004
 116002938.53645  22074624.649    90391900.25345  22074619.2794         32.7004
        32.8004
 10 10 11  0 27 30.0000000  0  8G 6G16G 3G31G19G13G21G23
 106813286.06847  20325888.445    83231134.51747  20325885.3294         42.6004
        42.9004
 110520560.78846  21031364.778    86119916.21846  21031360.7624         39.5004
        39.5004
 109492909.59946  20835805.069    85319156.22346  20835802.6614         39.9004
        40.1004
 113245261.00746  21549857.291    88243059.92546  21549852.9484         41.8004
        41.8004
 123616713.46144  23523475.167    96324710.55944  23523470.0304         27.0004
        27.2004
 125547354.74642  23890866.623    97829106.36742  23890864.1634         16.4004
        17.0004
 126633197.20043  24097492.597    98675221.25343  24097488.4484         22.8004
        23.0004
 115939082.99945  22062473.375    90342142.66845  22062467.9144         32.4004
        32.3004
 10 10 11  0 28  0.0000000  0  8G 6G16G 3G31G19G13G21G23
 106753762.77247  20314561.127    83184752.72647  20314558.5404         43.1004
        42.8004
 110505183.40046  21028438.283    86107933.83646  21028434.3514         39.3004
        39.4004
 109394635.64446  20817104.340    85242579.12046  20817101.6524         40.1004
        40.2004
 113260199.70846  21552700.019    88254700.46547  21552695.5404         41.9004
        42.1004
 123481210.58344  23497689.441    96219123.90744  23497685.0184         27.4004
        27.2004
 125438196.44842  23870093.091    97744048.00442  23870091.8984         16.4004
        15.7004
 126597120.93243  24090627.494    98647109.86643  24090623.6584         23.1004
        23.0004
 115875802.45345  22050431.196    90292833.13345  22050426.5914         32.6004
        32.5004
 10 10 11  0 28 30.0000000  0  8G 6G16G 3G31G19G13G21G23
 106694747.53947  20303331.219    83138766.84147  20303328.3084         42.8004
        42.9004
 110489956.27746  21025540.517    86096068.53646  21025536.5544         39.3004
        39.2004
 109296803.13046  20798487.227    85166345.99846  20798484.8404         40.2004
        40.4004
 113275494.71946  21555610.306    88266618.64046  21555606.0934         41.4004
        41.8004
 123345911.43844  23471942.848    96113696.04344  23471939.1614         27.3004
        27.4004
 125329440.25742  23849398.559    97659302.93942  23849396.9844         15.5004
        15.7004
 126561443.81243  24083838.864    98619309.49543  24083834.4524         23.4004
        23.6004
 115813098.18345  22038499.282    90243972.63745  22038494.5214         32.4004
        32.3004
 10 10 11  0 29  0.0000000  0  8G 6G16G 3G31G19G13G21G23
 106636239.74447  20292197.370    83093176.35347  20292194.6614         42.9004
        42.9004
 110474877.87446  21022670.920    86084319.11346  21022667.2634         39.0004
        38.9004
 109199412.87746  20779954.541    85090457.50346  20779951.9794         40.0004
        40.3004
 113291145.83446  21558588.693    88278814.30646  21558584.3774         41.7004
        41.8004
 123210817.94244  23446235.689    96008428.39944  23446231.1494         27.5004
        27.4004
 125221088.34642  23828780.563    97574872.90942  23828776.3234         15.5004
        15.7004
 126526166.27043  24077126.047    98591820.50443  24077122.2174         23.5004
        23.4004
 115750970.18545  22026676.314    90195561.18945  22026671.1344         32.3004
        32.1004
 10 10 11  0 29 30.0000000  0  8G 6G16G 3G31G19G13G21G23
 106578239.34747  20281160.236    83047981.24747  20281157.3794         42.9004
        42.8004
 110459946.99946  21019829.468    86072684.65446  21019826.0794         38.6004
        38.6004
 109102465.99946  20761505.967    85014914.48646  20761503.2044         40.6004
        40.9004
 113307152.92046  21561634.749    88291287.34346  21561630.9914         41.8004
        41.9004
 123075931.90044  23420567.807    95903322.40144  23420563.3294         27.8004
        27.9004
 125113142.98342  23808238.775    97490759.67042  23808236.3324         16.5004
        15.7004
 126491289.45743  24070489.069    98564643.77843  24070484.9434         23.3004
        23.4004
 115689419.58645  22014963.492    90147599.65745  22014958.8774         32.1004
        31.9004
 10 10 11  0 30  0.0000000  0  8G 6G16G 3G31G19G13G21G23
 106520746.17847  20270219.642    83003181.37647  20270216.8914         42.7004
        42.8004
 110445162.72246  21017016.133    86061164.43446  21017012.2144         38.2004
        37.9004
 109005962.97646  20743142.206    84939717.33446  20743139.4104         40.4004
        40.6004
 113323515.68846  21564748.681    88304037.53546  21564744.4474         41.7004
        41.7004
 122941255.18444  23394938.847    95798379.51444  23394935.0834         27.5004
        27.5004
 125005606.46342  23787774.156    97406965.01842  23787773.3694         16.5004
        17.2004
 126456814.02643  24063928.139    98537779.81343  24063924.1874         23.3004
        23.3004
 115628446.71345  22003361.369    90100088.30345  22003355.6574         31.9004
        31.9004
 10 10 11  0 30 30.0000000  0  8G 6G16G 3G31G19G13G21G23
 106463760.75547  20259375.640    82958777.15647  20259373.0544         43.0004
        42.9004
 110430524.32346  21014230.353    86049757.89146  21014226.8434         38.1004
        37.9004
 108909905.91146  20724862.935    84864867.67746  20724860.4584         40.6004
        40.8004
 113340234.92246  21567930.048    88317065.48746  21567925.7104         41.1004
        41.4004
 122806790.63744  23369351.309    95693601.96644  23369347.1264         27.7004
        27.9004
 124898481.60642  23767389.243    97323491.14142  23767387.3424         17.6004
        17.2004
 126422741.53843  24057444.821    98511229.82643  24057440.1754         23.0004
        23.1004
 115568053.25445  21991868.180    90053028.43245  21991864.0504         32.1004
        32.1004
 10 10 11  0 31  0.0000000  0  8G 6G16G 3G31G19G13G21G23
 106407282.55747  20248628.511    82914768.17947  20248625.3914         42.9004
        43.0004
 110416030.92246  21011472.237    86038464.32246  21011468.9494         37.7004
        37.5004
 108814295.58946  20706669.182    84790366.14046  20706666.5264         40.7004
        41.0004
 113357310.38146  21571179.740    88330371.02246  21571175.5024         41.4004
        41.4004
 122672540.03044  23343804.170    95588991.11844  23343799.6664         28.1004
        28.1004
 124791770.34842  23747081.618    97240339.54642  23747080.9104         17.6004
        16.9004
 126389072.15443  24051037.548    98484993.91843  24051033.6304         23.1004
        23.2004
 115508239.54645  21980485.969    90006420.33845  21980481.5114         32.1004
        32.1004
 10 10 11  0 31 30.0000000  0  8G 6G16G 3G31G19G13G21G23
 106351312.27447  20237977.795    82871154.97047  20237974.6694         42.7004
        42.8004
 110401681.87246  21008741.610    86027283.22846  21008738.8414         37.6004
        37.4004
 108719133.65546  20688560.321    84716213.98646  20688557.6784         41.3004
        41.5004
 113374742.40246  21574497.057    88343954.39646  21574492.7854         40.8004
        41.1004
 122538506.37144  23318298.756    95484549.30744  23318294.3294         28.2004
        27.8004
 124685475.82842  23726855.846    97157512.65642  23726853.1854         16.3004
        16.9004
 126355807.53343  24044707.513    98459073.44843  24044703.0114         23.2004
        23.2004
 115449006.86645  21969214.579    89960264.97145  21969209.8554         32.2004
        32.1004
 10 10 11  0 32  0.0000000  0  8G 6G16G 3G31G19G13G21G23
 106295850.81547  20227423.834    82827938.25747  20227420.6214         42.7004
        43.0004
 110387477.42746  21006039.082    86016214.81846  21006035.4584         37.7004
        37.4004
 108624422.74546  20670537.769    84642413.29146  20670534.9304         41.3004
        41.6004
 113392532.16146  21577881.956    88357816.52446  21577878.0564         41.0004
        41.0004
 122404692.64644  23292835.141    95380278.89144  23292830.8484         28.8004
        29.0004
 124579601.54342  23706707.211    97075013.22142  23706706.5024         15.2004
        15.6004
 126322949.58143  24038453.616    98433469.84843  24038450.8784         23.2004
        23.3004
 115390357.25345  21958054.481    89914563.95345  21958049.5114         32.4004
        32.4004
 10 10 11  0 32 30.0000000  0  8G 6G16G 3G31G19G13G21G23
 106240899.62847  20216966.922    82785119.15747  20216963.6764         42.8004
        42.9004
 110373418.41046  21003363.331    86005259.73146  21003360.2684         37.6004
        37.5004
 108530165.14646  20652601.389    84568965.82046  20652598.1724         41.6004
        41.6004
 113410681.21446  21581335.529    88371958.61846  21581331.5704         40.6004
        40.5004
 122271102.75544  23267413.604    95276182.90144  23267409.0284         28.8004
        29.1004
 124474151.07042  23686640.972    96992844.04042  23686639.8714         15.2004
        15.6004
 126290500.82143  24032279.517    98408185.11043  24032275.3134         22.9004
        22.5004
 115332292.64945  21947005.435    89869318.78545  21947000.0124         32.8004
        32.8004
 10 10 11  0 33  0.0000000  0  8G 6G16G 3G31G19G13G21G23
 106186459.11847  20206607.369    82742697.99047  20206604.2354         43.2004
        43.2004
 110359504.32346  21000716.190    85994417.57646  21000712.3794         37.9004
        37.7004
 108436362.96446  20634751.624    84495873.21546  20634748.3274         41.5004
        41.8004
 113429190.19646  21584857.392    88386381.17646  21584853.5634         40.3004
        40.2004
 122137739.37344  23242035.767    95172263.39144  23242031.0854         28.8004
        28.7004
 124369127.80142  23666656.978    96911007.73042  23666655.8104         16.0004
        15.5004
 126258462.69643  24026182.575    98383220.32143  24026179.0314         22.2004
        22.5004
 115274814.38345  21936068.368    89824530.51145  21936062.2614         33.2004
        33.1004
 10 10 11  0 33 30.0000000  0  8G 6G16G 3G31G19G13G21G23
 106132528.19147  20196344.814    82700673.89347  20196341.4064         43.0004
        43.1004
 110345733.20646  20998095.667    85983686.82546  20998091.9214         37.9004
        37.9004
 108343015.64446  20616988.022    84423135.05247  20616984.8084         41.7004
        42.1004
 113448057.81746  21588448.130    88401083.19646  21588443.9804         40.2004
        40.2004
 122004603.48644  23216700.581    95068521.16744  23216695.9434         29.8004
        29.7004
 124264532.83942  23646754.018    96829505.18742  23646751.2434         16.0004
        15.5004
 126226834.65043  24020163.437    98358575.08443  24020160.0374         22.2004
        21.8004
 115217921.88645  21925242.217    89780198.68945  21925236.1254         33.5004
        33.4004
 10 10 11  0 34  0.0000000  0  8G 6G16G 3G31G19G13G21G23
 106079106.40447  20186179.072    82659046.53347  20186175.4494         43.0004
        43.1004
 110332104.07646  20995502.888    85973066.71246  20995498.1214         38.2004
        38.2004
 108250124.22446  20599311.471    84350752.13047  20599308.4434         41.7004
        42.1004
 113467283.87746  21592106.791    88416064.52246  21592102.9174         39.6004
        39.7004
 121871697.01045  23191409.679    94964957.71045  23191404.6034         30.1004
        30.1004
 124160368.39943  23626931.911    96748338.10342  23626929.2264         18.1004
        17.9004
 126195617.70643  24014223.632    98334250.17443  24014220.6704         21.4004
        21.6004
 115161615.83345  21914527.375    89736323.82745  21914521.6544         33.5004
        33.7004
 10 10 11  0 34 30.0000000  0  8G 6G16G 3G31G19G13G21G23
 106026192.08447  20176109.535    82617814.59647  20176106.2904         43.0004
        43.2004
 110318614.55346  20992936.223    85962555.39146  20992931.1604         38.4004
        38.2004
 108157688.66547  20581721.462    84278724.42647  20581718.4854         42.0004
        42.6004
 113486867.16846  21595832.800    88431324.19946  21595829.4314         39.7004
        39.8004
 121739020.69444  23166162.429    94861573.57144  23166156.2374         29.5004
        29.6004
 124056635.06043  23607191.989    96667506.93943  23607190.4264         19.6004
        19.5004
 126164810.91143  24008360.525    98310244.88343  24008358.5394         21.8004
        21.6004
 115105895.73045  21903923.966    89692905.55345  21903917.8454         33.8004
        33.7004
 10 10 11  0 35  0.0000000  0  8G 6G16G 3G31G19G13G21G23
 105973788.57347  20166137.341    82576980.70047  20166134.3584         42.7004
        42.8004
 110305267.00546  20990396.310    85952154.69546  20990391.3704         38.6004
        38.7004
 108065713.12647  20564219.028    84207055.17647  20564216.2554         42.0004
        42.0004
 113506810.77246  21599627.846    88446864.63346  21599624.2134         39.5004
        39.4004
 121606580.21844  23140959.129    94758373.22944  23140954.2874         29.6004
        29.6004
 123953338.66343  23587535.506    96587016.24043  23587532.6614         19.6004
        19.5004
 126134418.62743  24002577.241    98286562.59143  24002574.4144         21.4004
        21.7004
 115050765.37445  21893433.492    89649946.82145  21893427.0794         34.2004
        34.2004
 10 10 11  0 35 30.0000000  0  8G 6G16G 3G31G19G13G21G23
 105921893.28047  20156262.268    82536542.81347  20156258.7564         42.9004
        43.2004
 110292058.38246  20987882.921    85941862.24146  20987877.7204         38.9004
        38.9004
 107974196.28547  20546803.844    84135743.36147  20546800.9924         42.1004
        42.3004
 113527112.27246  21603491.368    88462683.95546  21603487.6054         39.3004
        39.2004
 121474375.43944  23115801.375    94655356.53245  23115796.6894         29.8004
        30.1004
 123850479.12143  23567962.434    96506865.95843  23567958.9554         19.5004
        19.4004
 126104439.06243  23996871.779    98263201.88543  23996869.7204         21.4004
        20.4004
 114996222.82545  21883054.141    89607446.12345  21883047.8114         34.0004
        34.1004
 10 10 11  0 36  0.0000000  0  8G 6G16G 3G31G19G13G21G23
 105870502.98947  20146482.797    82496498.43347  20146479.5644         43.1004
        43.2004
 110278984.95646  20985395.206    85931675.14546  20985389.9494         39.5004
        39.3004
 107883136.17546  20529475.543    84064787.43547  20529472.8494         41.9004
        42.2004
 113547768.84346  21607421.978    88478779.96946  21607418.6144         39.3004
        39.2004
 121342405.38445  23090688.199    94552522.74845  23090682.9374         30.4004
        30.4004
 123748056.01943  23548471.537    96427055.73943  23548467.9744         19.5004
        19.4004
 126074870.41543  23991245.656    98240161.38143  23991242.5594         20.2004
        20.4004
 114942265.90745  21872786.058    89565401.76645  21872780.5744         34.0004
        34.2004
 10 10 11  0 36 30.0000000  0  8G 6G16G 3G31G19G13G21G23
 105819620.83547  20136800.028    82456850.00747  20136796.9324         43.0004
        42.9004
 110266049.26046  20982933.606    85921595.37646  20982928.6114         39.5004
        39.7004
 107792537.40446  20512235.033    83994190.99747  20512232.2664         41.9004
        42.0004
 113568783.73046  21611421.512    88495155.17346  21611417.5794         39.2004
        39.1004
 121210675.72544  23065620.871    94449876.27844  23065616.0294         29.8004
        29.8004
 123646074.97043  23529065.305    96347589.97943  23529061.7674         18.4004
        18.4004
 126045716.29343  23985697.766    98217443.87243  23985695.1474         20.1004
        20.2004
 114888898.22345  21862630.531    89523816.54645  21862624.8854         34.4004
        34.5004
 10 10 11  0 37  0.0000000  0  8G 6G16G 3G31G19G13G21G23
 105769244.05747  20127213.746    82417595.38247  20127210.5824         43.0004
        43.1004
 110253248.13446  20980497.829    85911620.45846  20980492.4194         39.8004
        39.5004
 107702398.39747  20495082.195    83923952.81247  20495079.4984         42.4004
        42.4004
 113590154.16346  21615487.892    88511807.42946  21615484.5734         39.2004
        39.0004
 121079185.87345  23040599.355    94347416.67645  23040594.4624         30.2004
        30.5004
 123544536.00043  23509742.766    96268468.68343  23509740.0794         18.6004
        18.4004
 126016975.16243  23980229.261    98195048.19443  23980225.8654         20.1004
        20.2004
 114836118.18645  21852586.956    89482689.23845  21852581.0974         34.4004
        34.5004
 10 10 11  0 37 30.0000000  0  8G 6G16G 3G31G19G13G21G23
 105719374.88747  20117723.958    82378736.28647  20117720.9804         42.8004
        43.1004
 110240583.13946  20978087.535    85901751.62446  20978082.4754         39.7004
        39.9004
 107612723.12346  20478017.390    83854075.98647  20478014.8484         41.8004
        42.0004
 113611882.75146  21619623.009    88528738.77046  21619618.9724         39.1004
        39.1004
 120947940.77545  23015623.776    94245147.79645  23015619.4364         30.9004
        31.1004
 123443443.48543  23490506.228    96189695.28343  23490502.5894         18.6004
        18.8004
 125988650.18443  23974838.026    98172976.77043  23974835.4674         20.0004
        19.9004
 114783928.48945  21842655.771    89442021.92945  21842649.7984         34.5004
        34.5004
 10 10 11  0 38  0.0000000  0  8G 6G16G 3G31G19G13G21G23
 105670012.86347  20108330.585    82340272.37247  20108327.6794         42.9004
        42.9004
 110228053.09246  20975702.939    85891987.94346  20975698.3164         39.7004
        39.8004
 107523511.57547  20461041.032    83784560.49747  20461038.3924         42.0004
        42.3004
 113633968.99946  21623825.466    88545948.80846  21623822.1274         39.4004
        39.2004
 120816942.02045  22990695.105    94143070.85445  22990690.4424         30.5004
        30.6004
 123342799.58143  23471354.075    96111271.47843  23471349.7464         19.4004
        19.6004
 125960741.79843  23969528.748    98151229.97643  23969524.7824         20.0004
        19.9004
 114732329.27945  21832836.681    89401814.74245  21832830.5984         34.6004
        34.7004
 10 10 11  0 38 30.0000000  0  8G 6G16G 3G31G19G13G21G23
 105621158.34847  20099034.050    82302203.91647  20099030.8154         43.3004
        43.4004
 110215658.10046  20973344.200    85882329.50246  20973339.9604         39.8004
        39.9004
 107434765.82946  20444153.422    83715407.97447  20444150.4934         41.9004
        42.2004
 113656413.74646  21628096.969    88563438.19746  21628093.3424         39.1004
        39.2004
 120686192.75045  22965814.876    94041188.30445  22965810.6014         30.5004
        30.7004
 123242606.90343  23452289.096    96033199.27743  23452285.2454         20.3004
        19.6004
 125933251.59743  23964297.369    98129809.03443  23964293.8754         19.9004
        19.9004
 114681321.79345  21823129.880    89362068.64345  21823124.3404         34.7004
        34.9004
 10 10 11  0 39  0.0000000  0  8G 6G16G 3G31G19G13G21G23
 105572810.58647  20089833.617    82264530.33247  20089830.7304         43.5004
        43.6004
 110203397.05246  20971010.736    85872775.43246  20971006.2834         40.0004
        40.1004
 107346486.26547  20427354.480    83646618.70947  20427351.3924         42.1004
        42.2004
 113679216.14546  21632436.009    88581206.27746  21632432.2144         39.1004
        39.0004
 120555694.53145  22940982.223    93939501.40845  22940977.6684         31.1004
        31.3004
 123142867.74743  23433308.643    95955480.47843  23433304.6074         20.3004
        20.8004
 125906180.04143  23959145.542    98108714.31343  23959142.4424         20.0004
        19.9004
 114630906.26345  21813536.290    89322783.81345  21813530.7864         34.7004
        34.7004
 10 10 11  0 39 30.0000000  0  8G 6G16G 3G31G19G13G21G23
 105524970.55347  20080729.743    82227252.38347  20080727.1224         43.1004
        43.0004
 110191270.32446  20968703.269    85863326.02246  20968698.3974         39.8004
        39.8004
 107258675.04847  20410644.536    83578194.38847  20410641.4994         42.1004
        42.4004
 113702377.40446  21636843.404    88599253.97946  21636839.9024         39.0004
        38.9004
 120425450.77345  22916197.483    93838012.78745  22916193.1654         31.4004
        31.5004
 123043585.76443  23414415.001    95878117.92243  23414412.4204         21.0004
        20.8004
 125879528.64943  23954073.748    98087946.99043  23954070.4564         20.0004
        19.9004
 114581084.16445  21804055.407    89283961.38745  21804050.4134         34.8004
        34.9004
 10 10 11  0 40  0.0000000  0  8G 6G16G 3G31G19G13G21G23
 105477636.76147  20071722.505    82190368.90647  20071719.8264         43.5004
        43.7004
 110179276.33646  20966420.447    85853980.04746  20966415.9154         39.7004
        39.9004
 107171331.95947  20394023.802    83510134.84047  20394020.8624         42.2004
        42.6004
 113725896.22646  21641319.107    88617580.30846  21641315.5244         38.9004
        38.9004
 120295462.45245  22891461.452    93736723.19445  22891456.6624         31.1004
        31.2004
 122944761.90243  23395609.496    95801112.32943  23395606.1234         21.0004
        20.9004
 125853297.57543  23949082.713    98067507.20043  23949078.5224         20.4004
        20.5004
 114531854.81145  21794687.462    89245600.84045  21794682.1914         35.0004
        35.1004
 10 10 11  0 40 30.0000000  0  8G 6G16G 3G31G19G13G21G23
 105430808.42547  20062811.633    82153879.29447  20062808.5324         42.8004
        43.3004
 110167413.54146  20964163.377    85844736.29546  20964158.7774         40.0004
        39.7004
 107084457.64647  20377492.353    83442440.57147  20377489.2094         42.6004
        42.6004
 113749772.18746  21645862.703    88636184.92446  21645858.9054         39.2004
        39.1004
 120165731.23745  22866775.023    93635633.95745  22866770.1444         31.6004
        31.7004
 122846397.78343  23376891.286    95724464.97843  23376887.2804         21.0004
        20.7004
 125827486.25843  23944171.100    98047394.47743  23944167.0574         20.9004
        20.7004
 114483218.30745  21785431.967    89207702.25745  21785426.9894         34.9004
        35.3004
 10 10 11  0 41  0.0000000  0  8G 6G16G 3G31G19G13G21G23
 105384483.48647  20053996.139    82117781.94047  20053993.1334         43.4004
        43.1004
 110155679.69446  20961930.336    85835593.02346  20961925.7904         39.9004
        40.1004
 106998051.22947  20361049.332    83375110.90247  20361046.6974         42.3004
        42.4004
 113774003.49146  21650473.640    88655066.43546  21650469.9584         39.0004
        38.7004
 120036257.66545  22842136.375    93534745.46945  22842131.8404         31.3004
        31.5004
 122748493.76443  23358260.333    95648176.13743  23358258.1074         20.3004
        20.7004
 125802093.60143  23939338.953    98027607.97643  23939334.4904         20.9004
        20.7004
 114435173.00545  21776289.499    89170264.34845  21776284.2804         35.2004
        35.3004
 10 10 11  0 41 30.0000000  0  8G 6G16G 3G31G19G13G21G23
 105338663.39947  20045277.004    82082077.98247  20045274.0354         42.6004
        42.8004
 110144075.94346  20959722.546    85826551.13346  20959717.8664         39.7004
        39.7004
 106912115.22747  20344696.291    83308147.78447  20344693.5004         42.3004
        42.7004
 113798591.59646  21655152.463    88674225.97146  21655149.5214         38.7004
        38.9004
 119907045.60645  22817548.093    93434060.76445  22817543.9714         31.7004
        31.8004
 122651054.07143  23339718.545    95572249.11343  23339714.7724         19.9004
        20.0004
 125777122.36843  23934586.977    98008149.88243  23934583.5164         20.4004
        20.4004
 114387721.13645  21767259.705    89133288.85445  21767254.7994         35.2004
        35.3004
 10 10 11  0 42  0.0000000  0  8G 6G16G 3G31G19G13G21G23
 105293349.11947  20036653.692    82046768.15247  20036650.9694         43.5004
        43.2004
 110132602.97246  20957539.039    85817611.14546  20957534.7054         40.0004
        40.0004
 106826652.65747  20328432.998    83241553.57847  20328430.4694         42.5004
        42.3004
 113823537.88246  21659899.386    88693664.61346  21659895.9574         38.6004
        38.5004
 119778098.93545  22793009.761    93333582.84745  22793005.2364         31.4004
        31.2004
 122554082.67843  23321266.012    95496686.96643  23321262.9384         19.9004
        20.0004
 125752574.55443  23929915.699    97989021.72643  23929911.0334         20.0004
        20.4004
 114340864.62945  21758343.513    89096777.27645  21758338.0934         35.2004
        35.4004
 10 10 11  0 42 30.0000000  0  8G 6G16G 3G31G19G13G21G23
 105248536.63747  20028126.209    82011849.33547  20028123.4054         43.1004
        43.1004
 110121256.62046  20955380.033    85808769.82546  20955375.3144         39.8004
        39.9004
 106741660.03947  20312259.745    83175325.56647  20312257.1614         42.1004
        42.3004
 113848838.44246  21664713.657    88713379.31246  21664710.6804         38.1004
        38.2004
 119649415.98845  22768522.483    93233310.44445  22768518.3604         31.4004
        31.8004
 122457577.48843  23302901.263    95421488.12843  23302898.6494         20.8004
        20.3004
 125728447.00443  23925324.337    97970221.04343  23925321.0914         20.0004
        19.9004
 114294599.92345  21749539.249    89060726.84845  21749533.9304         35.3004
        35.4004
 10 10 11  0 43  0.0000000  0  8G 6G16G 3G31G19G13G21G23
 105204224.73147  20019694.080    81977320.58347  20019691.2044         43.1004
        43.0004
 110110035.51946  20953244.530    85800026.09646  20953240.3004         39.6004
        39.6004
 106657137.89647  20296175.373    83109464.15447  20296172.8914         42.7004
        42.7004
 113874492.50946  21669596.178    88733369.47246  21669592.4364         38.8004
        38.6004
 119520998.12945  22744085.468    93133244.59245  22744081.1674         31.8004
        31.8004
 122361540.53043  23284626.113    95346654.12543  23284623.6534         21.5004
        21.2004
 125704739.87943  23920812.910    97951747.97443  23920808.7234         20.4004
        20.7004
 114248926.76445  21740847.967    89025137.36645  21740842.8024         35.2004
        35.2004
 10 10 11  0 43 30.0000000  0  8G 6G16G 3G31G19G13G21G23
 105160415.41647  20011357.616    81943183.44947  20011354.5574         43.2004
        43.3004
 110098941.18646  20951133.381    85791381.15046  20951129.3844         39.9004
        40.0004
 106573089.34647  20280181.732    83043971.78347  20280179.2154         42.5004
        42.8004
 113900502.17846  21674545.366    88753636.71846  21674542.1304         38.5004
        38.4004
 119392849.68345  22719699.331    93033388.68945  22719695.6964         31.3004
        31.3004
 122265976.19443  23266441.621    95272188.43143  23266437.8034         21.5004
        21.2004
 125681455.97643  23916382.316    97933604.66443  23916378.2224         20.5004
        20.7004
 114203847.43745  21732269.567    88990010.61145  21732264.3074         35.0004
        35.2004
 10 10 11  0 44  0.0000000  0  8G 6G16G 3G31G19G13G21G23
 105117107.46047  20003116.238    81909436.99247  20003113.3384         43.2004
        43.1004
 110087972.23446  20949046.257    85782833.90646  20949041.5714         39.5004
        39.7004
 106489514.57547  20264278.110    82978848.58847  20264275.4114         42.6004
        42.9004
 113926866.29846  21679562.383    88774180.16546  21679558.7954         38.4004
        38.3004
 119264972.10545  22695365.150    92933743.83345  22695360.7414         31.3004
        31.4004
 122170885.80843  23248345.678    95198092.03543  23248343.7494         22.0004
        21.8004
 125658595.02043  23912031.822    97915790.93443  23912028.5924         20.5004
        20.1004
 114159361.34245  21723803.969    88955346.10945  21723798.4664         35.1004
        35.1004
 10 10 11  0 44 30.0000000  0  8G 6G16G 3G31G19G13G21G23
 105074300.97947  19994970.381    81876081.29547  19994967.5394         43.2004
        43.0004
 110077128.87446  20946982.827    85774384.53046  20946978.2704         39.9004
        39.9004
 106406414.65747  20248464.545    82914095.40647  20248461.8754         42.5004
        42.6004
 113953585.67346  21684647.072    88795000.42846  21684643.2794         38.4004
        38.4004
 119137368.16145  22671083.209    92834312.20345  22671079.5004         31.9004
        32.1004
 122076272.21343  23230341.880    95124367.16043  23230339.5064         22.1004
        22.1004
 125636158.25843  23907762.640    97898307.76043  23907758.1514         20.4004
        20.1004
 114115469.91745  21715451.837    88921144.98845  21715446.2254         35.0004
        35.1004
 10 10 11  0 45  0.0000000  0  8G 6G16G 3G31G19G13G21G23
 105031994.96547  19986919.797    81843115.57347  19986916.7464         43.2004
        43.1004
 110066409.78946  20944943.387    85766031.98446  20944938.6564         40.0004
        40.0004
 106323789.79447  20232741.555    82849712.39247  20232739.0984         42.4004
        42.7004
 113980659.40346  21689799.034    88816096.81946  21689795.4194         38.3004
        38.4004
 119010039.58245  22646853.019    92735095.16445  22646848.8344         32.0004
        32.2004
 121982137.08443  23212428.298    95051015.13643  23212424.9284         22.1004
        22.1004
 125614145.69443  23903573.185    97881155.11043  23903570.4014         20.4004
        20.5004
 114072172.13245  21707212.558    88887406.43745  21707207.1774         35.0004
        35.0004
 10 10 11  0 45 30.0000000  0  8G 6G16G 3G31G19G13G21G23
 104990188.85847  19978964.574    81810539.38047  19978961.6854         43.4004
        43.3004
 110055814.45046  20942926.759    85757775.86146  20942922.5574         39.9004
        40.0004
 106241641.35547  20217109.244    82785700.62447  20217106.6854         42.8004
        42.9004
 114008087.23846  21695018.570    88837469.12646  21695014.9234         38.6004
        38.6004
 118882988.37245  22622676.323    92636094.23645  22622671.4084         32.0004
        32.0004
 121888482.25043  23194606.598    94978037.35043  23194603.6104         22.2004
        22.2004
 125592557.66643  23899465.272    97864333.27343  23899461.3474         20.4004
        20.3004
 114029468.21745  21699086.466    88854130.64045  21699080.8744         35.1004
        35.2004
 10 10 11  0 46  0.0000000  0  8G 6G16G 3G31G19G13G21G23
 104948883.51747  19971104.289    81778353.40147  19971101.4564         43.3004
        43.1004
 110045343.66446  20940934.589    85749616.80446  20940930.0484         40.0004
        40.0004
 106159971.05347  20201567.868    82722061.42947  20201565.3164         42.3004
        42.5004
 114035870.07246  21700305.281    88859118.05746  21700301.8824         38.3004
        38.4004
 118756217.86545  22598552.136    92537312.03645  22598548.3544         31.7004
        31.8004
 121795311.29443  23176876.723    94905436.59543  23176873.2364         22.5004
        22.4004
 125571396.11643  23895438.155    97847843.76043  23895434.3474         20.2004
        20.3004
 113987359.69345  21691073.234    88821318.78645  21691068.1884         34.9004
        35.0004
 10 10 11  0 46 30.0000000  0  8G 6G16G 3G31G19G13G21G23
 104908076.67647  19963338.649    81746555.86147  19963336.1624         43.3004
        43.4004
 110034995.11446  20938965.157    85741552.99446  20938960.4624         40.2004
        40.2004
 106078778.04447  20186117.413    82658794.15147  20186114.6624         42.5004
        42.8004
 114064006.26646  21705659.310    88881042.34246  21705655.8794         38.0004
        38.0004
 118629728.50545  22574482.583    92438748.92745  22574478.2674         32.2004
        32.1004
 121702624.61343  23159239.067    94833213.20643  23159236.3544         22.2004
        22.4004
 125550659.98243  23891492.601    97831685.72743  23891487.5774         20.1004
        20.0004
 113945845.17745  21683173.129    88788969.80245  21683167.8174         34.9004
        34.9004
 10 10 11  0 47  0.0000000  0  8G 6G16G 3G31G19G13G21G23
 104867769.47147  19955668.829    81715147.64747  19955666.0444         43.0004
        43.1004
 110024769.92446  20937019.326    85733585.30646  20937015.0594         39.9004
        40.0004
 105998065.03647  20170758.254    82595900.89847  20170755.3354         42.1004
        42.8004
 114092496.85246  21711080.809    88903242.76346  21711077.3064         37.9004
        38.0004
 118503524.25145  22550466.912    92340407.96545  22550461.8334         32.5004
        32.6004
 121610425.95943  23141694.052    94761370.11543  23141689.8554         22.2004
        22.2004
 125530351.23343  23887627.362    97815860.73043  23887624.4304         20.1004
        20.0004
 113904926.21845  21675386.991    88757084.88145  21675381.6104         35.1004
        35.2004
 10 10 11  0 47 30.0000000  0  8G 6G16G 3G31G19G13G21G23
 104827958.41647  19948092.862    81684126.04347  19948090.1754         43.0004
        43.0004
 110014664.45746  20935096.428    85725710.90446  20935091.9984         39.9004
        39.9004
 105917829.70347  20155489.777    82533379.85947  20155487.0854         42.6004
        42.8004
 114121338.89446  21716569.598    88925717.04246  21716565.8164         38.0004
        38.1004
 118377604.31345  22526505.210    92242288.54145  22526500.0624         31.9004
        32.1004
 121518714.80743  23124241.872    94689906.86343  23124238.7484         21.9004
        22.0004
 125510467.40143  23883844.277    97800366.81343  23883839.8884         20.3004
        20.3004
 113864599.96845  21667712.753    88725661.81845  21667707.9274         35.0004
        35.1004
 10 10 11  0 48  0.0000000  0  8G 6G16G 3G31G19G13G21G23
 104788643.28547  19940611.393    81653490.87847  19940608.6964         43.0004
        43.1004
 110004678.80246  20933196.362    85717929.87146  20933191.3824         39.8004
        40.0004
 105838073.18047  20140312.617    82471231.92547  20140309.9334         42.0004
        42.7004
 114150532.49146  21722125.050    88948465.27446  21722121.1924         37.8004
        37.8004
 118251970.88545  22502596.924    92144392.38845  22502593.0734         32.1004
        32.2004
 121427493.15143  23106882.703    94618825.05943  23106880.1404         22.4004
        22.0004
 125491009.28543  23880141.691    97785204.66443  23880138.2174         19.9004
        20.1004
 113824866.83445  21660151.968    88694700.91945  21660146.8624         35.1004
        35.1004
 10 10 11  0 48 30.0000000  0  8G 6G16G 3G31G19G13G21G23
 106325246.74747  20233017.439    82850844.22247  20233014.5994         42.8004
        43.0004
 111570234.41646  21231111.103    86937843.32846  21231107.2354         39.8004
        39.7004
 107334220.29047  20425020.152    83637060.84647  20425017.2464         42.8004
        43.3004
 115755498.09946  22027539.753    90199087.79446  22027535.9784         37.8004
        37.7004
 119702052.17145  22778538.763    93274325.88245  22778534.0654         32.3004
        32.6004
 122912187.89143  23389411.178    95775730.05443  23389407.9654         22.4004
        22.5004
 127047399.83443  24176312.840    98997976.51343  24176308.8344         19.9004
        20.1004
 115361149.96245  21952496.913    89891804.63345  21952491.6934         35.4004
        35.5004
 10 10 11  0 49  0.0000000  0  9G 6G24G16G 3G31G19G13G21G23
 106286924.48247  20225725.007    82820982.72147  20225722.0404         42.9004
        43.2004
 132092245.40841  25136316.749   102929026.45741  25136322.3124         10.6004
        10.7004
 111560489.27746  21229256.626    86930249.70246  21229252.3704         39.7004
        39.6004
 107255425.93647  20410025.947    83575662.64847  20410023.3694         42.4004
        42.7004
 115785396.86246  22033229.369    90222385.48846  22033225.6934         37.8004
        37.8004
 119577000.91945  22754742.363    93176883.36745  22754737.7454         32.6004
        32.8004
 122821954.32943  23372239.754    95705418.18743  23372237.2944         23.0004
        23.3004
 127028797.36943  24172772.901    98983481.07843  24172768.9094         19.8004
        19.9004
 115322605.75945  21945162.516    89861770.17945  21945157.4844         35.4004
        35.4004
 10 10 11  0 49 30.0000000  0  9G 6G24G16G 3G31G19G13G21G23
 106249096.79947  20218526.748    82791506.61547  20218523.5844         43.2004
        43.1004
 131968710.89641  25112809.354   102832765.82841  25112812.4004         10.6004
        10.7004
 111550862.70346  21227424.895    86922748.45646  21227420.3104         39.7004
        39.7004
 107177112.78347  20395123.565    83514639.41547  20395120.7994         42.8004
        43.0004
 115815646.69246  22038985.565    90245956.75946  22038981.7624         37.9004
        37.7004
 119452243.08745  22731001.484    93079669.47145  22730996.7104         32.3004
        32.4004
 122732217.31343  23355164.024    95635493.24144  23355161.0634         23.9004
        24.4004
 127010622.62743  24169313.682    98969318.91843  24169310.3414         20.1004
        19.9004
 115284654.93245  21937940.816    89832198.07245  21937935.6464         35.2004
        35.4004
 10 10 11  0 50  0.0000000  0  9G 6G24G16G 3G31G19G13G21G23
 106211766.11547  20211422.593    82762417.77247  20211419.6544         43.0004
        43.2004
 131844998.47141  25089269.398   102736366.57041  25089269.6774         11.3004
        10.4004
 111541357.43646  21225616.360    86915341.74346  21225611.6854         39.8004
        39.8004
 107099284.38847  20380313.206    83453993.90747  20380310.6874         43.2004
        43.1004
 115846250.43846  22044809.289    90269803.79146  22044805.9064         37.4004
        37.4004
 119327783.74745  22707317.685    92982688.17945  22707313.2974         33.0004
        33.1004
 122642981.42644  23338182.507    95565958.80444  23338179.5194         24.7004
        24.4004
 126992878.84543  24165937.455    98955492.56643  24165934.1494         20.1004
        20.1004
 115247300.53645  21930832.394    89803090.75045  21930827.1274         35.5004
        35.3004
 10 10 11  0 50 30.0000000  0  9G 6G24G16G 3G31G19G13G21G23
 106174929.53947  20204413.036    82733713.94147  20204409.8874         43.2004
        43.3004
 131721108.30941  25065691.964   102639828.83641  25065695.9574         11.3004
        10.4004
 111531971.01846  21223830.094    86908027.62746  21223825.5814         39.5004
        39.7004
 107021939.44747  20365594.955    83393725.12247  20365592.3774         42.9004
        43.1004
 115877205.39646  22050699.727    90293924.50046  22050696.6334         38.0004
        37.9004
 119203622.68545  22683690.326    92885939.31845  22683686.3334         32.7004
        32.7004
 122554246.62144  23321297.049    95496814.82744  23321294.6294         25.0004
        24.9004
 126975563.75243  24162642.691    98942000.27743  24162639.1344         19.5004
        19.4004
 115210540.44545  21923837.005    89774446.49145  21923831.7614         35.3004
        35.5004
 10 10 11  0 51  0.0000000  0  9G 6G24G16G 3G31G19G13G21G23
 106138582.91147  20197496.412    82705391.88447  20197493.4264         43.0004
        43.0004
 131597039.01241  25042084.653   102543151.52942  25042086.1904         11.6004
        12.4004
 111522698.74046  21222065.755    86900802.46946  21222060.9184         39.5004
        39.7004
 106945075.16347  20350968.258    83333830.87347  20350965.6324         43.2004
        43.2004
 115908507.99446  22056656.895    90318316.10646  22056653.4484         38.0004
        38.0004
 119079758.45745  22660119.973    92789421.74345  22660115.2474         32.6004
        32.6004
 122466011.44144  23304506.675    95428060.15044  23304503.1394         24.1004
        24.8004
 126958674.85943  24159429.595    98928840.07943  24159424.7744         19.5004
        19.4004
 115174371.05245  21916954.344    89746262.52345  21916949.2374         35.5004
        35.5004
 10 10 11  0 51 30.0000000  0  9G 6G24G16G 3G31G19G13G21G23
 106102726.59047  20190673.256    82677451.89147  20190670.4254         43.1004
        43.0004
 131472793.95441  25018439.329   102446337.22742  25018441.7914         11.6004
        12.4004
 111513541.80746  21220323.215    86893667.18346  21220318.2534         39.5004
        39.5004
 106868693.30347  20336433.312    83274312.53747  20336430.7154         42.7004
        43.4004
 115940158.63346  22062679.185    90342978.89246  22062676.2944         37.7004
        37.7004
 118956194.12445  22636606.335    92693137.85245  22636602.0224         32.9004
        33.1004
 122378278.92644  23287811.538    95359697.15143  23287807.6574         24.1004
        23.5004
 126942213.41943  24156296.082    98916012.97043  24156292.2734         19.2004
        19.2004
 115138793.15145  21910184.257    89718539.45145  21910178.6574         35.4004
        35.4004
 10 10 11  0 52  0.0000000  0  9G 6G24G16G 3G31G19G13G21G23
 106067362.78047  20183943.565    82649895.67147  20183940.7024         42.8004
        42.9004
 131348378.39742  24994764.329   102349390.10741  24994767.1544         12.8004
        11.7004
 111504502.26946  21218602.721    86886623.36446  21218598.5314         39.6004
        39.8004
 106792797.01947  20321990.780    83215172.56847  20321987.9854         42.7004
        43.4004
 115972160.02446  22068769.252    90367915.00446  22068765.6734         37.5004
        37.4004
 118832934.82045  22613150.874    92597091.66145  22613146.8544         33.3004
        33.3004
 122291053.93643  23271213.159    95291729.63843  23271210.0584         23.3004
        23.5004
 126926182.60143  24153245.794    98903521.39443  24153240.8974         19.7004
        19.2004
 115103809.19045  21903526.389    89691279.19645  21903521.7374         35.2004
        35.2004
 10 10 11  0 52 30.0000000  0  9G 6G24G16G 3G31G19G13G21G23
 106032489.39547  20177307.508    82622721.60447  20177304.6804         42.7004
        42.8004
 131223793.71942  24971057.950   102252311.19041  24971059.7914         12.1004
        11.7004
 111495578.60946  21216904.709    86879669.84346  21216900.6144         39.7004
        39.8004
 106717385.83847  20307640.378    83156410.60747  20307637.7614         42.8004
        43.2004
 116004510.59446  22074925.664    90393123.20246  22074921.8794         37.5004
        37.6004
 118709981.39445  22589754.150    92501283.81845  22589749.6554         33.4004
        33.5004
 122204337.09343  23254711.152    95224158.08143  23254707.3834         22.9004
        22.9004
 126910581.47543  24150277.833    98891364.65143  24150273.7554         19.7004
        19.8004
 115069418.07045  21896982.229    89664480.89645  21896976.9094         35.2004
        35.2004
 10 10 11  0 53  0.0000000  0  9G 6G24G16G 3G31G19G13G21G23
 105998102.05847  20170763.967    82595926.26947  20170760.8384         42.7004
        42.9004
 131099038.61042  24947316.381   102155099.46442  24947319.2334         12.1004
        12.7004
 111486766.56946  21215227.709    86872803.31146  21215223.7214         39.5004
        39.6004
 106642456.50347  20293381.761    83098024.10747  20293379.2624         43.1004
        43.3004
 116037206.15846  22081147.213    90418600.21846  22081143.6414         37.5004
        37.3004
 118587331.97645  22566414.057    92405712.84845  22566409.7024         33.1004
        33.2004
 122118126.27843  23238305.503    95156980.85343  23238302.5744         22.4004
        22.6004
 126895406.56243  24147389.362    98879540.02243  24147385.7654         20.1004
        20.5004
 115035615.62545  21890549.734    89638141.31145  21890544.6634         35.3004
        35.3004
 10 10 11  0 53 30.0000000  0  9G 6G24G16G 3G31G19G13G21G23
 105964202.84147  20164312.901    82569511.29247  20164309.9994         42.6004
        43.0004
 130974118.12042  24923544.693   102057758.86042  24923547.7114         12.8004
        12.7004
 111478068.95246  21213572.769    86866025.93546  21213568.3444         39.6004
        39.8004
 106568012.44447  20279215.402    83040015.75147  20279212.9354         42.9004
        43.5004
 116070249.08546  22087435.440    90444347.90646  22087431.6354         37.4004
        37.3004
 118464991.43045  22543133.884    92310382.56445  22543129.0104         33.4004
        33.5004
 122032426.82843  23221997.842    95090202.06243  23221995.0024         23.2004
        22.6004
 126880660.95543  24144583.337    98868049.92543  24144579.6094         20.8004
        20.5004
 115002404.77945  21884230.276    89612262.69845  21884225.1294         35.1004
        35.1004
 10 10 11  0 54  0.0000000  0  9G 6G24G16G 3G31G19G13G21G23
 105930789.69247  20157954.525    82543475.07247  20157951.7764         42.9004
        43.0004
 130849033.42642  24899742.600   101960290.31842  24899745.8424         12.8004
        13.0004
 111469483.61546  21211939.112    86859336.04446  21211934.8854         39.5004
        39.6004
 106494052.87447  20265141.764    82982384.91147  20265138.7934         42.5004
        43.0004
 116103637.74146  22093788.719    90470364.99246  22093785.4164         37.3004
        37.3004
 118342960.44045  22519912.288    92215293.49545  22519907.3814         34.2004
        34.3004
 121947238.79443  23205786.949    95023821.77043  23205783.5294         23.2004
        23.2004
 126866343.56843  24141858.699    98856893.49343  24141854.5594         20.8004
        21.3004
 114969783.68545  21878022.473    89586843.64245  21878017.4054         35.2004
        35.4004
 10 10 11  0 54 30.0000000  0  9G 6G24G16G 3G31G19G13G21G23
 105897864.44047  20151689.164    82517819.03747  20151686.2254         42.7004
        42.5004
 130723789.69342  24875908.803   101862697.80842  24875911.7744         13.5004
        13.0004
 111461013.10346  21210327.079    86852735.62646  21210322.7584         39.6004
        39.6004
 106420581.06647  20251160.487    82925134.15647  20251157.5514         42.9004
        43.1004
 116137374.25446  22100208.550    90496653.13946  22100205.0274         37.0004
        36.9004
 118221243.63445  22496750.157    92120449.24045  22496745.2374         33.9004
        33.9004
 121862566.68743  23189674.730    94957843.52944  23189671.6724         23.9004
        24.1004
 126852457.47243  24139216.273    98846073.14343  24139212.8004         21.4004
        21.3004
 114937754.62345  21871927.554    89561885.90545  21871922.6274         35.3004
        35.4004
 10 10 11  0 55  0.0000000  0  9G 6G24G16G 3G31G19G13G21G23
 105865423.65947  20145515.635    82492540.50547  20145512.8924         42.8004
        42.7004
 130598386.77642  24852045.571   101764981.27842  24852048.1864         13.5004
        13.0004
 111452654.05446  21208736.691    86846222.06946  21208732.1204         39.3004
        39.3004
 106347594.75647  20237271.701    82868261.70547  20237268.7714         42.9004
        43.0004
 116171455.69946  22106694.498    90523210.06946  22106690.7634         37.2004
        37.3004
 118099840.52645  22473647.730    92025849.42645  22473642.9884         33.9004
        34.1004
 121778409.95444  23173660.233    94892266.85944  23173657.9144         24.2004
        24.3004
 126839000.21743  24136655.493    98835586.94243  24136652.2854         20.9004
        21.1004
 114906314.69645  21865945.081    89537387.23745  21865940.0884         35.4004
        35.5004
 10 10 11  0 55 30.0000000  0  9G 6G24G16G 3G31G19G13G21G23
 105833466.33247  20139434.255    82467638.69047  20139431.5824         42.6004
        42.6004
 130472826.63742  24828152.173   101667142.30242  24828155.0354         12.6004
        13.0004
 111444405.90846  21207166.877    86839794.92046  21207162.6354         39.1004
        39.1004
 106275094.01347  20223474.915    82811767.62647  20223472.3314         42.9004
        43.1004
 116205881.30146  22113245.037    90550035.15846  22113241.7774         37.1004
        37.1004
 117978752.78345  22450605.742    91931495.34945  22450601.3034         34.0004
        33.9004
 121694769.97344  23157743.765    94827092.85144  23157741.5844         24.6004
        24.6004
 126825971.47243  24134176.062    98825434.66343  24134173.2644         20.9004
        20.9004
 114875463.20245  21860074.124    89513347.08245  21860069.0124         35.4004
        35.4004
 10 10 11  0 56  0.0000000  0  9G 6G24G16G 3G31G19G13G21G23
 105801991.72247  20133445.237    82443113.02147  20133442.4104         42.7004
        42.6004
 130347111.92942  24804229.055   101569182.85842  24804232.3184         12.6004
        13.0004
 111436268.62346  21205618.543    86833454.16046  21205613.8584         39.3004
        39.5004
 106203079.90847  20209771.261    82755652.74247  20209768.7344         42.8004
        43.1004
 116240650.99046  22119861.770    90577128.37846  22119857.9484         37.0004
        37.1004
 117857982.60345  22427623.913    91837388.73445  22427619.3334         34.2004
        34.4004
 121611649.02544  23141926.560    94762323.30644  23141923.1274         24.5004
        24.6004
 126813371.87843  24131779.476    98815616.77043  24131775.2234         21.2004
        20.9004
 114845200.04845  21854315.286    89489765.37545  21854310.3094         35.4004
        35.5004
 10 10 11  0 56 30.0000000  0  9G 6G24G16G 3G31G19G13G21G23
 105770999.00247  20127547.222    82418962.85047  20127544.4574         42.7004
        42.6004
 130221245.16842  24780278.690   101471104.90942  24780280.3314         13.2004
        13.0004
 111428241.70746  21204090.911    86827199.41346  21204086.9434         39.4004
        39.6004
 106131552.29747  20196159.950    82699916.94147  20196157.1784         43.4004
        43.2004
 116275764.09946  22126543.990    90604489.19746  22126540.5224         37.2004
        37.1004
 117737531.80145  22404703.215    91743530.97745  22404698.6434         34.4004
        34.4004
 121529048.80844  23126207.260    94697959.52644  23126205.1234         24.7004
        24.5004
 126801201.66043  24129462.646    98806133.46643  24129459.4634         21.6004
        21.6004
 114815524.91245  21848667.984    89466641.87445  21848663.1754         35.3004
        35.2004
 10 10 11  0 57  0.0000000  0  9G 6G24G16G 3G31G19G13G21G23
 105740486.93947  20121741.156    82395187.21547  20121738.1704         42.9004
        42.7004
 130095228.73442  24756296.863   101372910.36342  24756300.2524         13.2004
        13.8004
 111420324.51646  21202584.348    86821030.16046  21202580.4774         39.4004
        39.6004
 106060511.63947  20182641.757    82644560.58847  20182638.6584         43.4004
        43.7004
 116311219.99646  22133291.129    90632117.10846  22133287.4464         36.9004
        36.9004
 117617402.06945  22381842.557    91649923.40945  22381838.7974         34.1004
        34.2004
 121446970.47644  23110588.526    94634002.41144  23110586.3024         24.7004
        24.8004
 126789460.41143  24127228.466    98796984.42843  24127224.8254         21.2004
        21.3004
 114786436.69645  21843132.813    89443975.69745  21843127.8994         35.2004
        35.3004
 10 10 11  0 57 30.0000000  0  9G 6G24G16G 3G31G19G13G21G23
 105710456.15147  20116026.578    82371786.60847  20116023.4934         42.7004
        42.8004
 129969066.54142  24732290.436   101274602.22242  24732292.3884         13.6004
        13.8004
 111412518.31646  21201099.225    86814947.39546  21201094.8324         39.6004
        39.5004
 105989959.65447  20169215.780    82589585.01547  20169212.9874         43.1004
        43.6004
 116347019.30446  22140103.464    90660012.62346  22140099.5904         36.8004
        36.9004
 117497596.86845  22359045.029    91556568.71645  22359040.0454         34.3004
        34.4004
 121365417.55444  23095070.214    94570454.70344  23095067.2334         24.8004
        24.7004
 126778149.87243  24125076.320    98788171.02543  24125072.0564         21.2004
        21.3004
 114757936.59945  21837709.945    89421767.80845  21837704.5794         35.2004
        35.4004
 10 10 11  0 58  0.0000000  0  9G 6G24G16G 3G31G19G13G21G23
 105680903.74547  20110402.920    82348758.75647  20110399.9924         42.7004
        42.8004
 129842759.06442  24708254.041   101176180.88542  24708256.3564         13.6004
        13.4004
 111404820.67946  21199634.553    86808949.22446  21199630.2434         39.6004
        39.7004
 105919895.12647  20155883.060    82534989.28047  20155880.2274         43.2004
        43.3004
 116383159.74746  22146980.558    90688173.95746  22146977.3354         36.8004
        36.7004
 117378116.26945  22336308.418    91463466.95745  22336303.5374         34.2004
        34.3004
 121284389.75044  23079651.232    94507316.18344  23079648.2484         24.6004
        24.8004
 126767268.15143  24123006.088    98779691.74843  24123002.2014         20.6004
        20.6004
 114730022.13445  21832397.727    89400016.24945  21832392.4534         35.1004
        35.3004
 10 10 11  0 58 30.0000000  0  9G 6G24G16G 3G31G19G13G21G23
 105651829.70447  20104870.291    82326103.66047  20104867.5344         42.6004
        42.8004
 129716309.89142  24684192.634   101077649.11542  24684192.0824         13.3004
        13.4004
 111397232.25546  21198190.349    86803036.15946  21198185.9614         39.7004
        39.5004
 105850319.04647  20142643.147    82480774.15447  20142640.4264         42.9004
        43.4004
 116419641.67246  22153922.719    90716601.38246  22153919.4424         36.7004
        36.7004
 117258963.03845  22313634.248    91370620.29845  22313629.6314         34.6004
        34.7004
 121203889.53344  23064332.232    94444588.74644  23064328.7474         24.7004
        24.8004
 126756816.55243  24121016.829    98771547.62643  24121012.7734         20.4004
        20.6004
 114702694.04445  21827197.121    89378721.61145  21827192.4264         35.1004
        35.2004
 10 10 11  0 59  0.0000000  0  9G 6G24G16G 3G31G19G13G21G23
 105623232.04247  20099428.345    82303819.77547  20099425.4834         43.0004
        42.8004
 129589720.48542  24660102.495   100979008.12342  24660104.7554         13.1004
        12.9004
 111389751.47946  21196766.746    86797206.96746  21196762.3394         39.3004
        39.3004
 105781230.98347  20129496.042    82426939.30347  20129493.1804         43.2004
        43.1004
 116456463.65146  22160929.926    90745293.78346  22160926.3864         36.5004
        36.5004
 117140138.13545  22291021.965    91278029.47745  22291018.6184         34.4004
        34.6004
 121123917.22144  23049114.486    94382272.67644  23049110.8024         25.1004
        25.0004
 126746793.75543  24119109.016    98763737.63043  24119105.7784         20.4004
        20.5004
 114675950.55745  21822108.139    89357882.49945  21822103.1704         34.8004
        35.1004
 10 10 11  0 59 30.0000000  0  9G 6G24G16G 3G31G19G13G21G23
 105595111.30847  20094076.893    82281907.51247  20094074.1804         42.8004
        42.7004
 129462994.62942  24635987.546   100880260.81542  24635989.3074         13.1004
        12.9004
 111382379.66646  21195363.846    86791462.69046  21195359.3154         39.3004
        39.3004
 105712632.49847  20116442.088    82373485.93347  20116439.6214         43.2004
        43.2004
 116493626.57146  22168001.453    90774251.85546  22167998.5524         36.7004
        36.6004
 117021644.88145  22268473.935    91185697.08945  22268469.4884         34.5004
        34.8004
 121044476.70944  23033997.189    94320370.97744  23033994.2084         25.0004
        25.2004
 126737201.40543  24117283.780    98756263.06143  24117280.5204         19.9004
        19.8004
 114649792.21745  21817130.585    89337499.35045  21817125.0244         35.0004
        35.1004
                            4  1
RINEX FILE SPLICE; other post-header comments skipped       COMMENT
 10 10 11  1  0  0.0000000  0  9G 6G24G16G 3G31G19G13G21G23
 105567464.92847  20088816.326    82260364.87547  20088813.4534         42.9004
        42.8004
 129336133.07142  24611845.690   100781407.76442  24611849.1064         13.8004
        13.8004
 111375114.62846  21193981.461    86785801.61646  21193977.1604         39.4004
        39.4004
 105644522.10447  20103481.108    82320412.90447  20103478.4704         43.4004
        43.4004
 116531127.97146  22175137.936    90803473.67246  22175134.6134         36.6004
        36.6004
 116903483.15745  22245988.256    91093623.03545  22245983.5974         34.6004
        34.7004
 120965567.45144  23018981.146    94258883.25044  23018978.6804         24.9004
        24.9004
 126728037.87643  24115540.011    98749122.62443  24115536.4214         19.9004
        19.8004
 114624216.73845  21812263.686    89317570.37945  21812258.6074         35.0004
        35.0004
 10 10 11  1  0 30.0000000  0  9G 6G24G16G 3G31G19G13G21G23
 105540293.51447  20083645.766    82239192.33547  20083642.7394         42.6004
        42.6004
 129209140.34642  24587679.895   100682452.46142  24587682.6114         13.8004
        13.8004
 111367958.23646  21192619.356    86780225.19346  21192615.4144         39.1004
        39.0004
 105576901.87747  20090613.576    82267721.81847  20090610.9794         43.4004
        43.6004
 116568969.12246  22182339.063    90832960.23846  22182336.1384         36.4004
        36.5004
 116785657.01145  22223567.106    91001810.46045  22223562.6814         34.7004
        34.8004
 120887192.71244  23004066.964    94197812.00444  23004064.5354         24.6004
        24.7004
 126719305.17043  24113878.064    98742317.89443  24113873.9994         19.8004
        19.4004
 114599225.47245  21807508.233    89298096.63845  21807502.8624         35.2004
        35.1004
 10 10 11  1  1  0.0000000  0  9G 6G24G16G 3G31G19G13G21G23
 105513594.24547  20078564.893    82218387.70147  20078562.1224         42.3004
        42.6004
 129082017.15342  24563489.535   100583395.51742  24563492.2664         14.8004
        14.9004
 111360907.94346  21191277.739    86774731.44646  21191273.5914         38.6004
        38.6004
 105509770.92847  20077838.908    82215411.98847  20077836.3404         43.6004
        43.4004
 116607147.73746  22189604.060    90862709.75546  22189600.9254         36.3004
        36.4004
 116668166.24845  22201209.716    90910259.23645  22201204.0924         34.9004
        35.1004
 120809352.77644  22989254.555    94137157.51244  22989252.8944         25.1004
        24.7004
 126711001.07643  24112298.091    98735847.14843  24112294.7324         18.9004
        19.4004
 114574816.02545  21802862.980    89279076.26245  21802857.9414         35.2004
        35.3004
 10 10 11  1  1 30.0000000  0  9G 6G24G16G 3G31G19G13G21G23
 105487368.65147  20073574.642    82197952.16847  20073571.6854         42.6004
        42.8004
 128954768.31742  24539275.088   100484240.65342  24539277.0084         14.8004
        14.9004
 111353966.23646  21189956.833    86769322.31546  21189952.8994         39.0004
        39.0004
 105443131.62447  20065157.841    82163485.25947  20065155.0934         43.2004
        43.6004
 116645665.63746  22196934.055    90892723.65646  22196930.8484         36.3004
        36.4004
 116551015.29545  22178915.747    90818972.79645  22178911.6604         35.1004
        35.1004
 120732051.44344  22974544.674    94076922.69444  22974541.4994         25.2004
        25.2004
 126703128.17743  24110800.534    98729712.39043  24110796.3834         18.9004
        19.0004
 114550990.40045  21798329.243    89260510.81145  21798324.0524         35.3004
        35.2004
 10 10 11  1  2  0.0000000  0  9G 6G24G16G 3G31G19G13G21G23
 105461610.55047  20068672.850    82177880.90947  20068670.0554         42.9004
        42.8004
 128827391.93042  24515035.494   100384986.41942  24515038.1314         14.7004
        14.5004
 111347127.43346  21188655.743    86763993.36246  21188651.2924         39.4004
        39.2004
 105376979.00147  20052569.588    82111937.76247  20052566.5534         42.9004
        43.1004
 116684517.11546  22204327.540    90922997.48246  22204323.7984         36.4004
        36.4004
 116434201.14145  22156686.776    90727948.79945  22156682.1444         34.9004
        35.1004
 120655285.24744  22959936.259    94017104.87344  22959933.9164         25.6004
        25.3004
 126695681.60343  24109383.521    98723909.83643  24109379.1984         19.6004
        19.7004
 114527742.23945  21793905.321    89242395.33845  21793900.6424         35.4004
        35.4004
 10 10 11  1  2 30.0000000  0  9G 6G24G16G 3G31G19G13G21G23
 105436321.63747  20063860.505    82158175.24747  20063857.7914         42.9004
        43.1004
 128699892.97842  24490773.678   100285636.67042  24490774.9344         14.7004
        14.5004
 111340394.21546  21187374.267    86758746.67346  21187369.9764         39.1004
        39.1004
 105311315.95647  20040074.092    82060771.75347  20040071.3434         43.5004
        43.2004
 116723704.32746  22211784.468    90953532.92046  22211781.0254         36.0004
        36.0004
 116317728.12545  22134523.143    90637190.62145  22134518.1314         35.1004
        35.2004
 120579058.26044  22945430.626    93957707.22044  22945427.9154         25.6004
        25.7004
 126688664.03243  24108048.102    98718441.57043  24108044.1684         20.1004
        19.7004
 114505073.75545  21789591.898    89224731.55345  21789586.6724         35.2004
        35.4004
 10 10 11  1  3  0.0000000  0  9G 6G24G16G 3G31G19G13G21G23
 105411498.76247  20059137.073    82138832.73447  20059133.8754         42.6004
        42.9004
 128572272.03542  24466488.431   100186191.87942  24466490.3224         14.9004
        15.2004
 111333764.25446  21186112.747    86753580.45346  21186108.6844         39.0004
        39.0004
 105246140.81247  20027671.610    82009985.93047  20027668.9564         43.1004
        43.3004
 116763224.56146  22219304.916    90984327.84946  22219301.5164         36.3004
        36.1004
 116201596.00945  22112424.147    90546698.07645  22112419.5364         35.3004
        35.5004
 120503370.27144  22931027.589    93898729.56944  22931024.6324         25.5004
        25.4004
 126682073.12543  24106794.200    98713305.78143  24106789.8754         20.1004
        20.4004
 114482982.03145  21785387.808    89207517.18845  21785382.8734         35.4004
        35.4004
 10 10 11  1  3 30.0000000  0  9G 6G24G16G 3G31G19G13G21G23
 105387143.38247  20054502.059    82119854.50447  20054499.1214         42.6004
        42.6004
 128444534.17542  24442180.268   100086655.96042  24442182.4424         16.2004
        15.2004
 111327239.82846  21184871.144    86748496.47146  21184867.1584         39.1004
        39.1004
 105181456.16947  20015362.499    81959582.30947  20015359.8434         43.4004
        43.5004
 116803079.63646  22226889.532    91015383.70146  22226885.4024         36.0004
        36.0004
 116085809.04045  22090390.097    90456474.48745  22090385.4384         35.2004
        35.3004
 120428224.93044  22916728.550    93840174.77444  22916725.2464         25.2004
        25.3004
 126675911.35043  24105621.419    98708504.36343  24105616.8874         20.2004
        20.4004
 114461468.94145  21781294.249    89190753.72045  21781288.5234         35.3004
        35.2004
 10 10 11  1  4  0.0000000  0  9G 6G24G16G 3G31G19G13G21G23
 105363253.84147  20049956.210    82101239.27147  20049953.4464         42.9004
        42.7004
 128316681.48742  24417850.360    99987030.57342  24417853.0424         16.2004
        16.0004
 111320820.01446  21183649.325    86743494.00446  21183645.4394         38.9004
        39.0004
 105117261.59847  20003147.045    81909560.56547  20003144.0594         43.2004
        43.3004
 116843268.23445  22234537.137    91046699.43345  22234533.1784         35.9004
        35.9004
 115970368.65345  22068423.024    90366520.95445  22068418.0744         35.4004
        35.6004
 120353623.11144  22902531.793    93782043.48544  22902528.7104         25.5004
        25.6004
 126670178.25643  24104530.174    98704036.96943  24104526.6474         19.6004
        19.9004
 114440533.21345  21777310.490    89174440.12845  21777305.0174         35.1004
        35.2004
 10 10 11  1  4 30.0000000  0  9G 6G24G16G 3G31G19G13G21G23
 105339829.02747  20045498.801    82082986.16247  20045495.6494         43.1004
        42.7004
 128188716.69242  24393499.875    99887317.84142  24393501.9264         16.1004
        16.0004
 111314504.73046  21182447.482    86738572.98346  21182443.3704         39.0004
        39.1004
 105053557.40747  19991024.257    81859920.93347  19991021.5144         43.3004
        43.7004
 116883789.84345  22242248.145    91078274.65945  22242244.2414         35.8004
        35.6004
 115855276.70145  22046520.931    90276838.93045  22046516.2844         35.3004
        35.5004
 120279566.39044  22888439.216    93724336.95144  22888437.1184         25.4004
        25.6004
 126664873.55143  24103520.905    98699903.40743  24103516.9584         19.6004
        19.4004
 114420173.75045  21773435.630    89158575.58145  21773430.5244         34.8004
        34.9004
 10 10 11  1  5  0.0000000  0  9G 6G24G16G 3G31G19G13G21G23
 105316866.94847  20041129.103    82065093.62647  20041126.1644         42.7004
        42.6004
 128060641.65442  24369127.440    99787519.19742  24369128.6724         16.1004
        16.1004
 111308292.93346  21181265.448    86733732.60146  21181261.5474         39.3004
        39.3004
 104990342.79047  19978994.980    81810662.78747  19978992.1554         43.3004
        43.4004
 116924643.03545  22250021.896    91110108.26045  22250018.5414         35.6004
        35.5004
 115740534.12845  22024686.327    90187429.13845  22024681.7084         35.5004
        35.5004
 120206055.49244  22874450.861    93667055.74544  22874448.5664         25.4004
        25.4004
 126659996.20743  24102592.544    98696102.85243  24102588.0314         19.1004
        19.4004
 114400388.89845  21769670.892    89143158.78045  21769665.3494         34.8004
        34.9004
 10 10 11  1  5 30.0000000  0  9G 6G24G16G 3G31G19G13G21G23
 105294366.34547  20036847.238    82047560.68047  20036844.4124         42.5004
        42.5004
 127932458.36742  24344735.573    99687636.20642  24344736.8024         16.0004
        16.1004
 111302183.99646  21180103.414    86728972.36746  21180099.3034         39.2004
        39.4004
 104927617.48847  19967058.895    81761785.92247  19967056.0554         43.2004
        43.5004
 116965826.50945  22257858.995    91142199.21945  22257855.5714         35.7004
        35.8004
 115626142.23145  22002918.295    90098292.60645  22002914.3594         35.7004
        35.8004
 120133091.06844  22860565.830    93610200.34144  22860562.6934         25.7004
        25.6004
 126655546.14143  24101746.693    98692635.24543  24101742.4444         19.1004
        18.6004
 114381177.54445  21766014.835    89128188.87745  21766010.3784         35.2004
        35.3004
 10 10 11  1  6  0.0000000  0  9G 6G24G16G 3G31G19G13G21G23
 105272323.15647  20032652.798    82030384.15647  20032649.8734         42.7004
        42.8004
 127804166.95442  24320321.675    99587668.95742  24320324.1344         16.0004
        16.2004
 111296175.01946  21178959.677    86724290.02446  21178955.5744         38.9004
        38.9004
 104865379.00747  19955215.563    81713288.39947  19955212.5704         43.3004
        43.5004
 117007336.83645  22265757.959    91174544.86645  22265754.5214         35.2004
        35.1004
 115512100.07445  21981216.883    90009428.59946  21981212.6444         35.7004
        36.0004
 120060672.24644  22846785.371    93553770.08244  22846782.2154         25.6004
        25.7004
 126651519.90743  24100979.364    98689497.88743  24100976.4224         18.7004
        18.6004
 114362535.91045  21762467.920    89113662.89245  21762462.7844         35.1004
        35.3004
 10 10 11  1  6 30.0000000  0  9G 6G24G16G 3G31G19G13G21G23
 105250742.16847  20028546.127    82013567.79647  20028543.0554         42.3004
        42.5004
 127675776.23742  24295889.637    99487624.33142  24295891.5944         15.9004
        16.2004
 111290271.81146  21177836.347    86719690.09746  21177832.2624         38.7004
        38.8004
 104803633.40147  19943465.377    81665174.93547  19943462.7944         43.4004
        43.4004
 117049179.44045  22273720.877    91207149.42845  22273716.9864         35.2004
        35.3004
 115398415.60146  21959583.441    89920843.29846  21959579.1334         36.0004
        36.1004
 119988806.53744  22833109.639    93497770.81644  22833106.5934         25.5004
        25.6004
 126647923.66443  24100295.474    98686695.56243  24100292.1724         19.2004
        19.3004
 114344469.12745  21759029.802    89099584.84845  21759024.7924         35.3004
        35.3004
 10 10 11  1  7  0.0000000  0  9G 6G24G16G 3G31G19G13G21G23
 105229619.81347  20024526.498    81997108.80847  20024523.6864         42.6004
        43.0004
 127547286.33442  24271439.039    99387502.41742  24271441.0264         15.9004
        15.7004
 111284471.57046  21176732.956    86715170.40746  21176728.4284         38.5004
        38.7004
 104742378.07047  19931808.855    81617443.50647  19931806.1674         43.5004
        43.5004
 117091351.08245  22281745.487    91240010.38945  22281741.7864         34.9004
        34.8004
 115285087.84746  21938018.179    89832535.96146  21938013.3494         36.2004
        36.2004
 119917492.23244  22819538.797    93442201.21544  22819535.5344         25.8004
        25.9004
 126644754.81143  24099692.771    98684226.27743  24099689.2884         19.2004
        19.3004
 114326973.76945  21755700.509    89085952.06045  21755695.7214         35.3004
        35.4004
 10 10 11  1  7 30.0000000  0  9G 6G24G16G 3G31G19G13G21G23
 105208954.88047  20020594.132    81981006.25247  20020591.1664         42.4004
        42.8004
 127418699.96742  24246970.259    99287305.34142  24246971.9494         16.2004
        15.7004
 111278774.47646  21175648.334    86710731.08846  21175644.3584         38.4004
        38.3004
 104681613.61847  19920245.752    81570094.57747  19920242.9864         43.5004
        43.3004
 117133851.29045  22289833.460    91273127.38545  22289829.8324         35.4004
        35.5004
 115172118.64445  21916520.663    89744508.00946  21916516.1754         35.9004
        36.0004
 119846731.22644  22806073.533    93387062.74744  22806070.4124         25.7004
        25.8004
 126642013.03743  24099170.444    98682089.80943  24099166.8914         18.3004
        18.2004
 114310049.07545  21752480.224    89072763.95645  21752475.0574         35.4004
        35.3004
 10 10 11  1  8  0.0000000  0  9G 6G24G16G 3G31G19G13G21G23
 105188744.33747  20016748.378    81965257.76747  20016745.3314         42.7004
        42.9004
 127290017.81342  24222482.324    99187033.62542  24222483.9864         16.8004
        16.4004
 111273178.06946  21174583.461    86706370.23646  21174579.4944         38.6004
        38.7004
 104621337.41047  19908775.685    81523126.09947  19908772.7044         43.3004
        43.6004
 117176677.04045  22297982.688    91306498.02745  22297979.5614         35.3004
        35.3004
 115059507.74946  21895091.657    89656759.25946  21895087.3634         36.3004
        36.4004
 119776522.55244  22792713.266    93332354.67244  22792710.6414         25.5004
        25.4004
 126639696.23243  24098730.447    98680284.47743  24098725.5194         18.3004
        18.2004
 114293691.64545  21749367.183    89060017.86545  21749362.1854         35.3004
        35.3004
 10 10 11  1  8 30.0000000  0  9G 6G24G16G 3G31G19G13G21G23
 105168987.81347  20012988.550    81949863.06647  20012985.6794         42.6004
        42.5004
 127161243.63342  24197977.013    99086690.16842  24197979.3024         16.8004
        16.4004
 111267683.27446  21173538.026    86702088.54846  21173533.6924         38.6004
        38.7004
 104561550.98547  19897398.628    81476539.27347  19897395.9824         43.3004
        43.2004
 117219828.47545  22306194.272    91340122.45945  22306191.0054         35.0004
        35.0004
 114947257.75446  21873731.308    89569291.73146  21873726.6374         36.4004
        36.6004
 119706868.51344  22779458.699    93278078.77744  22779455.2264         25.5004
        25.4004
 126637805.27743  24098370.442    98678810.98843  24098367.1424         18.3004
        18.4004
 114277901.69445  21746362.565    89047713.96545  21746357.1604         35.1004
        35.1004
 10 10 11  1  9  0.0000000  0  9G 6G24G16G 3G31G19G13G21G23
 105149685.04147  20009315.577    81934821.93747  20009312.6504         42.5004
        42.7004
 127032381.11342  24173454.997    98986277.91342  24173458.2184         16.4004
        16.6004
 111262291.19846  21172512.166    86697886.89646  21172507.9204         38.3004
        38.3004
 104502254.98147  19886115.033    81430334.58947  19886112.1934         43.6004
        43.6004
 117263306.07345  22314468.038    91374001.03845  22314464.5864         35.1004
        35.2004
 114835371.55846  21852440.102    89482107.67846  21852435.1694         36.5004
        36.5004
 119637771.22644  22766309.747    93224236.71844  22766306.6424         25.8004
        25.6004
 126636340.71543  24098091.999    98677669.73843  24098088.1564         19.6004
        20.0004
 114262679.03245  21743466.000    89035852.11745  21743460.7024         35.0004
        35.1004
 10 10 11  1  9 30.0000000  0  9G 6G24G16G 3G31G19G13G21G23
 105130834.67347  20005728.357    81920133.33647  20005725.5434         42.2004
        42.2004
 126903432.93042  24148918.219    98885798.88942  24148919.5874         16.4004
        16.6004
 111257001.20346  21171505.415    86693764.79546  21171501.1664         38.4004
        38.5004
 104443449.30747  19874924.549    81384511.98147  19874921.7744         43.3004
        43.4004
 117307108.64945  22322803.182    91408132.84845  22322800.2644         35.2004
        35.2004
 114723850.65346  21831217.917    89395208.28146  21831214.1474         36.6004
        36.7004
 119569231.84644  22753267.453    93170829.40544  22753263.7654         26.0004
        26.0004
 126635301.98043  24097893.496    98676860.28443  24097891.2924         19.6004
        20.0004
 114248022.18145  21740676.893    89024431.15045  21740671.3804         35.0004
        35.1004
 10 10 11  1 10  0.0000000  0  9G 6G24G16G 3G31G19G13G21G23
 105112434.47247  20002226.855    81905795.50747  20002223.9634         42.4004
        42.7004
 126774400.99943  24124363.031    98785254.59242  24124365.0214         18.0004
        17.7004
 111251812.09246  21170517.970    86689721.30646  21170513.8454         38.7004
        38.6004
 104385133.37447  19863827.644    81339070.98547  19863824.7654         43.6004
        43.5004
 117351234.52545  22331199.970    91442516.59645  22331196.5864         34.8004
        34.7004
 114612695.67746  21810065.993    89308594.01646  21810061.4074         36.5004
        36.6004
 119501250.59644  22740331.250    93117857.01044  22740328.4654         26.3004
        26.1004
 126634688.15443  24097777.142    98676381.94543  24097772.9084         20.6004
        20.5004
 114233929.33945  21737995.166    89013449.68345  21737989.8334         35.1004
        35.0004
 10 10 11  1 10 30.0000000  0  9G 6G24G16G 3G31G19G13G21G23
 105094482.46847  19998810.864    81891806.92547  19998807.9754         42.5004
        42.4004
 126645287.10543  24099794.268    98684646.45542  24099795.4834         18.0004
        17.7004
 111246723.24946  21169549.617    86685755.94946  21169545.3784         37.8004
        38.0004
 104327305.73947  19852823.344    81294010.48547  19852820.5534         43.3004
        43.2004
 117395682.25145  22339658.111    91477151.11745  22339655.0934         34.8004
        34.8004
 114501907.59446  21788983.709    89222265.63846  21788979.6354         36.6004
        36.6004
 119433827.93244  22727500.932    93065319.86144  22727497.7094         26.5004
        26.5004
 126634498.06743  24097740.966    98676233.78343  24097737.4984         20.0004
        20.5004
 114220398.73845  21735420.117    89002906.31345  21735414.9364         34.8004
        34.8004
 10 10 11  1 11  0.0000000  0  9G 6G24G16G 3G31G19G13G21G23
 105076978.42147  19995480.034    81878167.40547  19995477.1484         42.3004
        42.4004
 126516095.18942  24075209.033    98583977.51542  24075211.7214         17.2004
        17.4004
 111241735.65046  21168600.471    86681869.48546  21168596.7624         38.6004
        38.8004
 104269967.51447  19841912.318    81249331.34947  19841909.3434         43.1004
        43.2004
 117440452.05845  22348177.766    91512036.60945  22348174.7794         34.5004
        34.4004
 114391489.31846  21767972.046    89136225.42746  21767966.9824         36.5004
        36.5004
 119366966.17744  22714777.760    93013219.76844  22714774.4244         26.7004
        26.6004
 126634732.71743  24097785.098    98676416.58043  24097781.9554         20.0004
        19.4004
 114207430.20045  21732952.328    88992800.91345  21732947.2404         35.0004
        35.2004
 10 10 11  1 11 30.0000000  0  9G 6G24G16G 3G31G19G13G21G23
 105059919.85247  19992233.613    81864874.99947  19992230.7644         42.6004
        42.6004
 126386826.90242  24050611.016    98483249.09242  24050611.3584         17.8004
        17.8004
 111236848.34046  21167670.758    86678061.16846  21167666.7244         38.2004
        38.2004
 104213117.78847  19831094.135    81205032.86247  19831091.1464         43.3004
        43.4004
 117485541.97145  22356758.099    91547171.54245  22356755.1804         34.7004
        34.8004
 114281441.15046  21747030.557    89050473.61846  21747025.5424         36.8004
        36.9004
 119300665.32744  22702160.593    92961556.76944  22702158.3984         27.0004
        26.9004
 126635390.02143  24097910.233    98676928.69543  24097907.6354         18.7004
        18.5004
 114195021.29945  21730591.408    88983131.59945  21730585.8304         35.0004
        35.0004
 10 10 11  1 12  0.0000000  0  9G 6G24G16G 3G31G19G13G21G23
 105043303.24147  19989071.814    81851926.98247  19989068.9714         42.4004
        42.1004
 126257482.69742  24025997.627    98382461.50342  24026000.0014         17.8004
        17.8004
 111232058.45046  21166759.236    86674328.75546  21166754.8374         38.5004
        38.5004
 104156754.39547  19820368.410    81161113.33747  19820365.6374         43.4004
        43.5004
 117530948.76545  22365398.636    91582553.38145  22365395.1574         34.5004
        34.4004
 114171762.54046  21726159.159    88965009.76946  21726154.6874         36.7004
        36.8004
 119234924.15444  22689650.622    92910329.85444  22689647.1334         27.0004
        27.0004
 126636467.70943  24098115.877    98677768.37643  24098112.5244         18.5004
        18.5004
 114183168.47845  21728335.932    88973895.59745  21728330.4004         35.0004
        35.2004
 10 10 11  1 12 30.0000000  0  9G 6G24G16G 3G31G19G13G21G23
 105027130.68947  19985994.135    81839324.97847  19985991.2054         42.4004
        42.8004
 126128069.03543  24001370.149    98281619.85043  24001372.1314         18.4004
        18.3004
 111227369.48246  21165867.037    86670674.99146  21165862.9374         38.6004
        38.5004
 104100880.67647  19809736.179    81117575.36947  19809733.4174         43.3004
        43.7004
 117576675.18745  22374100.188    91618184.28445  22374097.0024         34.0004
        34.0004
 114062458.37546  21705359.244    88879837.70646  21705354.3134         36.8004
        36.8004
 119169747.37744  22677248.065    92859542.75044  22677245.0014         27.1004
        27.1004
 126637968.78843  24098402.137    98678938.00043  24098398.2544         18.5004
        18.9004
 114171874.07845  21726186.756    88965094.72345  21726181.1654         34.9004
        35.0004
 10 10 11  1 13  0.0000000  0  9G 6G24G16G 3G31G19G13G21G23
 105011401.20447  19983001.304    81827068.23247  19982998.2874         42.7004
        42.5004
 125998588.85043  23976731.374    98180726.32343  23976732.4394         18.4004
        18.3004
 111222781.46446  21164993.935    86667099.87946  21164989.7794         38.3004
        38.4004
 104045496.07747  19799196.756    81074418.53547  19799194.0394         43.5004
        43.8004
 117622720.32445  22382862.491    91654063.52845  22382859.2804         34.5004
        34.4004
 113953530.27046  21684631.011    88794958.68446  21684626.2144         36.7004
        36.8004
 119105136.06444  22664952.599    92809196.25544  22664950.0494         26.9004
        27.0004
 126639893.37143  24098767.836    98680437.63343  24098764.1384         19.2004
        18.9004
 114161136.92145  21724143.194    88956728.06345  21724138.5374         34.7004
        34.9004
 10 10 11  1 13 30.0000000  0  9G 6G24G16G 3G31G19G13G21G23
 104996110.50047  19980091.285    81815153.38647  19980088.3474         42.3004
        42.4004
 125869042.49343  23952079.186    98079781.23543  23952080.2904         18.0004
        18.1004
 111218292.09546  21164139.845    86663601.64246  21164135.2464         38.4004
        38.5004
 103990598.23647  19788749.983    81031640.99347  19788747.1864         43.4004
        43.6004
 117669080.97345  22391685.251    91690188.62945  22391681.4144         34.2004
        34.2004
 113844977.70546  21663974.144    88710372.27946  21663969.7194         36.9004
        36.8004
 119041088.66744  22652765.375    92759289.19944  22652761.7844         27.2004
        27.1004
 126642238.29343  24099214.797    98682264.82243  24099209.2594         19.2004
        18.9004
 114150953.02545  21722205.637    88948792.53145  21722200.8254         34.9004
        35.0004
 10 10 11  1 14  0.0000000  0  9G 6G24G16G 3G31G19G13G21G23
 104981258.40247  19977265.411    81803580.30847  19977262.0914         42.6004
        42.8004
 125739433.28243  23927416.265    97978787.21143  23927416.0094         18.9004
        18.1004
 111213901.74346  21163304.037    86660180.55746  21163300.2744         38.7004
        38.7004
 103936187.59947  19778396.015    80989243.09547  19778393.1984         43.2004
        43.3004
 117715756.87545  22400567.045    91726559.38045  22400563.1064         34.3004
        34.3004
 113736802.66946  21643388.890    88626080.05746  21643384.5804         37.1004
        37.3004
 118977606.94744  22640684.593    92709822.89444  22640681.2254         26.9004
        26.9004
 126645003.57543  24099741.141    98684419.57143  24099737.0304         18.9004
        18.9004
 114141322.02045  21720372.292    88941287.80645  21720367.6494         34.9004
        34.9004
 10 10 11  1 14 30.0000000  0  9G 6G24G16G 3G31G19G13G21G23
 104966842.53747  19974521.601    81792347.14647  19974518.6994         42.5004
        42.3004
 125609762.98043  23902740.023    97877745.52943  23902740.9894         18.9004
        19.0004
 111209609.62046  21162487.376    86656836.01946  21162483.3874         38.4004
        38.4004
 103882263.28947  19768134.441    80947224.14847  19768131.6884         43.1004
        43.4004
 117762746.11045  22409508.920    91763174.28845  22409505.4324         34.1004
        34.2004
 113629005.93446  21622875.907    88542082.61946  21622871.5564         37.0004
        37.2004
 118914691.07744  22628711.928    92660797.52444  22628709.9924         27.1004
        26.9004
 126648188.15643  24100346.952    98686901.03543  24100342.5064         19.5004
        19.4004
 114132241.86545  21718644.611    88934212.32745  21718640.1774         35.0004
        35.1004
 10 10 11  1 15  0.0000000  0  9G 6G24G16G 3G31G19G13G21G23
 104952861.08947  19971861.355    81781452.50247  19971858.2794         42.3004
        42.4004
 125480034.55443  23878053.655    97776658.59043  23878055.1394         19.2004
        19.0004
 111205415.55146  21161689.092    86653567.88346  21161685.0434         38.3004
        38.4004
 103828824.95047  19757965.585    80905583.87947  19757963.0084         42.9004
        43.5004
 117810047.80245  22418510.206    91800032.66945  22418506.9374         33.8004
        33.7004
 113521589.15546  21602435.276    88458381.25346  21602430.4484         37.0004
        37.1004
 118852341.83444  22616847.736    92612213.68244  22616844.6884         26.9004
        27.1004
 126651791.63943  24101032.268    98689708.92143  24101027.7694         19.5004
        19.5004
 114123710.78045  21717021.496    88927564.69245  21717016.6734         34.9004
        35.0004
 10 10 11  1 15 30.0000000  0  9G 6G24G16G 3G31G19G13G21G23
 106514735.37647  20269075.852    82998497.39147  20269073.2034         42.4004
        42.5004
 126925677.37943  24153149.566    98903133.63843  24153151.4844         19.2004
        19.3004
 112776741.60246  21460702.626    87877977.76446  21460698.4964         38.3004
        38.4004
 105351296.01247  20047682.221    82091924.95347  20047679.5754         43.3004
        43.7004
 119433081.39345  22727362.951    93064734.08445  22727359.8704         33.8004
        33.8004
 114989979.24046  21881860.449    89602581.32846  21881855.9594         37.2004
        37.5004
 120365984.20344  22904884.326    93791675.24544  22904881.9664         26.8004
        26.8004
 128231235.10543  24401590.605    99920444.04743  24401586.7934         19.3004
        19.5004
 115691149.51145  22015294.807    90148945.47845  22015290.4214         35.2004
        35.2004
 10 10 11  1 16  0.0000000  0  9G 6G24G16G 3G31G19G13G21G23
 106501622.94347  20266580.962    82988279.90647  20266577.9604         42.6004
        42.8004
 126795845.33243  24128443.480    98801965.95343  24128444.7334         20.0004
        20.0004
 112772747.22546  21459942.540    87874865.24246  21459938.3834         38.4004
        38.4004
 105298832.36747  20037698.605    82051044.18047  20037696.0754         43.5004
        43.7004
 119481008.98645  22736483.057    93102080.17645  22736480.0324         33.1004
        33.1004
 114883330.49746  21861565.973    89519478.43046  21861561.6664         37.3004
        37.5004
 120304774.89544  22893236.442    93743979.66844  22893234.5254         27.2004
        27.0004
 128235678.24443  24402435.498    99923906.20243  24402432.6834         18.6004
        18.6004
 115683716.23345  22013880.469    90143153.27345  22013875.6174         34.8004
        34.9004
 10 10 11  1 16 30.0000000  0  9G 6G24G16G 3G31G19G13G21G23
 106488940.86247  20264167.537    82978397.74747  20264164.9254         42.5004
        42.5004
 126665963.66243  24103727.750    98700759.57243  24103728.1494         19.9004
        20.0004
 112768850.91346  21459201.311    87871829.12646  21459196.9024         38.2004
        38.1004
 105246853.77047  20027807.549    82010541.37347  20027804.8214         43.4004
        43.4004
 119529246.22545  22745662.756    93139667.54945  22745659.0124         33.1004
        33.2004
 114777065.84346  21841344.599    89436674.81646  21841340.1874         37.3004
        37.7004
 120244134.66944  22881697.139    93696727.50944  22881694.1774         27.0004
        27.0004
 128240538.78843  24403360.083    99927693.60543  24403356.9624         18.6004
        18.6004
 115676827.78345  22012569.538    90137785.60745  22012564.7664         34.6004
        34.8004
 10 10 11  1 17  0.0000000  0  9G 6G24G16G 3G31G19G13G21G23
 106476687.84647  20261835.991    82968849.92847  20261833.0234         42.9004
        42.9004
 126536035.29143  24079002.924    98599516.81643  24079004.8144         19.9004
        20.1004
 112765052.54046  21458478.561    87868869.32546  21458474.2604         38.3004
        38.3004
 105195360.20747  20018008.695    81970416.51747  20018005.9134         43.6004
        43.2004
 119577792.02945  22754900.559    93177495.36345  22754897.5304         33.4004
        33.4004
 114671187.17646  21821196.166    89354171.97146  21821192.0194         37.5004
        37.7004
 120184064.75344  22870266.213    93649919.77744  22870263.2314         26.9004
        26.9004
 128245816.21643  24404364.183    99931805.82743  24404361.5804         18.2004
        18.2004
 115670482.81945  22011362.362    90132841.44645  22011357.2814         34.4004
        34.5004
 10 10 11  1 17 30.0000000  0  9G 6G24G16G 3G31G19G13G21G23
 106464863.44647  20259585.868    82959636.09747  20259583.0534         42.7004
        42.7004
 126406064.28343  24054269.748    98498240.82143  24054271.5964         20.4004
        20.1004
 112761353.29446  21457774.526    87865986.76246  21457770.5524         38.2004
        38.3004
 105144351.96347  20008302.045    81930669.83147  20008299.2204         43.4004
        43.7004
 119626646.40045  22764197.284    93215563.62445  22764193.6434         32.9004
        33.0004
 114565696.99146  21801122.111    89271971.83846  21801117.7704         37.4004
        37.7004
 120124567.34844  22858944.523    93603558.13944  22858940.8004         26.8004
        26.9004
 128251510.93543  24405447.164    99936243.21443  24405445.8264         18.2004
        18.2004
 115664680.86545  22010258.661    90128320.40145  22010253.2524         34.3004
        34.5004
 10 10 11  1 18  0.0000000  0  9G 6G24G16G 3G31G19G13G21G23
 106453463.89047  20257416.701    82950753.31147  20257413.7474         43.0004
        42.3004
 126276051.45043  24029529.341    98396932.24143  24029530.7234         20.3004
        20.4004
 112757750.84846  21457088.864    87863179.63446  21457084.8634         38.0004
        38.2004
 105093827.26947  19998687.616    81891299.93547  19998684.7114         43.1004
        43.4004
 119675806.37645  22773552.469    93253870.00745  22773549.3304         32.8004
        32.9004
 114460594.61746  21781122.085    89190073.89946  21781117.1694         37.4004
        37.4004
 120065640.82344  22847730.964    93557641.34744  22847728.3794         26.9004
        27.0004
 128257620.41743  24406610.431    99941003.79442  24406607.8724         18.1004
        17.9004
 115659418.26645  22009257.036    90124219.63045  22009252.0404         34.4004
        34.6004
 10 10 11  1 18 30.0000000  0  9G 6G24G16G 3G31G19G13G21G23
 106442489.39547  20255328.225    82942201.74647  20255325.3734         42.5004
        42.7004
 126146000.95843  24004781.229    98295594.30643  24004783.1284         20.3004
        20.3004
 112754246.38846  21456421.662    87860448.85546  21456418.1064         38.0004
        38.1004
 105043786.53047  19989164.961    81852307.15447  19989162.3354         43.4004
        43.6004
 119725272.33445  22782965.547    93292414.80945  22782962.1304         33.0004
        33.0004
 114355882.40546  21761195.734    89108479.97346  21761191.2514         37.3004
        37.3004
 120007287.21444  22836626.235    93512170.99044  22836623.3004         27.2004
        27.2004
 128264145.24043  24407852.218    99946088.00442  24407850.2264         18.6004
        17.9004
 115654694.87545  22008358.189    90120539.02845  22008353.3424         34.4004
        34.5004
 10 10 11  1 19  0.0000000  0  9G 6G24G16G 3G31G19G13G21G23
 106431940.91447  20253321.130    82933982.13547  20253318.0184         42.8004
        42.7004
 126015918.34343  23980026.828    98194231.31543  23980029.3024         20.3004
        20.3004
 112750842.97746  21455774.380    87857796.81846  21455770.5114         37.6004
        37.8004
 104994232.62547  19979735.365    81813693.71347  19979732.3694         43.7004
        43.6004
 119775045.64945  22792437.307    93331199.12345  22792433.9384         33.0004
        32.9004
 114251564.85946  21741344.738    89027193.59046  21741340.2304         37.4004
        37.7004
 119949510.09644  22825632.170    93467149.83944  22825629.2274         27.3004
        27.3004
 128271087.54943  24409173.937    99951497.54043  24409171.5584         18.6004
        18.9004
 115650511.66245  22007562.075    90117279.34645  22007557.3724         34.4004
        34.7004
 10 10 11  1 19 30.0000000  0  9G 6G24G16G 3G31G19G13G21G23
 106421814.43147  20251394.264    82926091.36147  20251391.1224         42.6004
        42.7004
 125885803.98943  23955267.392    98092843.62543  23955268.3944         20.3004
        20.3004
 112747538.01246  21455145.862    87855221.49446  21455141.4144         38.1004
        37.9004
 104945162.20147  19970397.482    81775457.02047  19970394.6854         43.4004
        43.4004
 119825123.11645  22801966.970    93370220.43345  22801963.6694         32.6004
        32.9004
 114147640.97046  21721568.872    88946213.94246  21721564.4794         37.7004
        37.9004
 119892307.68544  22814747.020    93422576.50244  22814743.9894         27.3004
        27.3004
 128278444.31743  24410574.635    99957230.03443  24410571.2604         20.4004
        20.8004
 115646864.48745  22006868.351    90114437.34245  22006863.5724         34.5004
        34.6004
 10 10 11  1 20  0.0000000  0  9G 6G24G16G 3G31G19G13G21G23
 106412106.36947  20249546.664    82918526.62247  20249543.7584         42.5004
        42.7004
 125755658.55143  23930501.659    97991431.69743  23930502.9964         20.4004
        20.3004
 112744329.13546  21454534.847    87852721.04746  21454530.8684         38.1004
        38.3004
 104896572.63847  19961151.451    81737595.02947  19961148.5714         43.0004
        43.4004
 119875501.18845  22811553.504    93409475.98245  22811550.4134         33.0004
        33.1004
 114044109.72546  21701867.317    88865540.26446  21701862.6954         37.7004
        38.0004
 119835678.28844  22803970.984    93378449.68144  22803967.9544         27.3004
        27.4004
 128286212.47243  24412052.412    99963283.10143  24412049.8314         21.6004
        20.8004
 115643749.36345  22006275.118    90112009.94145  22006270.7784         34.5004
        34.7004
 10 10 11  1 20 30.0000000  0  9G 6G24G16G 3G31G19G13G21G23
 106402816.22247  20247779.054    82911287.52547  20247775.7774         42.8004
        42.8004
 125625486.14143  23905730.569    97889998.76443  23905731.4684         20.3004
        20.3004
 112741217.84546  21453942.586    87850296.62746  21453938.7934         37.9004
        38.0004
 104848465.02647  19951996.629    81700108.57047  19951993.8084         43.5004
        43.1004
 119926180.14945  22821197.391    93448965.98445  22821194.6494         32.6004
        32.6004
 113940973.49846  21682241.306    88785174.37746  21682236.4604         37.5004
        37.8004
 119779623.82744  22793303.997    93334770.86044  22793300.7414         27.5004
        27.6004
 128294392.81443  24413609.568    99969657.34143  24413605.6424         21.6004
        21.5004
 115641166.41345  22005784.067    90109997.20545  22005779.4394         34.6004
        34.6004
 10 10 11  1 21  0.0000000  0  9G 6G24G16G 3G31G19G13G21G23
 106393944.52547  20246090.636    82904374.50247  20246087.2314         42.4004
        42.7004
 125495291.53443  23880954.836    97788548.53343  23880955.9064         20.3004
        20.3004
 112738205.96946  21453369.721    87847949.67846  21453365.6384         37.9004
        38.1004
 104800840.50947  19942934.116    81662998.55247  19942931.4514         43.4004
        43.7004
 119977160.82745  22830898.827    93488691.09445  22830895.8574         33.1004
        33.0004
 113838235.75846  21662690.974    88705119.00746  21662686.6114         38.0004
        38.2004
 119724146.75544  22782747.202    93291541.95644  22782743.6064         27.4004
        27.4004
 128302986.42943  24415243.200    99976353.63043  24415241.4244         20.9004
        21.5004
 115639115.51645  22005393.431    90108399.05645  22005389.2524         34.4004
        34.5004
 10 10 11  1 21 30.0000000  0  9G 6G24G16G 3G31G19G13G21G23
 106385487.24347  20244481.437    82897784.40247  20244478.3034         42.6004
        42.7004
 125365075.62843  23856176.125    97687081.72843  23856178.4284         20.0004
        20.0004
 112735291.06046  21452814.976    87845678.29146  21452810.7474         37.7004
        37.8004
 104753696.65547  19933962.976    81626263.07347  19933960.1154         43.7004
        43.3004
 120028439.72645  22840656.721    93528648.55645  22840654.2254         32.7004
        32.4004
 113735895.63646  21643216.327    88625373.46146  21643211.7444         37.9004
        38.1004
 119669245.65744  22772299.554    93248761.84944  22772296.0754         27.5004
        27.5004
 128311990.38843  24416957.384    99983369.64843  24416953.6864         18.4004
        20.2004
 115637592.56745  22005104.064    90107212.30345  22005099.3654         34.3004
        34.5004
 10 10 11  1 22  0.0000000  0  9G 6G24G16G 3G31G19G13G21G23
 106377443.52547  20242950.468    82891516.55747  20242947.4954         42.4004
        42.9004
 125234841.71443  23831392.633    97585600.89343  23831393.7144         20.4004
        20.2004
 112732473.80246  21452279.362    87843482.99646  21452274.9594         37.7004
        37.8004
 104707033.59747  19925083.262    81589902.24247  19925080.3454         43.3004
        43.6004
 120080016.53545  22850471.880    93568838.17345  22850468.9004         32.4004
        32.3004
 113633954.74646  21623817.214    88545939.00946  21623812.9454         38.2004
        38.4004
 119614921.21244  22761962.170    93206431.07744  22761959.9294         27.5004
        27.5004
 128321404.47143  24418749.563    99990705.22642  24418746.2024         18.4004
        17.2004
 115636596.51645  22004914.395    90106436.11345  22004909.3964         34.2004
        34.3004
 10 10 11  1 22 30.0000000  0  9G 6G24G16G 3G31G19G13G21G23
 106369811.54747  20241498.424    82885569.55547  20241495.0394         42.1004
        42.7004
 125104592.79043  23806607.327    97484108.34843  23806608.8904         20.4004
        20.2004
 112729754.20546  21451761.627    87841363.80346  21451757.6504         37.8004
        37.8004
 104660850.51547  19916294.880    81553915.41447  19916291.9784         43.4004
        43.4004
 120131889.94945  22860343.113    93609258.91145  22860340.1464         32.3004
        32.4004
 113532414.67746  21604495.145    88466816.88946  21604490.5274         38.3004
        38.5004
 119561174.37144  22751734.260    93164550.39744  22751731.3834         27.5004
        27.6004
 128331228.03842  24420619.163    99998359.88442  24420615.5944         17.1004
        17.2004
 115636125.49645  22004825.005    90106069.05245  22004820.0214         34.2004
        34.3004
 10 10 11  1 23  0.0000000  0  9G 6G24G16G 3G31G19G13G21G23
 106362588.73047  20240123.904    82879941.37247  20240120.8534         42.5004
        42.4004
 124974330.61243  23781819.527    97382605.46343  23781820.7864         21.0004
        21.0004
 112727131.20346  21451262.514    87839319.87046  21451258.3904         37.9004
        38.0004
 104615145.58247  19907597.401    81518301.17047  19907594.8624         43.4004
        43.3004
 120184057.66445  22870269.615    93649908.96645  22870266.8894         31.9004
        32.2004
 113431275.59346  21585248.838    88388007.21646  21585244.7184         38.5004
        38.7004
 119508004.40744  22741616.429    93123119.22144  22741614.6324         27.6004
        27.6004
 128341459.08642  24422565.905   100006332.09642  24422562.2824         17.1004
        17.6004
 115636176.48345  22004834.622    90106108.74245  22004829.5934         34.1004
        34.4004
 10 10 11  1 23 30.0000000  0  9G 6G24G16G 3G31G19G13G21G23
 106355776.07447  20238827.315    82874632.79147  20238824.2834         42.3004
        42.5004
 124844060.65543  23757030.024    97281096.52243  23757031.0004         21.9004
        21.0004
 112724607.53146  21450782.114    87837353.33546  21450778.3134         37.9004
        38.0004
 104569921.28047  19898991.668    81483061.44147  19898988.6934         43.4004
        43.6004
 120236521.05645  22880253.553    93690789.42945  22880251.2474         31.7004
        31.6004
 113330541.15646  21566079.638    88309512.85846  21566075.5644         38.7004
        38.6004
 119455414.33944  22731608.800    93082139.92444  22731605.8244         27.6004
        27.7004
 128352099.52542  24424590.659   100014623.30242  24424587.3154         17.6004
        17.6004
 115636750.56145  22004943.827    90106556.03245  22004938.9844         34.1004
        34.3004
 10 10 11  1 24  0.0000000  0  9G 6G24G16G 3G31G19G13G21G23
 106349369.57547  20237608.166    82869640.70447  20237605.2554         42.0004
        42.2004
 124713783.42143  23732238.244    97179581.91543  23732240.0004         21.9004
        22.0004
 112722180.72146  21450320.402    87835462.28846  21450316.3234         37.5004
        37.6004
 104525174.64847  19890476.681    81448193.93247  19890473.9754         43.3004
        43.7004
 120289276.44845  22890292.652    93731897.40045  22890290.0294         31.2004
        31.4004
 113230210.00946  21546987.250    88231332.75846  21546983.0294         38.6004
        38.7004
 119403402.17044  22721711.356    93041610.91744  22721708.3674         27.9004
        27.9004
 128363145.97342  24426692.673   100023230.85743  24426689.5214         17.6004
        18.1004
 115637843.42945  22005152.160    90107407.57145  22005146.8694         33.9004
        34.1004
 10 10 11  1 24 30.0000000  0  9G 6G24G16G 3G31G19G13G21G23
 106343364.25347  20236465.510    82864961.21847  20236462.6014         42.5004
        42.6004
 124583498.50843  23707446.847    97078061.30043  23707447.0544         22.0004
        21.8004
 112719847.74646  21449876.409    87833644.35546  21449872.6274         37.7004
        37.7004
 104480901.38947  19882051.878    81413695.28047  19882049.0194         43.3004
        43.5004
 120342319.89345  22900386.560    93773229.83345  22900384.1094         31.5004
        31.5004
 113130280.48846  21527971.337    88153465.60246  21527967.2884         38.5004
        38.5004
 119351965.24544  22711923.212    93001530.16144  22711920.4464         27.7004
        27.9004
 128374594.75743  24428871.191   100032151.92343  24428868.3684         18.3004
        18.1004
 115639449.99945  22005457.526    90108659.39845  22005453.1434         33.6004
        33.7004
 10 10 11  1 25  0.0000000  0  9G 6G24G16G 3G31G19G13G21G23
 106337762.82646  20235399.581    82860596.46147  20235396.4214         41.9004
        42.2004
 124453213.06043  23682653.000    96976540.28543  23682654.5454         21.7004
        21.8004
 112717612.83246  21449451.135    87831902.84046  21449447.2964         37.8004
        37.9004
 104437105.66047  19873717.816    81379568.73947  19873714.8974         43.1004
        43.6004
 120395654.09145  22910535.961    93814788.83845  22910533.3594         31.6004
        31.5004
 113030757.83646  21509032.822    88075915.48746  21509028.2304         38.5004
        38.8004
 119301108.14344  22702245.547    92961901.24344  22702242.2194         27.9004
        27.9004
 128386449.13243  24431127.652   100041389.03343  24431123.1834         18.1004
        18.2004
 115641572.56045  22005861.483    90110313.30545  22005857.1284         33.8004
        33.7004
 10 10 11  1 25 30.0000000  0  9G 6G24G16G 3G31G19G13G21G23
 106332560.69747  20234409.669    82856542.84447  20234406.4884         42.3004
        42.3004
 124322927.48943  23657861.440    96875019.14043  23657861.5664         21.7004
        21.6004
 112715472.97146  21449043.505    87830235.37746  21449040.1694         37.7004
        37.8004
 104393783.66347  19865473.999    81345811.33247  19865470.9204         43.3004
        43.4004
 120449274.86045  22920740.089    93856571.14145  22920737.4514         31.6004
        31.6004
 112931640.46846  21490171.287    87998681.17546  21490167.4204         38.7004
        38.7004
 119250828.25444  22692677.816    92922722.07944  22692675.1364         27.8004
        27.9004
 128398705.28143  24433460.096   100050939.20843  24433456.0884         18.1004
        18.2004
 115644206.30045  22006362.333    90112365.52345  22006358.0734         33.9004
        33.9004
 10 10 11  1 26  0.0000000  0  9G 6G24G16G 3G31G19G13G21G23
 106327758.49947  20233495.630    82852800.85747  20233492.6284         42.1004
        42.5004
 124192647.09043  23633069.217    96773502.04243  23633069.9024         21.7004
        22.0004
 112713430.78846  21448655.531    87828644.03646  21448651.5644         38.0004
        37.8004
 104350937.19447  19857320.338    81312424.46847  19857317.6674         43.6004
        43.5004
 120503183.70445  22930998.544    93898577.90645  22930995.7254         31.7004
        31.7004
 112832932.05846  21471387.859    87921765.53446  21471383.1904         38.6004
        38.7004
 119201128.37444  22683220.191    92883994.86544  22683217.3774         28.2004
        28.2004
 128411364.78243  24435868.193   100060803.69943  24435865.5114         18.3004
        18.3004
 115647351.61145  22006961.540    90114816.37745  22006956.8844         34.1004
        34.2004
 10 10 11  1 26 30.0000000  0  9G 6G24G16G 3G31G19G13G21G23
 106323354.96747  20232657.914    82849369.52247  20232654.9284         42.1004
        42.2004
 124062375.20043  23608279.978    96671991.54743  23608280.3794         22.1004
        22.0004
 112711486.85246  21448285.812    87827129.24446  21448281.5374         37.4004
        37.6004
 104308566.15947  19849257.577    81279408.06847  19849254.7464         43.3004
        43.8004
 120557379.49345  22941311.441    93940808.26945  22941308.5574         31.3004
        31.3004
 112734634.05346  21452682.383    87845169.69246  21452677.8714         38.6004
        38.8004
 119152009.23844  22673873.198    92845720.18344  22673869.8834         28.3004
        28.2004
 128424427.23743  24438353.918   100070982.17343  24438351.1534         18.5004
        18.3004
 115651007.31545  22007656.472    90117664.93045  22007652.4994         33.9004
        34.0004
 10 10 11  1 27  0.0000000  0  9G 6G24G16G 3G31G19G13G21G23
 106319344.64746  20231894.727    82846244.58346  20231891.6634         41.9004
        41.9004
 123932110.90143  23583490.724    96570486.98643  23583491.1344         22.1004
        21.9004
 112709637.50446  21447933.860    87825688.15746  21447929.8914         37.4004
        37.5004
 104266665.71647  19841284.194    81246758.36847  19841281.1694         43.5004
        43.5004
 120611857.10045  22951678.157    93983258.22645  22951675.6604         30.9004
        30.8004
 112636743.70646  21434054.539    87768891.50546  21434049.8864         38.9004
        39.1004
 119103467.25944  22664635.777    92807895.22144  22664632.4254         28.4004
        28.4004
 128437887.75043  24440915.860   100081470.83643  24440912.6074         18.5004
        18.4004
 115655167.07345  22008448.501    90120906.25645  22008444.0454         33.9004
        34.0004
 10 10 11  1 27 30.0000000  0  9G 6G24G16G 3G31G19G13G21G23
 106315728.39247  20231206.615    82843426.69847  20231203.4504         42.4004
        42.7004
 123801859.49343  23558705.037    96468992.45943  23558704.7834         22.0004
        21.9004
 112707885.20746  21447600.352    87824322.69746  21447596.1054         37.3004
        37.5004
 104225238.18747  19833400.601    81214477.16547  19833397.8744         43.3004
        43.4004
 120666617.68645  22962098.641    94025928.68545  22962095.9064         30.3004
        30.5004
 112539264.68646  21415504.954    87692933.83446  21415499.8594         38.7004
        38.9004
 119055505.38744  22655508.966    92770522.29644  22655505.8804         28.2004
        28.3004
 128451748.12042  24443553.608   100092271.08242  24443549.7144         17.5004
        17.3004
 115659831.57445  22009335.577    90124540.89145  22009331.5144         33.7004
        33.8004
 10 10 11  1 28  0.0000000  0  9G 6G24G16G 3G31G19G13G21G23
 106312506.43247  20230593.568    82840916.06747  20230590.3914         42.3004
        42.5004
 123671626.28843  23533921.714    96367512.09643  23533923.3534         21.8004
        21.9004
 112706232.12546  21447285.921    87823034.54846  21447282.0014         37.5004
        37.7004
 104184285.07347  19825607.475    81182565.63447  19825604.6374         43.1004
        43.2004
 120721662.43445  22972574.267    94068820.57845  22972570.5944         30.5004
        30.7004
 112442200.36846  21397034.278    87617299.30146  21397029.1964         38.8004
        39.0004
 119008125.90044  22646493.145    92733603.17344  22646490.3474         28.2004
        28.2004
 128466009.41142  24446267.463   100103383.72442  24446264.2674         17.5004
        17.3004
 115665001.04045  22010319.868    90128568.99845  22010315.0134         33.6004
        33.8004
 10 10 11  1 28 30.0000000  0  9G 6G24G16G 3G31G19G13G21G23
 106309676.10647  20230055.033    82838710.60647  20230051.7534         42.1004
        42.3004
 123541413.43443  23509144.079    96266047.61343  23509144.1534         22.1004
        22.0004
 112704677.24646  21446989.947    87821822.92446  21446986.2964         37.4004
        37.5004
 104143804.40647  19817904.210    81151022.25147  19817901.5444         43.2004
        43.4004
 120776988.87245  22983101.867    94111931.96245  22983099.4014         30.7004
        30.6004
 112345550.38246  21378642.266    87541987.63146  21378637.2294         38.7004
        39.0004
 118961327.84944  22637587.301    92697137.12844  22637585.1834         28.0004
        28.0004
 128480669.70343  24449056.723   100114807.26143  24449052.6914         18.2004
        18.6004
 115670672.35845  22011399.195    90132988.16545  22011394.6454         33.5004
        33.6004
 10 10 11  1 29  0.0000000  0  9G 6G24G16G 3G31G19G13G21G23
 106307236.43947  20229590.770    82836809.54547  20229587.5704         42.0004
        42.3004
 123411224.40243  23484369.052    96164601.66043  23484370.2124         22.1004
        22.0004
 112703221.40946  21446712.634    87820688.47146  21446708.7454         37.4004
        37.5004
 104103795.72647  19810291.044    81119846.64047  19810288.1494         42.8004
        43.3004
 120832596.54745  22993684.145    94155262.48345  22993681.5264         30.6004
        30.6004
 112249316.95146  21360329.871    87467000.55246  21360325.1854         38.8004
        39.0004
 118915112.20944  22628793.864    92661124.91044  22628790.8784         27.9004
        27.9004
 128495729.10043  24451923.385   100126541.81143  24451920.0364         19.4004
        18.6004
 115676844.19245  22012573.826    90137797.33345  22012569.1534         33.4004
        33.6004
 10 10 11  1 29 30.0000000  0  9G 6G24G16G 3G31G19G13G21G23
 106305183.17346  20229200.099    82835209.58047  20229196.9984         41.9004
        42.3004
 123281059.56343  23459599.310    96063174.58143  23459599.5474         22.5004
        22.4004
 112701862.30746  21446454.247    87819629.39446  21446450.5304         37.5004
        37.5004
 104064256.08347  19802766.865    81089036.52547  19802763.9244         42.7004
        43.4004
 120888481.31245  23004318.011    94198808.93145  23004315.9914         30.6004
        30.5004
 112153498.56446  21342095.963    87392336.88146  21342091.7304         39.0004
        39.2004
 118869476.26344  22620108.753    92625564.38744  22620105.1824         27.6004
        27.7004
 128511183.54943  24454864.367   100138584.15543  24454860.9584         19.4004
        19.6004
 115683511.84145  22013842.703    90142992.86245  22013837.7524         33.3004
        33.4004
 10 10 11  1 30  0.0000000  0  9G 6G24G16G 3G31G19G13G21G23
 106303513.98647  20228882.372    82833908.90347  20228879.1774         42.3004
        42.1004
 123150921.61143  23434834.950    95961768.44143  23434834.5114         22.7004
        22.7004
 112700599.75346  21446214.204    87818645.55446  21446210.1534         37.3004
        37.5004
 104025184.25247  19795331.447    81058590.93547  19795328.8124         42.8004
        43.1004
 120944641.56745  23015005.403    94242570.03345  23015003.0324         30.3004
        30.3004
 112058095.59346  21323941.372    87317996.91046  21323936.8204         39.0004
        39.1004
 118824420.16244  22611535.303    92590455.70344  22611533.0124         27.5004
        27.6004
 128527031.72843  24457879.461   100150933.32543  24457877.3314         19.7004
        19.6004
 115690672.64245  22015205.353    90148572.65545  22015200.1534         33.4004
        33.5004
 10 10 11  1 30 30.0000000  0  9G 6G24G16G 3G31G19G13G21G23
 106302225.63146  20228637.326    82832904.97647  20228634.2224         41.9004
        42.1004
 123020812.00243  23410075.741    95860384.38543  23410076.5154         22.7004
        22.7004
 112699432.13646  21445991.897    87817735.67846  21445988.1514         37.5004
        37.6004
 103986577.84647  19787985.269    81028508.01547  19787982.4244         43.3004
        43.4004
 121001074.71545  23025744.896    94286543.76945  23025742.3274         30.4004
        30.3004
 111963107.47346  21305865.596    87243980.19846  21305860.8814         39.2004
        39.2004
 118779942.28844  22603071.288    92555797.58444  22603068.5244         27.6004
        27.7004
 128543270.97143  24460970.267   100163587.20943  24460967.0544         19.7004
        19.4004
 115698323.03645  22016660.972    90154533.96445  22016655.9684         33.4004
        33.5004
 10 10 11  1 31  0.0000000  0  9G 6G24G16G 3G31G19G13G21G23
 106301319.71647  20228464.913    82832199.05047  20228461.9354         42.2004
        42.3004
 122890736.82143  23385324.110    95759027.17643  23385323.4354         22.5004
        22.5004
 112698362.73446  21445788.220    87816902.33846  21445784.1954         37.0004
        37.3004
 103948439.10047  19780727.634    80998789.51047  19780724.8404         43.2004
        43.3004
 121057782.19245  23036535.812    94330731.27345  23036533.1544         30.2004
        30.3004
 111868538.58846  21287869.872    87170290.16646  21287865.2564         39.2004
        39.4004
 118736045.65044  22594718.075    92521592.37044  22594715.6244         27.6004
        27.6004
 128559903.85143  24464135.459   100176547.85143  24464131.7034         18.7004
        18.6004
 115706464.34445  22018210.166    90160877.79545  22018205.3614         33.4004
        33.4004
 10 10 11  1 31 30.0000000  0  9G 6G24G16G 3G31G19G13G21G23
 106300793.40146  20228364.664    82831788.91847  20228361.5964         41.7004
        42.0004
 122760698.27243  23360578.030    95657698.47243  23360579.0854         22.9004
        22.9004
 112697390.94846  21445603.827    87816145.06746  21445599.8084         37.2004
        37.4004
 103910766.99247  19773558.721    80969434.61047  19773556.0184         43.1004
        43.3004
 121114761.88144  23047378.953    94375130.89245  23047375.8314         29.9004
        30.1004
 111774388.98646  21269953.966    87096926.84746  21269949.3004         39.3004
        39.5004
 118692729.69244  22586474.671    92487839.65244  22586472.0254         27.6004
        27.6004
 128576928.56943  24467375.196   100189813.80643  24467372.6484         18.5004
        18.6004
 115715093.24345  22019852.167    90167601.56145  22019848.1214         33.3004
        33.5004
 10 10 11  1 32  0.0000000  0  9G 6G24G16G 3G31G19G13G21G23
 106300643.79046  20228336.331    82831672.31947  20228333.0754         41.8004
        42.1004
 122630698.08843  23335840.044    95556399.68743  23335840.2274         23.3004
        22.9004
 112696515.79546  21445436.727    87815463.09346  21445432.9844         37.3004
        37.4004
 103873558.85047  19766478.523    80940441.24247  19766475.5404         43.2004
        43.5004
 121172011.34944  23058273.186    94419740.72044  23058270.3894         29.5004
        29.6004
 111680658.51446  21252117.771    87023890.11746  21252112.7154         39.1004
        39.5004
 118649993.04244  22578343.022    92454538.31044  22578340.1214         27.4004
        27.4004
 128594342.71343  24470688.199   100203383.21443  24470685.6904         18.5004
        18.2004
 115724206.32445  22021586.594    90174702.60445  22021581.6304         33.1004
        33.2004
 10 10 11  1 32 30.0000000  0  9G 6G24G16G 3G31G19G13G21G23
 106300872.67447  20228379.849    82831850.66147  20228376.9354         42.1004
        42.3004
 122500743.16743  23311109.918    95455136.17243  23311111.1614         23.3004
        23.3004
 112695740.87646  21445289.400    87814859.22646  21445285.6484         37.2004
        37.2004
 103836817.80647  19759486.847    80911811.84647  19759483.9044         43.2004
        43.5004
 121229532.80344  23069218.987    94464562.48044  23069216.8574         29.7004
        29.7004
 111587351.81646  21234362.094    86951183.60846  21234357.1884         39.2004
        39.2004
 118607839.50244  22570320.500    92421691.36944  22570318.4284         27.5004
        27.5004
 128612148.75243  24474077.013   100217258.00543  24474073.5964         18.4004
        18.2004
 115733804.98545  22023413.095    90182182.03045  22023408.2974         32.9004
        33.2004
 10 10 11  1 33  0.0000000  0  9G 6G24G16G 3G31G19G13G21G23
 106301474.80047  20228494.186    82832319.83447  20228491.3834         42.1004
        42.1004
 122370832.96543  23286388.951    95353907.50643  23286389.7024         23.8004
        23.9004
 112695062.87746  21445160.371    87814330.88346  21445156.6754         37.0004
        37.2004
 103800539.13947  19752583.357    80883542.74747  19752580.2844         43.1004
        43.3004
 121287321.22344  23080216.041    94509592.27544  23080213.4334         29.1004
        29.2004
 111494466.27746  21216686.347    86878805.27146  21216681.5334         39.5004
        39.8004
 118566265.13444  22562410.160    92389295.71444  22562407.4694         27.3004
        27.5004
 128630342.03643  24477539.493   100231434.53643  24477535.8724         18.4004
        18.8004
 115743883.49345  22025331.234    90190035.36545  22025326.4334         33.2004
        33.3004
 10 10 11  1 33 30.0000000  0  9G 6G24G16G 3G31G19G13G21G23
 106302447.45946  20228679.391    82833077.72646  20228676.6144         41.9004
        41.9004
 122240969.55044  23261676.275    95252715.27444  23261676.9924         24.0004
        24.0004
 112694481.40846  21445049.890    87813877.75546  21445045.5614         37.0004
        37.2004
 103764721.20547  19745767.322    80855632.65947  19745764.3944         43.2004
        43.5004
 121345374.39844  23091263.478    94554828.36144  23091260.8034         29.0004
        29.0004
 111402001.75546  21199090.691    86806755.00246  21199085.9134         39.2004
        39.3004
 118525269.60244  22554608.867    92357351.10344  22554606.0644         27.8004
        27.9004
 128648920.44143  24481074.774   100245911.15143  24481070.8284         18.8004
        18.8004
 115754438.66445  22027339.756    90198260.13545  22027335.0904         33.2004
        33.3004
 10 10 11  1 34  0.0000000  0  9G 6G24G16G 3G31G19G13G21G23
 106303791.78447  20228935.200    82834125.23447  20228932.2524         42.0004
        42.1004
 122111159.01843  23236975.480    95151564.29844  23236975.8934         23.9004
        24.0004
 112693999.13046  21444958.275    87813501.91546  21444954.0524         36.8004
        36.9004
 103729366.27847  19739039.418    80828083.35647  19739036.5434         43.2004
        43.2004
 121403693.84844  23102361.138    94600271.94444  23102359.4554         28.8004
        29.0004
 111309961.96446  21181576.273    86735035.69046  21181571.4764         39.6004
        39.5004
 118484855.19744  22546918.282    92325859.31544  22546916.1504         27.9004
        27.9004
 128667886.27843  24484684.109   100260689.65943  24484681.1294         18.7004
        18.7004
 115765471.43245  22029439.277    90206857.04345  22029434.6644         33.2004
        33.4004
 10 10 11  1 34 30.0000000  0  9G 6G24G16G 3G31G19G13G21G23
 106305504.01047  20229261.116    82835459.41947  20229258.4354         42.0004
        42.2004
 121981402.41144  23212282.904    95050455.31844  23212283.5444         24.5004
        24.2004
 112693614.71546  21444884.829    87813202.34246  21444880.5804         36.7004
        36.7004
 103694471.41747  19732399.012    80800892.54547  19732396.3724         43.4004
        43.5004
 121462276.31944  23113509.044    94645920.44544  23113506.7064         29.0004
        28.9004
 111218346.27946  21164142.355    86663646.84746  21164137.9264         39.5004
        39.7004
 118445020.00544  22539337.557    92294818.86244  22539334.8764         28.2004
        28.0004
 128687236.41843  24488366.286   100275767.62243  24488363.6844         18.7004
        18.7004
 115776977.72145  22031628.849    90215822.92845  22031624.1284         32.9004
        32.9004
 10 10 11  1 35  0.0000000  0  9G 6G24G16G 3G31G19G13G21G23
 106307582.57046  20229657.064    82837079.06146  20229653.6424         41.7004
        41.7004
 121851702.91844  23187601.763    94949390.85744  23187602.6214         24.8004
        24.8004
 112693328.28146  21444830.867    87812979.10646  21444826.4834         37.0004
        37.0004
 103660035.80547  19725846.441    80774059.59447  19725843.4924         43.0004
        43.4004
 121521120.64844  23124706.931    94691773.01044  23124704.6644         28.8004
        28.8004
 111127155.83546  21146789.597    86592589.35846  21146784.8504         39.7004
        39.8004
 118405764.21544  22531867.835    92264229.89744  22531864.8074         28.0004
        28.3004
 128706969.45742  24492120.713   100291143.95943  24492118.6854         17.7004
        18.0004
 115788954.98745  22033907.856    90225155.82045  22033903.3134         32.7004
        32.8004
 10 10 11  1 35 30.0000000  0  9G 6G24G16G 3G31G19G13G21G23
 106310025.07546  20230121.731    82838982.30747  20230118.6884         41.8004
        42.1004
 121722063.26044  23162932.023    94848373.03844  23162932.5374         24.8004
        24.6004
 112693139.24746  21444794.267    87812831.77746  21444790.7094         36.9004
        37.0004
 103626057.82047  19719380.675    80747583.22847  19719377.8594         43.0004
        43.3004
 121580224.68344  23135954.581    94737827.94144  23135952.2314         28.7004
        28.8004
 111036390.70146  21129517.485    86521863.28046  21129513.1214         39.6004
        39.9004
 118367087.02744  22524507.653    92234091.79144  22524505.1374         28.1004
        28.0004
 128727083.81342  24495948.935   100306817.42243  24495945.9964         17.7004
        18.0004
 115801400.57245  22036276.317    90234853.63545  22036272.1614         32.6004
        32.7004
 10 10 11  1 36  0.0000000  0  9G 6G24G16G 3G31G19G13G21G23
 106312831.69647  20230655.514    82841169.27446  20230652.6424         42.0004
        41.7004
 121592488.40244  23138274.315    94747405.68544  23138275.2214         24.5004
        24.6004
 112693050.31946  21444777.743    87812762.45446  21444774.0114         36.7004
        36.5004
 103592539.03947  19713002.437    80721464.68447  19712999.2924         43.4004
        43.5004
 121639589.02844  23147251.285    94784085.70444  23147249.0484         28.6004
        28.6004
 110946053.70346  21112326.552    86451470.81546  21112322.4144         39.6004
        40.0004
 118328990.18644  22517258.004    92204405.90744  22517255.9944         28.2004
        28.2004
 128747581.11242  24499849.646   100322789.25142  24499846.9294         16.4004
        16.7004
 115814314.10745  22038733.726    90244916.07645  22038729.0854         32.7004
        32.8004
 10 10 11  1 36 30.0000000  0  9G 6G24G16G 3G31G19G13G21G23
 106316001.83547  20231258.708    82843639.49547  20231256.1054         42.0004
        42.1004
 121462982.69444  23113630.803    94646492.23144  23113631.2944         24.6004
        24.6004
 112693062.83846  21444780.242    87812772.16646  21444776.2524         37.0004
        37.2004
 103559479.55547  19706711.218    80695704.02547  19706708.3814         43.1004
        43.2004
 121699213.68744  23158597.551    94830546.29044  23158596.1554         28.5004
        28.5004
 110856146.66246  21095218.062    86381413.38346  21095213.5874         39.7004
        39.9004
 118291474.81044  22510119.637    92175173.11344  22510116.8174         28.3004
        28.2004
 128768460.78542  24503822.479   100339059.05942  24503819.6524         16.4004
        16.7004
 115827694.54445  22041280.004    90255342.33345  22041275.8034         32.5004
        32.6004
 10 10 11  1 37  0.0000000  0  9G 6G24G16G 3G31G19G13G21G23
 106319528.01546  20231929.971    82846387.14546  20231927.0264         41.6004
        41.8004
 121333543.71344  23088998.883    94545630.77144  23088999.9644         24.7004
        24.7004
 112693171.23846  21444800.773    87812856.59946  21444797.0894         37.0004
        37.2004
 103526872.38847  19700506.128    80670295.83747  19700503.3624         43.2004
        43.0004
 121759091.15144  23169991.743    94877203.86844  23169990.3874         28.7004
        28.7004
 110766665.23546  21078190.138    86311687.59846  21078185.6034         39.9004
        39.9004
 118254534.84944  22503089.815    92146388.70444  22503087.4924         28.3004
        28.4004
 128789715.99242  24507866.770   100355621.48342  24507865.3964         16.0004
        15.8004
 115841533.73045  22043913.692    90266126.06445  22043909.0094         32.6004
        32.8004
 10 10 11  1 37 30.0000000  0  9G 6G24G16G 3G31G19G13G21G23
 106323412.93547  20232669.127    82849414.33547  20232666.1894         42.0004
        42.2004
 121204178.62144  23064381.162    94444826.89144  23064381.2354         24.4004
        24.4004
 112693380.27846  21444840.637    87813019.44846  21444836.4874         37.0004
        37.1004
 103494721.31447  19694388.123    80645243.04947  19694385.0734         43.2004
        43.1004
 121819224.74144  23181435.275    94924061.03044  23181432.8274         28.4004
        28.4004
 110677614.69746  21061244.697    86242297.57546  21061240.1864         39.9004
        40.2004
 118218174.57044  22496171.280    92118055.97944  22496168.0964         28.1004
        28.1004
 128811350.18942  24511984.495   100372479.21842  24511982.5504         15.9004
        16.0004
 115855833.78745  22046634.429    90277268.92145  22046630.1634         32.6004
        32.7004
 10 10 11  1 38  0.0000000  0  9G 6G24G16G 3G31G19G13G21G23
 106327654.88346  20233476.371    82852719.71946  20233473.3064         41.7004
        41.9004
 121074890.92044  23039779.125    94344083.30544  23039779.3304         24.4004
        24.4004
 112693690.46646  21444899.581    87813261.11446  21444895.8024         36.7004
        36.8004
 103463025.94047  19688356.735    80620545.34547  19688353.8224         43.1004
        43.3004
 121879613.01844  23192926.737    94971116.65144  23192924.5324         28.3004
        28.1004
 110588995.94846  21044380.760    86173244.00346  21044376.2374         39.9004
        40.0004
 118182393.98644  22489362.101    92090174.97944  22489359.6994         28.0004
        28.1004
 128833362.33942  24516173.199   100389631.47242  24516171.3054         15.9004
        16.0004
 115870592.63845  22049443.288    90288769.27345  22049439.0714         32.7004
        32.6004
 10 10 11  1 38 30.0000000  0  9G 6G24G16G 3G31G19G13G21G23
 106332250.08346  20234350.978    82856300.37246  20234347.7934         41.8004
        41.9004
 120945681.74644  23015191.143    94243400.91444  23015191.1184         24.6004
        24.6004
 112694100.15646  21444977.322    87813580.30946  21444973.7254         36.6004
        36.6004
 103431782.92347  19682411.439    80596200.12347  19682408.5514         43.2004
        43.2004
 121940252.68544  23204466.650    95018368.14344  23204464.3554         27.9004
        28.0004
 110500807.50246  21027599.037    86104525.73646  21027594.5154         40.0004
        40.0004
 118147190.70944  22482662.957    92062743.81644  22482660.6814         28.1004
        28.1004
 128855749.27842  24520433.551   100407075.77342  24520430.3634         17.2004
        17.3004
 115885806.02645  22052338.660    90300623.80445  22052334.4504         32.8004
        32.9004
 10 10 11  1 39  0.0000000  0  9G 6G24G16G 3G31G19G13G21G23
 106337195.15946  20235291.967    82860153.65346  20235288.8334         41.3004
        41.4004
 120816552.66744  22990618.980    94142780.92344  22990618.7554         24.9004
        24.8004
 112694607.84446  21445074.776    87813975.86346  21445070.3184         37.1004
        37.1004
 103400989.21347  19676551.618    80572205.01747  19676548.8744         43.0004
        43.6004
 122001140.72044  23216053.220    95065813.15844  23216051.1514         28.0004
        27.8004
 110413048.83646  21010899.188    86036142.36946  21010894.6524         39.9004
        40.1004
 118112562.58644  22476073.682    92035760.81344  22476070.2964         28.1004
        28.2004
 128878508.02442  24524764.641   100424809.79642  24524761.5474         17.2004
        17.3004
 115901469.73845  22055318.937    90312829.24545  22055314.6124         32.3004
        32.4004
 10 10 11  1 39 30.0000000  0  9G 6G24G16G 3G31G19G13G21G23
 106342490.86246  20236299.865    82864280.15146  20236296.5794         41.6004
        41.6004
 120687509.80744  22966062.486    94042228.13044  22966063.6284         25.4004
        25.5004
 112695216.75846  21445190.376    87814450.31146  21445186.2624         37.1004
        37.1004
 103370647.30647  19670777.588    80548561.96047  19670774.6794         43.0004
        43.2004
 122062278.25944  23227687.338    95113452.58644  23227685.7074         28.4004
        28.4004
 110325723.42846  20994281.794    85968096.60046  20994276.9684         39.6004
        40.1004
 118078512.29844  22469594.197    92009228.08744  22469591.8384         28.1004
        28.1004
 128901640.32542  24529166.788   100442834.90342  24529163.3174         17.5004
        17.2004
 115917584.19845  22058385.826    90325385.91245  22058380.8764         32.4004
        32.4004
 10 10 11  1 40  0.0000000  0  9G 6G24G16G 3G31G19G13G21G23
 106348134.91946  20237373.660    82868678.08646  20237370.7094         41.3004
        41.3004
 120558555.45844  22941523.401    93941744.28344  22941523.1974         25.4004
        25.4004
 112695926.53946  21445325.408    87815003.34646  21445321.9294         36.8004
        37.0004
 103340755.15447  19665089.391    80525269.35947  19665086.4634         42.9004
        43.2004
 122123663.29044  23239368.721    95161284.85944  23239367.2544         27.6004
        28.0004
 110238831.36046  20977746.911    85900388.50546  20977742.2004         40.3004
        40.2004
 118045038.68744  22463224.362    91983144.71244  22463221.7524         28.0004
        28.0004
 128925144.39942  24533638.652   100461149.70642  24533636.5414         17.1004
        17.2004
 115934146.25845  22061537.586    90338291.36045  22061533.6224         32.2004
        32.2004
 10 10 11  1 40 30.0000000  0  9G 6G24G16G 3G31G19G13G21G23
 106354123.15746  20238513.049    82873344.21546  20238510.1394         41.4004
        41.3004
 120429690.62044  22917001.487    93841330.19744  22917001.3154         25.5004
        25.4004
 112696735.12846  21445479.325    87815633.37346  21445475.2874         36.7004
        36.7004
 103311309.44847  19659486.171    80502324.63547  19659483.1894         43.0004
        42.9004
 122185292.07144  23251096.313    95209307.08144  23251094.2524         27.1004
        27.1004
 110152370.92046  20961293.921    85833016.74446  20961289.3304         40.1004
        40.3004
 118012139.17944  22456964.171    91957508.70444  22456960.8614         28.2004
        28.2004
 128949016.78142  24538181.515   100479751.49342  24538179.4884         17.1004
        17.4004
 115951151.16845  22064773.740    90351541.88845  22064768.7464         32.3004
        32.5004
 10 10 11  1 41  0.0000000  0  9G 6G24G16G 3G31G19G13G21G23
 106360456.09146  20239718.303    82878278.94046  20239715.1974         41.3004
        41.6004
 120300920.72044  22892497.396    93740990.07944  22892496.9224         26.2004
        25.7004
 112697645.12146  21445652.340    87816342.41946  21445648.6314         36.5004
        36.6004
 103282311.87747  19653968.179    80479729.10647  19653965.2004         42.9004
        43.0004
 122247165.42744  23262870.770    95257519.88744  23262868.4154         27.1004
        27.1004
 110066345.42246  20944923.943    85765983.89546  20944919.0904         40.1004
        40.4004
 117979815.60544  22450812.706    91932321.47344  22450809.3954         28.4004
        28.4004
 128973258.56342  24542795.369   100498641.11742  24542792.0924         17.6004
        17.4004
 115968598.95545  22068093.692    90365137.49645  22068089.3434         32.4004
        32.5004
 10 10 11  1 41 30.0000000  0  9G 6G24G16G 3G31G19G13G21G23
 106367129.00446  20240988.271    82883478.57946  20240985.0794         41.0004
        41.3004
 120172245.87644  22868011.063    93640724.02144  22868011.7234         26.1004
        26.1004
 112698653.96546  21445843.976    87817128.49746  21445840.6724         36.5004
        36.5004
 103253758.13847  19648534.527    80457479.42347  19648531.7164         42.8004
        43.0004
 122309279.04244  23274690.758    95305919.88044  23274689.2934         27.4004
        27.4004
 109980752.67746  20928636.317    85699288.26246  20928631.3484         40.1004
        40.4004
 117948064.68944  22444771.010    91907580.46544  22444767.1084         28.2004
        28.4004
 128997866.10142  24547477.304   100517815.74042  24547474.9734         17.6004
        17.7004
 115986484.08045  22071497.195    90379073.90745  22071493.0854         32.4004
        32.5004
 10 10 11  1 42  0.0000000  0  9G 6G24G16G 3G31G19G13G21G23
 106374141.49146  20242322.728    82888942.82746  20242319.6984         41.5004
        41.5004
 120043670.60244  22843544.054    93540535.55644  22843543.9774         26.4004
        26.4004
 112699763.54446  21446055.666    87817993.05646  21446051.8994         36.6004
        36.7004
 103225648.75247  19643185.358    80435575.99247  19643182.7094         42.9004
        42.8004
 122371632.55844  23286556.694    95354506.80944  23286554.5064         27.7004
        27.8004
 109895594.65946  20912431.280    85632931.36646  20912426.3404         40.5004
        40.6004
 117916887.32844  22438837.550    91883286.39244  22438835.5054         28.4004
        28.2004
 129022838.82242  24552229.775   100537274.94142  24552226.6824         17.5004
        17.7004
 116004805.39945  22074984.078    90393350.19945  22074979.4284         32.2004
        32.3004
 10 10 11  1 42 30.0000000  0  9G 6G24G16G 3G31G19G13G21G23
 107956911.90046  20543513.908    84122270.39246  20543510.6314         41.6004
        41.7004
 121490623.16944  23118889.962    94668031.11844  23118890.1104         26.4004
        26.5004
 114276394.64746  21746078.373    89046536.74246  21746074.6734         36.1004
        36.4004
 104773403.78247  19937713.410    81641618.85247  19937710.5314         42.7004
        42.8004
 124009643.05844  23598259.859    96630878.39644  23598257.9534         27.7004
        27.6004
 111386295.44546  21196101.918    86794516.40746  21196097.3364         40.6004
        40.6004
 119461704.31544  22732806.621    93087039.85644  22732804.2944         28.5004
        28.6004
 130623594.90842  24856843.929   101784617.28242  24856840.1824         17.5004
        16.4004
 117598980.62545  22378345.237    91635564.60145  22378340.5314         32.0004
        32.0004
 10 10 11  1 43  0.0000000  0  9G 6G24G16G 3G31G19G13G21G23
 107964597.71246  20544976.268    84128259.31446  20544973.4264         41.5004
        41.5004
 121362256.83044  23094462.486    94568005.44444  23094463.0544         26.5004
        26.5004
 114277706.75846  21746328.247    89047559.11746  21746324.4794         36.1004
        36.4004
 104746179.26147  19932532.778    81620404.92747  19932529.8324         42.9004
        43.0004
 124072472.08844  23610216.053    96679835.85344  23610214.6664         27.8004
        27.8004
 111302008.70446  21180062.972    86728838.43246  21180058.1104         40.7004
        40.7004
 119431672.05144  22727091.794    93063638.06644  22727088.5664         28.6004
        28.7004
 130649293.59442  24861733.676   101804642.19242  24861731.3174         16.0004
        16.4004
 117618167.10345  22381996.099    91650515.03445  22381991.9504         31.9004
        31.9004
 10 10 11  1 43 30.0000000  0  9G 6G24G16G 3G31G19G13G21G23
 107972617.51046  20546502.657    84134508.47746  20546499.5524         41.4004
        41.7004
 121233999.90544  23070056.223    94468065.04544  23070056.1414         26.5004
        26.5004
 114279120.57446  21746597.276    89048660.75646  21746593.3944         36.3004
        36.3004
 104719395.89547  19927436.121    81599534.73947  19927433.1594         43.0004
        42.7004
 124135536.62744  23622216.774    96728976.82144  23622215.5514         27.4004
        27.6004
 111218158.81646  21164106.659    86663500.86446  21164101.9794         40.4004
        40.6004
 119402211.70544  22721485.683    93040681.91944  22721483.8754         28.5004
        28.5004
 130675354.41042  24866693.384   101824949.24442  24866690.2484         16.0004
        14.6004
 117637782.34045  22385728.775    91665799.58045  22385724.8434         31.9004
        32.0004
 10 10 11  1 44  0.0000000  0  9G 6G24G16G 3G31G19G13G21G23
 107980968.36346  20548091.758    84141015.61746  20548089.0334         41.1004
        41.3004
 121105854.40144  23045670.572    94368211.47044  23045670.5304         26.8004
        27.0004
 114280635.17146  21746885.989    89049840.91946  21746881.8644         36.5004
        36.5004
 104693051.63547  19922422.942    81579006.73547  19922420.0064         42.4004
        42.8004
 124198834.12244  23634262.092    96778299.29944  23634260.4964         27.0004
        27.1004
 111134745.17846  21148233.604    86598503.22946  21148228.9524         40.5004
        40.7004
 119373321.54944  22715987.920    93018170.06944  22715986.6854         28.5004
        28.6004
 130701773.95042  24871720.865   101845535.86442  24871717.5834         14.2004
        14.6004
 117657822.90245  22389543.020    91681415.54645  22389538.0954         31.8004
        31.8004
 10 10 11  1 44 30.0000000  0  9G 6G24G16G 3G31G19G13G21G23
 107989650.29746  20549743.862    84147780.73546  20549741.0374         41.1004
        41.4004
 120977825.24544  23021307.561    94268448.53144  23021307.9214         27.3004
        27.0004
 114282253.12546  21747193.556    89051101.62746  21747189.7284         36.3004
        36.5004
 104667147.15647  19917493.703    81558821.41447  19917490.6364         42.6004
        43.0004
 124262364.77644  23646351.223    96827803.46844  23646350.9954         26.8004
        26.8004
 111051770.17546  21132443.882    86533847.38546  21132439.4174         40.6004
        40.9004
 119345002.82544  22710599.368    92996103.50644  22710596.9064         28.4004
        28.5004
 130728553.50842  24876817.113   101866403.00042  24876814.3564         14.5004
        14.2004
 117678287.91245  22393436.769    91697362.24645  22393432.6094         31.5004
        31.6004
 10 10 11  1 45  0.0000000  0  9G 6G24G16G 3G31G19G13G21G23
 107998658.37646  20551458.082    84154799.99546  20551455.1764         41.2004
        41.4004
 120849912.75744  22996966.406    94168776.52044  22996966.4134         27.1004
        27.2004
 114283971.48546  21747520.524    89052440.56846  21747516.7884         36.2004
        36.3004
 104641677.87347  19912646.930    81538975.21647  19912644.1204         43.0004
        43.3004
 124326124.08644  23658484.731    96877485.80344  23658483.5804         26.6004
        26.6004
 110969231.62646  21116737.404    86469531.64546  21116732.5934         40.9004
        40.9004
 119317251.92644  22705318.328    92974479.37844  22705316.5304         28.2004
        28.4004
 130755687.85842  24881980.629   101887546.62342  24881978.5884         14.5004
        14.2004
 117699171.61045  22397411.230    91713635.19145  22397407.5794         31.5004
        31.7004
 10 10 11  1 45 30.0000000  0  9G 6G24G16G 3G31G19G13G21G23
 108007992.78846  20553234.343    84162073.54946  20553231.4994         40.8004
        41.1004
 120722122.26844  22972648.858    94069199.57344  22972648.5764         27.0004
        27.0004
 114285793.05346  21747867.060    89053859.93546  21747863.4694         36.1004
        36.1004
 104616644.86447  19907883.450    81519468.96147  19907880.3864         42.8004
        42.9004
 124390112.37344  23670661.380    96927346.55644  23670660.8804         27.0004
        26.9004
 110887132.03046  21101114.408    86405557.93146  21101109.4334         40.7004
        40.9004
 119290070.21944  22700146.464    92953298.79444  22700143.4154         28.2004
        28.2004
 130783178.62042  24887211.420   101908967.93942  24887209.9484         16.2004
        16.3004
 117720473.48145  22401465.079    91730233.97645  22401460.6004         31.6004
        31.8004
 10 10 11  1 46  0.0000000  0  9G 6G24G16G 3G31G19G13G21G23
 108017652.68046  20555072.671    84169600.72146  20555069.6414         40.8004
        41.1004
 120594457.75944  22948355.055    93969720.78644  22948354.5414         26.7004
        26.8004
 114287719.10346  21748233.951    89055360.71246  21748229.9824         36.2004
        36.4004
 104592048.05747  19903202.786    81500302.59147  19903199.9254         42.5004
        42.7004
 124454329.18344  23682882.117    96977385.36944  23682880.7244         26.5004
        26.4004
 110805472.76646  21085575.333    86341927.33546  21085570.4084         40.8004
        40.8004
 119263457.83644  22695082.124    92932561.82844  22695078.9614         28.1004
        28.1004
 130811024.88842  24892510.647   101930666.26942  24892509.4334         16.2004
        16.3004
 117742192.12245  22405597.576    91747157.55345  22405593.1574         31.8004
        31.7004
 10 10 11  1 46 30.0000000  0  9G 6G24G16G 3G31G19G13G21G23
 108027632.08046  20556971.561    84177376.86246  20556968.7274         40.9004
        40.9004
 120466918.30544  22924085.046    93870339.43044  22924084.8934         26.8004
        26.7004
 114289745.76246  21748619.293    89056939.89146  21748615.4054         36.2004
        36.3004
 104567881.97647  19898604.007    81481471.87147  19898601.0244         42.6004
        42.9004
 124518769.33844  23695144.645    97027598.19544  23695144.2374         26.7004
        26.8004
 110724250.45646  21070118.901    86278637.22746  21070114.0264         40.7004
        40.9004
 119237409.99344  22690124.859    92912264.78344  22690123.0544         28.1004
        28.1004
 130839220.74742  24897876.581   101952637.02642  24897873.5564         17.0004
        16.3004
 117764320.71945  22409808.806    91764400.54645  22409804.1034         31.8004
        32.1004
 10 10 11  1 47  0.0000000  0  9G 6G24G16G 3G31G19G13G21G23
 108037932.40146  20558931.829    84185403.06146  20558928.6704         41.2004
        41.2004
 120339510.65144  22899840.245    93771060.77844  22899840.8304         27.1004
        27.2004
 114291876.90446  21749025.186    89058600.47646  21749021.5354         36.1004
        36.2004
 104544149.12247  19894087.946    81462978.72947  19894084.8584         42.5004
        42.8004
 124583433.65444  23707450.163    97077985.71344  23707449.8364         26.8004
        26.8004
 110643468.91046  21054746.875    86215690.56746  21054741.9804         41.1004
        41.0004
 119211929.49844  22685276.154    92892409.79344  22685273.9734         27.7004
        27.7004
 130867769.41242  24903308.462   101974882.67142  24903306.2464         17.0004
        16.7004
 117786860.15845  22414097.752    91781963.68145  22414094.1804         31.9004
        31.9004
 10 10 11  1 47 30.0000000  0  9G 6G24G16G 3G31G19G13G21G23
 108048549.98546  20560952.124    84193676.49146  20560949.3564         40.8004
        41.0004
 120212236.10244  22875620.576    93671885.84844  22875620.6124         27.4004
        27.4004
 114294110.77346  21749449.981    89060341.10846  21749446.5524         36.2004
        36.2004
 104520846.19947  19889653.283    81444820.58747  19889650.4814         42.9004
        42.9004
 124648318.94344  23719797.530    97128545.39644  23719797.1844         26.5004
        26.6004
 110563126.75346  21039458.193    86153086.28946  21039453.4804         41.0004
        41.0004
 119187013.55144  22680535.485    92872994.73144  22680532.6554         27.8004
        28.0004
 130896667.29942  24908807.993   101997400.43642  24908805.6924         16.0004
        16.7004
 117809805.69945  22418464.223    91799843.25145  22418459.3634         31.7004
        31.9004
 10 10 11  1 48  0.0000000  0  9G 6G24G16G 3G31G19G13G21G23
 108059483.40946  20563032.765    84202196.02446  20563029.9654         41.0004
        41.3004
 120085098.40244  22851426.521    93572817.55744  22851427.4954         27.7004
        27.8004
 114296448.43046  21749895.127    89062162.62046  21749891.1214         36.0004
        36.0004
 104497972.77347  19885300.647    81426997.12347  19885297.9744         42.8004
        42.6004
 124713424.45044  23732186.657    97179276.66744  23732186.3204         26.4004
        26.4004
 110483225.08146  21024253.588    86090825.24846  21024248.5834         40.9004
        41.0004
 119162661.66244  22675901.377    92854019.20544  22675898.5634         28.2004
        28.2004
 130925912.22942  24914373.957   102020188.65042  24914370.8794         16.0004
        15.4004
 117833154.88645  22422907.338    91818037.35745  22422903.5324         31.5004
        31.5004
 10 10 11  1 48 30.0000000  0  9G 6G24G16G 3G31G19G13G21G23
 108070729.86446  20565172.952    84210959.47346  20565170.2544         40.9004
        41.2004
 119958099.69644  22827259.591    93473857.57344  22827259.6324         27.7004
        27.9004
 114298889.46746  21750359.737    89064064.68246  21750356.0474         36.3004
        36.5004
 104475526.44247  19881029.354    81409506.45947  19881026.5194         42.5004
        42.6004
 124778747.49844  23744617.270    97230177.46144  23744616.6954         25.5004
        25.7004
 110403763.27646  21009132.436    86028906.95646  21009127.7254         41.1004
        41.2004
 119138872.49544  22671374.271    92835482.14944  22671372.3884         28.2004
        28.3004
 130955502.80142  24920004.514   102043246.16142  24920002.7464         14.5004
        15.4004
 117856904.68045  22427426.663    91836543.62045  22427422.8314         31.2004
        31.3004
 10 10 11  1 49  0.0000000  0  9G 6G24G16G 3G31G19G13G21G23
 108082288.36446  20567372.343    84219966.07446  20567369.5124         40.8004
        40.8004
 119831244.39644  22803120.094    93375009.34644  22803119.7004         28.0004
        27.9004
 114301435.21646  21750843.948    89066048.35246  21750840.3954         36.3004
        36.4004
 104453507.34747  19876839.391    81392348.71447  19876836.5004         42.6004
        42.9004
 124844287.47144  23757089.398    97281247.25944  23757089.5214         25.2004
        25.1004
 110324742.99146  20994095.383    85967332.70246  20994090.5054         41.3004
        41.3004
 119115645.96044  22666954.983    92817383.51544  22666952.7314         28.3004
        28.3004
 130985438.77742  24925699.684   102066572.84142  24925698.9644         14.5004
        14.2004
 117881053.27645  22432022.233    91855360.66045  22432018.0054         31.0004
        31.0004
 10 10 11  1 49 30.0000000  0  9G 6G24G16G 3G31G19G13G21G23
 108094156.82546  20569630.836    84229214.20646  20569628.0914         40.8004
        40.9004
 119704534.98044  22779008.309    93276274.77644  22779008.6064         28.0004
        28.0004
 114304085.73146  21751348.352    89068113.63646  21751344.8554         36.0004
        36.2004
 104431913.30947  19872730.182    81375522.17247  19872727.4284         42.8004
        43.0004
 124910042.34844  23769602.964    97332484.51944  23769602.1674         25.7004
        25.1004
 110246163.92846  20979142.072    85906102.26546  20979137.3464         40.8004
        41.2004
 119092980.52944  22662641.553    92799722.10744  22662638.9404         28.5004
        28.4004
 131015718.33742  24931463.055   102090167.22242  24931459.8934         14.2004
        14.2004
 117905597.22745  22436692.489    91874485.74845  22436688.2624         31.1004
        31.2004
 10 10 11  1 50  0.0000000  0  9G 6G24G16G 3G31G19G13G21G23
 108106335.59146  20571948.296    84238704.12746  20571945.5734         40.9004
        40.9004
 119577977.05144  22754924.943    93177658.25644  22754925.1294         28.4004
        28.3004
 114306843.73845  21751873.350    89070262.69946  21751869.8424         35.8004
        36.0004
 104410745.69647  19868701.740    81359027.91847  19868699.3024         42.7004
        43.0004
 124976012.99544  23782156.429    97383889.89244  23782157.1824         25.7004
        25.6004
 110168028.95546  20964273.385    85845217.86946  20964268.9244         41.1004
        41.2004
 119070877.81244  22658435.799    92782499.17744  22658432.7834         28.4004
        28.4004
 131046342.08342  24937290.770   102114029.80942  24937288.3024         14.4004
        14.0004
 117930536.38945  22441438.642    91893918.79545  22441435.0004         30.8004
        30.9004
 10 10 11  1 50 30.0000000  0  9G 6G24G16G 3G31G19G13G21G23
 108118822.14446  20574324.717    84248433.87646  20574321.8734         40.8004
        41.1004
 119451573.40144  22730870.904    93079161.93044  22730870.6904         28.0004
        28.1004
 114309709.27246  21752418.377    89072495.54046  21752414.7374         36.2004
        36.2004
 104390002.71347  19864754.506    81342864.54647  19864751.8204         42.6004
        42.5004
 125042196.46344  23794751.598    97435461.10544  23794751.2344         25.1004
        25.2004
 110090337.87346  20949489.350    85784679.36346  20949484.8204         41.3004
        41.3004
 119049336.36244  22654336.233    92765713.59044  22654334.3034         28.4004
        28.4004
 131077308.13842  24943182.571   102138159.13542  24943180.8374         14.4004
        14.0004
 117955867.25645  22446259.178    91913657.05845  22446255.1654         31.2004
        31.3004
 10 10 11  1 51  0.0000000  0  9G 6G24G16G 3G31G19G13G21G23
 108131612.58546  20576758.607    84258400.42546  20576755.9984         40.8004
        41.0004
 119325325.10044  22706846.295    92980786.66544  22706846.3564         28.3004
        28.0004
 114312680.48545  21752983.944    89074810.72345  21752980.2574         35.9004
        35.9004
 104369680.95247  19860887.529    81327029.39547  19860884.9424         42.4004
        42.6004
 125108589.53944  23807385.629    97487195.63444  23807385.6764         25.5004
        25.4004
 110013089.10646  20934789.621    85724485.51746  20934784.6884         41.0004
        41.3004
 119028353.01244  22650343.677    92749362.89844  22650340.6914         28.4004
        28.3004
 131108612.28942  24949139.619   102162551.90342  24949137.2734         15.4004
        15.1004
 117981584.93945  22451153.256    91933696.73445  22451149.7764         31.5004
        31.5004
 10 10 11  1 51 30.0000000  0  9G 6G24G16G 3G31G19G13G21G23
 108144702.92346  20579249.667    84268600.66346  20579247.1374         40.6004
        41.0004
 119199233.49544  22682852.087    92882533.50544  22682851.7814         28.0004
        27.9004
 114315755.75545  21753569.308    89077206.99045  21753565.5894         35.7004
        35.7004
 104349777.13247  19857100.274    81311519.90747  19857097.4574         42.5004
        42.8004
 125175188.52944  23820059.502    97539090.61344  23820059.5344         25.3004
        25.4004
 109936281.02646  20920173.452    85664635.06446  20920168.6624         41.2004
        41.4004
 119007925.05344  22646456.446    92733444.97244  22646453.9194         28.3004
        28.2004
 131140251.70542  24955160.970   102187205.94142  24955158.0694         15.4004
        15.1004
 118007685.32445  22456120.356    91954034.62445  22456116.1474         31.0004
        31.2004
 10 10 11  1 52  0.0000000  0  9G 6G24G16G 3G31G19G13G21G23
 108158092.28646  20581797.466    84279033.90846  20581794.9764         40.8004
        40.7004
 119073302.64344  22658887.952    92784405.61444  22658888.8624         27.8004
        28.0004
 114318936.58445  21754174.844    89079685.51345  21754170.8204         35.5004
        35.5004
 104330290.68947  19853392.012    81296335.65347  19853389.1994         42.7004
        42.4004
 125241992.77944  23832772.326    97591145.52444  23832772.3484         25.5004
        25.4004
 109859914.78146  20905641.428    85605128.89946  20905636.8374         41.3004
        41.5004
 118988052.15344  22642674.577    92717959.57244  22642673.3554         28.4004
        28.5004
 131172225.78842  24961245.527   102212120.75742  24961243.3864         14.7004
        14.7004
 118034166.16245  22461159.266    91974668.99545  22461154.8094         31.1004
        31.3004
 10 10 11  1 52 30.0000000  0 10G 6G24G16G 7G 3G31G19G13G21G23
 108171779.34746  20584401.952    84289699.11846  20584399.2914         40.5004
        41.0004
 118947536.14244  22634955.222    92686405.76644  22634955.3544         28.4004
        28.6004
 114322224.04845  21754800.312    89082247.12445  21754796.4034         35.6004
        35.7004
 127757987.25543  24311535.302    99551674.03742  24311533.4394         18.4004
        14.0004
 104311221.10747  19849763.127    81281476.23247  19849760.4944         42.3004
        42.7004
 125309001.08844  23845523.057    97643359.42944  23845524.6794         25.2004
        25.3004
 109783991.25846  20891193.623    85545967.71246  20891189.0024         41.2004
        41.6004
 118968733.76044  22638998.170    92702906.23244  22638996.2814         28.3004
        28.3004
 131204533.33042  24967392.984   102237295.41042  24967390.6854         14.7004
        14.7004
 118061025.14545  22466270.246    91995597.99945  22466266.1304         31.1004
        31.1004
 10 10 11  1 53  0.0000000  0 10G 6G24G16G 7G 3G31G19G13G21G23
 108185761.68346  20587063.119    84300594.42546  20587060.2024         40.6004
        40.9004
 118821936.95544  22611054.695    92588536.29744  22611055.5104         28.6004
        28.7004
 114325617.88545  21755446.198    89084891.63345  21755442.5054         35.6004
        35.7004
 127623918.25343  24286023.552    99447204.71242  24286021.2854         18.2004
        15.7004
 104292566.40447  19846213.498    81266940.08547  19846210.3654         42.4004
        42.4004
 125376211.35644  23858313.172    97695730.71844  23858313.4534         24.6004
        24.8004
 109708510.27046  20876830.328    85487151.35946  20876825.4714         41.4004
        41.5004
 118949968.37344  22635427.305    92688283.85244  22635425.1274         28.5004
        28.4004
 131237172.67542  24973604.146   102262728.62242  24973602.2074         14.3004
        14.4004
 118088259.24045  22471452.712    92016819.29345  22471448.6584         31.1004
        31.1004
 10 10 11  1 53 30.0000000  0 10G 6G24G16G 7G 3G31G19G13G21G23
 108200038.65646  20589779.850    84311719.31146  20589776.8374         40.6004
        40.7004
 118696509.54744  22587186.841    92490800.68444  22587187.0404         28.6004
        28.7004
 114329119.88245  21756112.182    89087620.41245  21756109.0074         35.5004
        35.4004
 127489924.13543  24260524.859    99342793.73742  24260523.5694         18.3004
        16.5004
 104274326.93747  19842742.275    81252727.50147  19842739.6564         42.4004
        42.6004
 125443622.78144  23871142.566    97748258.74044  23871142.2944         24.6004
        24.8004
 109633473.38746  20862550.939    85428681.06046  20862546.2034         41.1004
        41.6004
 118931756.17444  22631961.845    92674092.47244  22631959.2624         28.8004
        28.8004
 131270143.53842  24979877.679   102288420.14442  24979877.0164         14.3004
        14.4004
 118115866.44645  22476706.356    92038331.32445  22476701.7104         30.5004
        30.9004
 10 10 11  1 54  0.0000000  0 10G 6G24G16G 7G 3G31G19G13G21G23
 108214609.74546  20592552.497    84323073.37946  20592549.6174         40.6004
        40.6004
 118571258.67244  22563351.906    92393202.64044  22563352.3554         28.6004
        28.5004
 114332732.18445  21756800.173    89090435.14945  21756796.1784         35.6004
        35.6004
 127356009.17943  24235042.259    99238444.42142  24235039.1064         20.8004
        16.5004
 104256502.71447  19839350.537    81238838.48047  19839347.8314         42.8004
        42.8004
 125511235.74344  23884008.143    97800943.77844  23884009.1204         24.0004
        24.0004
 109558882.59646  20848356.733    85370558.36246  20848352.1784         41.6004
        41.5004
 118914097.44044  22628601.363    92660332.37544  22628599.4864         28.3004
        28.3004
 131303445.93142  24986216.000   102314370.01242  24986214.1704         14.5004
        14.4004
 118143845.57345  22482031.153    92060133.17445  22482026.8934         30.5004
        30.6004
 10 10 11  1 54 30.0000000  0 10G 6G24G16G 7G 3G31G19G13G21G23
 108229468.86446  20595379.851    84334651.88446  20595376.9984         40.3004
        40.8004
 118446182.84744  22539550.551    92295740.97744  22539551.4834         28.9004
        28.7004
 114336450.64745  21757507.658    89093332.61045  21757504.2754         35.7004
        35.7004
 127222171.35843  24209573.228    99134155.23443  24209571.5544         20.8004
        20.7004
 104239087.68447  19836036.525    81225268.31347  19836033.8674         42.8004
        42.9004
 125579043.73344  23896911.969    97853780.79144  23896912.1824         24.3004
        24.2004
 109484733.52846  20834246.788    85312779.86846  20834241.8314         41.4004
        41.5004
 118896986.80344  22625345.314    92646999.36644  22625342.5834         28.4004
        28.5004
 131337073.41542  24992615.379   102340573.16142  24992613.7584         14.5004
        14.4004
 118172189.64545  22487424.426    92082219.38545  22487420.0764         30.5004
        30.7004
 10 10 11  1 55  0.0000000  0 10G 6G24G16G 7G 3G31G19G13G21G23
 108244616.18046  20598262.546    84346454.95446  20598259.9784         40.6004
        40.6004
 118321287.90344  22515784.369    92198420.27544  22515784.5644         29.3004
        29.4004
 114340278.13045  21758236.172    89096315.02145  21758232.7324         35.8004
        35.8004
 127088415.59543  24184120.242    99029929.97443  24184118.4024         20.2004
        20.7004
 104222083.21247  19832800.822    81212018.05647  19832798.0774         42.1004
        42.3004
 125647047.36744  23909853.433    97906770.26344  23909853.0464         24.2004
        24.2004
 109411028.61446  20820221.529    85255347.46546  20820216.3434         41.5004
        41.6004
 118880425.09944  22622194.239    92634094.10444  22622191.2224         28.2004
        28.3004
 131371027.20942  24999076.352   102367030.59142  24999073.3374         14.1004
        13.4004
 118200897.95445  22492887.253    92104589.42445  22492883.5794         30.3004
        30.5004
 10 10 11  1 55 30.0000000  0 10G 6G24G16G 7G 3G31G19G13G21G23
 108260049.19446  20601199.378    84358480.65646  20601196.6104         40.4004
        40.5004
 118196576.44144  22492052.712    92101242.54244  22492052.1274         29.8004
        29.9004
 114344214.38745  21758984.986    89099382.18645  21758981.5664         35.5004
        35.7004
 126954743.85943  24158682.672    98925770.19343  24158680.2834         20.2004
        20.0004
 104205487.08447  19829642.695    81199085.99147  19829639.9384         42.6004
        42.5004
 125715244.46944  23922831.292    97959910.48644  23922831.2834         24.2004
        24.1004
 109337767.47246  20806280.501    85198260.86846  20806275.3374         41.5004
        41.8004
 118864410.72944  22619146.055    92621615.31944  22619144.2574         28.3004
        28.4004
 131405305.05442  25005599.326   102393740.54042  25005597.8314         14.1004
        13.4004
 118229967.17045  22498419.491    92127240.67845  22498414.9424         30.4004
        30.3004
 10 10 11  1 56  0.0000000  0 10G 6G24G16G 7G 3G31G19G13G21G23
 108275767.60346  20604190.590    84370728.73846  20604187.7584         40.5004
        40.5004
 118072052.91144  22468355.983    92004211.25344  22468355.9764         29.6004
        29.7004
 114348261.61745  21759755.258    89102535.82245  21759751.4864         35.0004
        35.2004
 126821159.70943  24133262.411    98821678.65443  24133260.8054         20.1004
        19.9004
 104189299.33047  19826562.266    81186472.14147  19826559.6294         42.5004
        42.6004
 125783634.78043  23935845.897    98013201.24144  23935845.8904         23.8004
        24.0004
 109264952.36946  20792423.912    85141521.82646  20792419.1084         41.7004
        41.7004
 118848943.89544  22616203.244    92609563.20044  22616201.7934         28.3004
        28.3004
 131439906.55441  25012184.080   102420702.71242  25012180.5314         11.3004
        13.4004
 118259395.75445  22504019.048    92150171.97445  22504015.2714         30.4004
        30.3004
 10 10 11  1 56 30.0000000  0 10G 6G24G16G 7G 3G31G19G13G21G23
 108291769.00146  20607235.598    84383197.33346  20607232.6924         40.4004
        40.7004
 117947720.48844  22444696.665    91907328.88044  22444696.6074         29.2004
        29.2004
 114352419.75145  21760546.748    89105775.88645  21760543.0324         35.4004
        35.5004
 126687665.81443  24107859.898    98717657.45243  24107856.8494         20.2004
        19.9004
 104173518.14447  19823559.357    81174175.09547  19823556.3424         42.7004
        42.7004
 125852215.81144  23948896.260    98066640.60244  23948896.9004         24.4004
        24.0004
 109192582.28646  20778652.373    85085129.55847  20778647.9004         41.5004
        42.0004
 118834022.92444  22613363.984    92597936.41744  22613361.6964         28.4004
        28.3004
 131474830.10641  25018828.636   102447915.81941  25018827.2474         11.3004
        10.4004
 118289180.75745  22509687.143    92173380.99545  22509683.3994         30.3004
        30.5004
 10 10 11  1 57  0.0000000  0 10G 6G24G16G 7G 3G31G19G13G21G23
 108308050.22046  20610333.682    84395883.97446  20610330.9364         40.3004
        40.5004
 117823580.74344  22421073.834    91810596.63444  22421073.3194         29.4004
        29.4004
 114356687.67145  21761358.407    89109101.49645  21761355.0324         35.3004
        35.3004
 126554263.42143  24082474.821    98613707.58843  24082472.1454         20.2004
        20.7004
 104158140.82747  19820632.967    81162192.75647  19820630.4264         42.6004
        42.6004
 125920984.97043  23961982.764    98120226.56044  23961983.4184         23.8004
        24.0004
 109120656.21946  20764965.098    85029083.27246  20764960.4984         41.5004
        41.5004
 118819645.17144  22610628.320    92586732.94044  22610626.1104         28.5004
        28.6004
 131510072.43941  25025535.753   102475377.31441  25025533.7694          9.2004
        10.4004
 118319317.31645  22515422.136    92196863.96145  22515418.0624         30.3004
        30.3004
 10 10 11  1 57 30.0000000  0 10G 6G24G16G 7G 3G31G19G13G21G23
 108324609.54346  20613484.913    84408787.32246  20613482.2504         40.3004
        40.6004
 117699637.21445  22397487.999    91714017.29144  22397488.4404         30.0004
        29.6004
 114361066.33845  21762191.987    89112513.39545  21762188.3204         35.6004
        35.6004
 126420955.29843  24057106.962    98509831.18243  24057104.6304         20.8004
        20.7004
 104143166.48047  19817783.263    81150524.42047  19817780.8394         42.4004
        42.5004
 125989940.29443  23975104.308    98173957.58843  23975105.9544         23.8004
        23.8004
 109049174.62846  20751362.891    84973383.33846  20751358.0584         41.5004
        41.5004
 118805809.73344  22607995.180    92575952.03244  22607992.2854         28.6004
        28.9004
 131545632.19141  25032302.602   102503086.14541  25032300.3524          9.2004
         9.3004
 118349802.92944  22521223.680    92220618.90845  22521219.9284         29.9004
        30.2004
 10 10 11  1 58  0.0000000  0 10G 6G24G16G 7G 3G31G19G13G21G23
 108341442.89146  20616688.209    84421904.19746  20616685.4344         40.2004
        40.2004
 117575891.10345  22373939.709    91617591.78345  22373940.1334         30.3004
        30.4004
 114365554.15645  21763046.211    89116010.34545  21763042.4974         35.4004
        35.5004
 126287741.78543  24031757.084    98406028.47443  24031755.0724         20.9004
        21.0004
 104128591.54147  19815009.991    81139167.31047  19815007.4224         42.3004
        42.5004
 126059078.24343  23988261.355    98227830.87643  23988262.1294         23.8004
        23.4004
 108978135.58546  20737844.715    84918028.23446  20737839.6504         41.7004
        41.8004
 118792513.08444  22605464.666    92565590.95644  22605463.1604         28.3004
        28.5004
 131581506.16541  25039128.934   102531039.83741  25039126.9894         10.1004
         9.3004
 118380632.91245  22527089.835    92244642.20045  22527086.9544         30.1004
        30.1004
 10 10 11  1 58 30.0000000  0 10G 6G24G16G 7G 3G31G19G13G21G23
 108358549.45246  20619943.446    84435233.95646  20619940.9714         40.3004
        40.3004
 117452346.85445  22350430.277    91521323.56445  22350430.3614         30.6004
        30.7004
 114370153.12545  21763921.178    89119593.91445  21763917.7674         35.1004
        35.1004
 126154626.71643  24006425.830    98302302.47843  24006423.9954         20.9004
        21.0004
 104114415.63047  19812312.324    81128121.12547  19812309.6974         42.3004
        42.3004
 126128398.11843  24001453.616    98281845.94643  24001454.5694         23.1004
        23.4004
 108907540.42846  20724410.778    84863019.02647  20724405.7804         41.8004
        42.0004
 118779755.02944  22603037.319    92555649.57844  22603035.1294         28.4004
        28.4004
 131617693.58941  25046016.261   102559237.75341  25046013.9824         10.1004
        10.3004
 118411805.68444  22533022.430    92268932.59345  22533018.7764         29.9004
        30.0004
 10 10 11  1 59  0.0000000  0 10G 6G24G16G 7G 3G31G19G13G21G23
 108375929.05946  20623250.740    84448776.48046  20623248.1294         40.2004
        40.4004
 117329008.75945  22326959.615    91425216.00245  22326959.5084         30.4004
        30.5004
 114374864.57645  21764818.260    89123265.13745  21764814.1004         35.0004
        35.2004
 126021613.78443  23981114.800    98198656.05643  23981111.5794         21.6004
        21.4004
 104100638.59747  19809690.735    81117385.75347  19809688.1384         42.0004
        42.2004
 126197899.33143  24014679.014    98336002.31643  24014680.1904         22.1004
        22.2004
 108837390.32746  20711061.718    84808356.61646  20711056.5694         41.7004
        41.8004
 118767535.33444  22600712.098    92546127.69344  22600709.6034         28.3004
        28.4004
 131654193.85741  25052962.509   102587679.42941  25052959.3834         11.4004
        10.3004
 118443319.36044  22539018.768    92293488.61744  22539015.1194         29.6004
        29.7004
 10 10 11  1 59 30.0000000  0 10G 6G24G16G 7G 3G31G19G13G21G23
 108393579.12846  20626609.501    84462529.75146  20626607.0234         40.5004
        40.4004
 117205879.91545  22303528.915    91329271.47645  22303528.2134         30.3004
        30.2004
 114379688.96145  21765735.808    89127024.34745  21765732.0884         35.4004
        35.4004
 125888705.56543  23955822.442    98095091.21943  23955820.0874         21.6004
        21.6004
 104087258.94847  19807144.726    81106960.02647  19807141.7644         42.3004
        42.3004
 126267580.07443  24027939.503    98390298.55643  24027940.0804         22.1004
        22.2004
 108767685.41546  20697797.079    84754041.09947  20697792.1814         41.7004
        42.0004
 118755852.65144  22598488.693    92537024.26044  22598486.1454         27.8004
        27.6004
 131691005.37642  25059967.554   102616363.66642  25059965.4444         15.2004
        14.6004
 118475170.66844  22545080.292    92318307.74144  22545076.8654         29.4004
        29.5004
                            4  1
RINEX FILE SPLICE; other post-header comments skipped       COMMENT
 10 10 11  2  0  0.0000000  0 10G 6G24G16G 7G 3G31G19G13G21G23
 108411497.30346  20630019.148    84476491.94746  20630016.5194         40.1004
        40.2004
 117082962.77045  22280138.931    91233491.92245  22280138.5194         30.3004
        30.4004
 114384626.19345  21766675.465    89130871.48945  21766672.6404         35.2004
        35.4004
 125755904.05143  23930551.316    97991609.55443  23930548.9764         21.6004
        21.6004
 104074274.36047  19804673.800    81096842.13947  19804671.0454         42.1004
        42.1004
 126337437.77043  24041233.172    98444732.65743  24041233.4884         22.6004
        22.5004
 108698424.91346  20684616.970    84700071.87546  20684612.5194         41.6004
        41.8004
 118744704.56744  22596367.859    92528337.39544  22596364.8564         27.5004
        27.4004
 131728126.11342  25067031.562   102645288.85142  25067029.6804         15.2004
        14.6004
 118507356.11944  22551205.018    92343387.23544  22551200.9594         29.6004
        29.7004
 10 10 11  2  0 30.0000000  0 10G 6G24G16G 7G 3G31G19G13G21G23
 108429679.55146  20633479.298    84490659.90046  20633476.5954         40.1004
        40.3004
 116960258.76745  22256788.995    91137878.43945  22256788.2354         30.6004
        30.4004
 114389674.71745  21767636.372    89134805.34945  21767633.0824         35.1004
        35.2004
 125623209.57543  23905300.102    97888211.29243  23905298.4714         21.4004
        21.2004
 104061681.86647  19802277.578    81087029.78747  19802274.7014         42.1004
        42.2004
 126407468.72343  24054560.217    98499301.79343  24054560.4864         21.3004
        22.5004
 108629607.00246  20671521.747    84646447.53546  20671516.9024         41.8004
        41.8004
 118734087.71144  22594347.226    92520064.47644  22594344.1644         27.6004
        27.6004
 131765551.86142  25074152.735   102674451.69942  25074151.3874         15.7004
        15.9004
 118539870.65244  22557392.472    92368723.14644  22557389.2574         29.5004
        29.5004
 10 10 11  2  1  0.0000000  0 10G 6G24G16G 7G 3G31G19G13G21G23
 108448127.88146  20636989.678    84505035.19946  20636986.8244         40.0004
        40.1004
 116837775.09945  22233480.781    91042436.65245  22233480.7134         30.8004
        30.7004
 114394839.04945  21768619.054    89138829.45545  21768615.7424         35.0004
        35.2004
 125490629.25843  23880071.505    97784902.00343  23880069.8274         22.6004
        21.2004
 104049483.50847  19799956.272    81077524.55347  19799953.3244         42.0004
        42.5004
 126477674.73643  24067919.754    98554007.32043  24067920.2844         21.3004
        21.3004
 108561235.47746  20658510.913    84593171.01347  20658506.2824         41.6004
        42.0004
 118724004.72244  22592428.403    92512207.54844  22592426.9734         27.5004
        27.7004
 131803284.81842  25081332.987   102703853.95242  25081331.2804         15.7004
        15.9004
 118572715.36044  22563642.383    92394316.33544  22563638.7184         29.4004
        29.7004
 10 10 11  2  1 30.0000000  0 10G 6G24G16G 7G 3G31G19G13G21G23
 108466837.02246  20640550.082    84519613.72046  20640547.3614         39.8004
        40.0004
 116715511.43545  22210215.366    90947166.29745  22210214.4814         31.1004
        31.2004
 114400116.13045  21769623.299    89142941.42745  21769619.4854         35.0004
        35.0004
 125358161.88143  23854864.028    97681680.68643  23854860.9574         22.6004
        23.4004
 104037674.28147  19797709.273    81068322.53847  19797706.3734         42.0004
        42.6004
 126548050.87443  24081311.832    98608845.38243  24081314.3384         20.8004
        21.1004
 108493306.96547  20645584.551    84540239.70647  20645579.9394         42.0004
        42.0004
 118714450.61644  22590610.300    92504762.73944  22590607.7264         27.6004
        27.6004
 131841320.06242  25088570.938   102733491.73142  25088569.4164         13.7004
        13.5004
 118605883.75644  22569954.502    92420161.76144  22569950.9184         29.4004
        29.5004
 10 10 11  2  2  0.0000000  0 10G 6G24G16G 7G 3G31G19G13G21G23
 108485804.89046  20644159.512    84534393.85046  20644156.7954         39.9004
        40.0004
 116593470.68845  22186991.751    90852069.63445  22186991.1134         31.2004
        31.1004
 114405506.06845  21770648.737    89147141.33145  21770645.3034         34.9004
        35.2004
 125225809.73944  23829677.971    97578549.14543  23829674.6714         24.2004
        23.6004
 104026252.48647  19795535.629    81059422.42047  19795532.8634         42.0004
        42.0004
 126618594.95543  24094736.628    98663814.27543  24094739.6644         22.3004
        21.1004
 108425821.38446  20632742.651    84487653.53247  20632737.9124         41.7004
        42.2004
 118705423.50144  22588891.980    92497728.58644  22588890.3644         27.6004
        27.6004
 131879655.82642  25095865.998   102763363.69342  25095864.2494         13.7004
        13.5004
 118639372.78444  22576327.787    92446257.02244  22576324.5624         29.6004
        29.8004
 10 10 11  2  2 30.0000000  0 10G 6G24G16G 7G 3G31G19G13G21G23
 108505031.88146  20647818.359    84549375.89746  20647815.4294         39.9004
        40.1004
 116471658.21245  22163810.961    90757150.86545  22163810.7444         31.0004
        30.9004
 114411011.81045  21771696.481    89151431.47945  21771693.2954         34.9004
        35.0004
 125093577.64743  23804514.554    97475511.18143  23804512.6984         22.4004
        23.6004
 104015218.97047  19793435.982    81050824.85447  19793433.3174         42.1004
        42.4004
 126689307.61343  24108194.689    98718914.53943  24108196.2784         22.3004
        22.4004
 108358780.58246  20619985.020    84435413.94646  20619980.4654         41.6004
        41.9004
 118696924.04944  22587275.121    92491105.59644  22587273.3524         27.6004
        27.6004
 131918292.82342  25103218.509   102793470.39942  25103216.6464         12.2004
        13.5004
 118673181.65644  22582760.815    92472601.51244  22582757.7284         29.5004
        29.6004
 10 10 11  2  3  0.0000000  0 10G 6G24G16G 7G 3G31G19G13G21G23
 108524514.63946  20651525.610    84564557.23846  20651523.0814         39.6004
        39.9004
 116350076.38145  22140674.778    90662411.80245  22140674.9134         31.0004
        31.0004
 114416633.37345  21772766.279    89155811.87745  21772763.1884         35.2004
        35.3004
 124961467.77843  23779375.210    97372568.44443  23779372.5454         22.4004
        21.8004
 104004571.41147  19791410.192    81042528.03947  19791407.1144         42.1004
        42.3004
 126760185.80043  24121681.349    98774143.77943  24121683.6074         22.2004
        22.4004
 108292183.65947  20607312.315    84383520.23847  20607307.3934         42.1004
        42.2004
 118688949.94444  22585757.787    92484891.95344  22585755.7104         27.4004
        27.4004
 131957228.18842  25110626.987   102823809.60842  25110624.4554         12.2004
        12.2004
 118707306.06844  22589254.436    92499191.88544  22589251.0314         29.3004
        29.5004
 10 10 11  2  3 30.0000000  0 10G 6G24G16G 7G 3G31G19G13G21G23
 108544250.12346  20655281.129    84579935.50746  20655278.6284         39.7004
        39.8004
 116228726.91545  22117583.492    90567853.80645  22117582.5494         31.4004
        31.2004
 114422369.09645  21773857.991    89160281.23345  21773854.4714         35.1004
        35.3004
 124829480.95943  23754259.010    97269721.58843  23754257.1784         21.7004
        21.8004
 103994306.89747  19789456.784    81034529.69647  19789453.9024         42.1004
        42.0004
 126831226.31743  24135201.118    98829499.49143  24135202.7354         21.4004
        21.7004
 108226029.22846  20594723.440    84331971.32747  20594718.7094         41.9004
        42.3004
 118681497.91444  22584339.454    92479085.12244  22584336.9014         27.4004
        27.3004
 131996458.44642  25118092.489   102854378.56142  25118091.5184         12.7004
        12.2004
 118741741.74444  22595807.893    92526024.81044  22595804.6394         29.1004
        29.1004
 10 10 11  2  4  0.0000000  0 10G 6G24G16G 7G 3G31G19G13G21G23
 108564236.94146  20659084.488    84595509.61546  20659082.0814         39.6004
        39.8004
 116107613.44745  22094535.571    90473479.71245  22094535.2324         31.6004
        31.6004
 114428220.34945  21774971.237    89164840.60345  21774967.9494         34.8004
        34.9004
 124697620.51543  23729167.079    97166973.21143  23729164.7404         23.3004
        22.5004
 103984424.24346  19787576.352    81026828.92147  19787573.2054         41.7004
        42.0004
 126902427.71443  24148750.113    98884980.55243  24148751.9924         21.4004
        21.6004
 108160317.36346  20582218.856    84280767.27147  20582214.1894         41.9004
        42.1004
 118674566.78544  22583020.878    92473684.21544  22583019.1774         27.6004
        27.5004
 132035982.65242  25125614.205   102885176.59842  25125612.3184         12.7004
        13.7004
 118776486.65844  22602419.475    92553098.67244  22602415.4674         29.5004
        29.6004
 10 10 11  2  4 30.0000000  0 10G 6G24G16G 7G 3G31G19G13G21G23
 108584471.13846  20662935.039    84611276.49346  20662932.5284         39.7004
        39.6004
 115986737.42345  22071533.852    90379290.63945  22071533.3774         31.3004
        31.3004
 114434185.83245  21776106.634    89169488.99045  21776103.3594         34.7004
        34.7004
 124565887.00144  23704097.829    97064323.74244  23704095.7364         24.3004
        24.2004
 103974919.93647  19785767.536    81019422.94847  19785764.5014         42.0004
        42.2004
 126973786.52843  24162330.315    98940584.23643  24162332.5484         21.5004
        21.6004
 108095046.40046  20569798.067    84229906.78147  20569793.6694         41.9004
        42.1004
 118668153.14244  22581800.591    92468686.50744  22581798.7534         27.8004
        27.7004
 132075797.34742  25133190.790   102916200.99842  25133188.1774         15.4004
        13.7004
 118811535.44844  22609089.021    92580409.32444  22609085.6344         29.3004
        29.5004
 10 10 11  2  5  0.0000000  0 10G 6G24G16G 7G 3G31G19G13G21G23
 108604954.77646  20666833.128    84627237.74146  20666830.6514         39.6004
        39.7004
 115866105.57145  22048578.366    90285291.81345  22048577.8794         31.4004
        31.4004
 114440269.63745  21777264.369    89174229.58245  21777260.9934         34.9004
        35.0004
 124434287.23744  23679055.927    96961778.50444  23679053.4264         24.1004
        24.1004
 103965796.19046  19784031.426    81012313.52247  19784028.5464         41.9004
        42.1004
 127045304.27243  24175939.559    98996311.75643  24175941.0734         20.8004
        20.9004
 108030220.04847  20557461.910    84179392.72747  20557457.4514         42.1004
        42.3004
 118662259.11344  22580678.721    92464093.70044  22580676.4124         28.0004
        28.0004
 132115904.19042  25140823.576   102947453.04942  25140821.9314         15.4004
        12.7004
 118846888.33344  22615816.414    92607956.94744  22615812.6524         29.3004
        29.3004
 10 10 11  2  5 30.0000000  0 10G 6G24G16G 7G 3G31G19G13G21G23
 108625687.80446  20670778.149    84643393.31546  20670775.8304         39.5004
        39.6004
 115745722.74145  22025670.090    90191487.04445  22025669.8004         31.6004
        31.7004
 114446474.43545  21778444.945    89179064.44745  21778441.8624         34.7004
        34.6004
 124302825.45744  23654039.443    96859340.77744  23654037.7934         24.1004
        24.1004
 103957053.70247  19782367.603    81005501.17447  19782364.7824         42.1004
        42.1004
 127116981.19843  24189580.147    99052163.32543  24189582.4214         20.8004
        20.9004
 107965839.76146  20545210.674    84129226.26547  20545206.4014         41.9004
        42.1004
 118656884.50544  22579655.808    92459905.64544  22579653.5024         27.9004
        27.9004
 132156303.5614   25148510.855   102978933.06642  25148508.9654          4.2004
        12.7004
 118882544.73444  22622601.381    92635741.04644  22622598.5614         29.2004
        29.2004
 10 10 11  2  6  0.0000000  0  9G 6G24G16G 7G 3G31G19G13G23
 108646662.52446  20674769.867    84659737.22646  20674767.3764         39.7004
        39.7004
 115625586.90545  22002809.097    90097874.73345  22002808.9324         31.8004
        31.9004
 114452795.24445  21779648.077    89183989.71645  21779644.5834         34.6004
        34.6004
 124171498.63143  23629048.739    96757008.19643  23629045.7454         23.6004
        23.5004
 103948685.05847  19780775.304    80998980.13747  19780772.4284         42.2004
        42.2004
 127188809.69343  24203248.100    99108132.97343  24203252.0124         20.3004
        20.2004
 107901899.88646  20533043.693    84079402.98047  20533038.8374         41.9004
        42.5004
 118652022.07944  22578730.968    92456116.70544  22578729.0764         28.0004
        28.0004
 118918496.10144  22629443.416    92663755.00044  22629439.2424         29.1004
        29.0004
 10 10 11  2  6 30.0000000  0  9G 6G24G16G 7G 3G31G19G13G23
 108667880.17146  20678807.680    84676270.43146  20678804.9114         39.6004
        39.6004
 115505704.16545  21979996.305    90004459.64845  21979996.1784         32.4004
        32.4004
 114459234.97145  21780873.658    89189007.63945  21780870.1584         34.7004
        34.8004
 124040312.75243  23604085.514    96654785.45943  23604082.8374         23.3004
        23.5004
 103940692.07646  19779254.446    80992751.82047  19779251.5284         41.9004
        42.2004
 127260791.08843  24216947.129    99164221.72143  24216950.6674         20.3004
        20.2004
 107838403.14447  20520960.427    84029924.99747  20520955.7314         42.1004
        42.3004
 118647673.40344  22577903.373    92452728.06944  22577900.7644         27.8004
        28.1004
 118954742.27744  22636341.095    92691998.68144  22636337.4704         29.0004
        29.0004
 10 10 11  2  7  0.0000000  0  9G 6G24G16G 7G 3G31G19G13G23
 108689338.47246  20682890.987    84692991.15646  20682888.3334         39.6004
        39.8004
 115386077.41445  21957231.771    89911244.02745  21957231.2394         32.4004
        32.4004
 114465794.25545  21782121.425    89194118.74245  21782118.6644         34.6004
        34.4004
 123909269.99543  23579148.406    96552674.22343  23579145.2024         23.3004
        23.4004
 103933072.20046  19777804.166    80986814.23447  19777801.5114         41.7004
        42.0004
 127332922.89243  24230673.238    99220427.63943  24230676.8314         20.7004
        20.6004
 107775349.01447  20508961.825    83980791.90647  20508957.1404         42.0004
        42.2004
 118643836.32544  22577173.245    92449738.09044  22577170.5574         27.4004
        27.8004
 118991279.65644  22643294.348    92720469.27144  22643290.7404         29.4004
        29.5004
 10 10 11  2  7 30.0000000  0  9G 6G24G16G 7G 3G31G19G13G23
 108711033.73346  20687019.106    84709896.52646  20687016.7844         39.6004
        39.6004
 115266707.97745  21934516.956    89818228.91245  21934516.7334         32.5004
        32.4004
 114472471.98745  21783392.531    89199322.11745  21783389.2484         34.5004
        34.6004
 123778371.32543  23554239.839    96450675.26644  23554236.7664         23.8004
        24.2004
 103925822.52046  19776424.685    80981165.11846  19776421.9154         41.5004
        41.9004
 127405201.68543  24244427.642    99276748.11943  24244432.5204         20.0004
        20.6004
 107712735.46347  20497046.719    83932002.11647  20497042.0484         42.5004
        42.7004
 118640507.07744  22576539.737    92447143.81844  22576537.8064         27.4004
        27.4004
 119028103.61344  22650300.985    92749163.16344  22650298.4324         29.2004
        29.6004
 10 10 11  2  8  0.0000000  0  9G 6G24G16G 7G 3G31G19G13G23
 108732965.86546  20691193.113    84726986.46746  20691190.3834         39.5004
        39.6004
 115147600.67245  21911851.298    89725418.06045  21911851.3484         32.5004
        32.6004
 114479270.44745  21784686.562    89204619.56845  21784682.7174         34.7004
        34.9004
 123647621.32944  23529358.478    96348792.17744  23529356.0364         24.9004
        24.9004
 103918942.75246  19775115.608    80975804.25047  19775112.7334         41.8004
        42.2004
 127477627.36343  24258210.335    99333183.03143  24258214.6844         20.0004
        19.8004
 107650564.35447  20485216.217    83883557.09247  20485211.4214         42.4004
        42.6004
 118637685.77544  22576002.896    92444945.34544  22576000.0804         27.3004
        27.4004
 119065212.64244  22657362.702    92778079.18744  22657360.2524         28.8004
        28.8004
 10 10 11  2  8 30.0000000  0  9G 6G24G16G 7G 3G31G19G13G23
 108755134.85446  20695411.848    84744260.97246  20695408.9734         39.4004
        39.6004
 115028760.72045  21889236.866    89632815.53545  21889236.6474         32.7004
        32.8004
 114486192.03445  21786003.500    89210012.96345  21786000.0564         34.6004
        34.8004
 123517024.45744  23504506.356    96247028.39144  23504504.7824         24.4004
        24.9004
 103912434.11546  19773876.969    80970732.57247  19773873.9704         41.9004
        42.1004
 127550199.80443  24272021.054    99389732.29043  24272025.2164         19.7004
        19.8004
 107588837.26647  20473469.673    83835458.05447  20473464.9844         42.3004
        42.5004
 118635372.62344  22575562.430    92443142.83344  22575561.3174         27.2004
        27.4004
 119102605.79244  22664478.259    92807216.60044  22664475.0184         28.7004
        28.8004
 10 10 11  2  9  0.0000000  0  9G 6G24G16G 7G 3G31G19G13G23
 108777537.75546  20699674.863    84761717.74346  20699672.2734         39.3004
        39.2004
 114910189.94245  21866673.744    89540422.74745  21866673.5944         32.9004
        33.2004
 114493236.26745  21787344.035    89215501.91945  21787340.5094         34.3004
        34.4004
 123386582.42944  23479684.855    96145385.27544  23479682.3844         24.8004
        24.5004
 103906293.64346  19772708.355    80965947.77047  19772705.7024         41.8004
        42.0004
 127622915.95443  24285859.177    99446393.48643  24285864.0274         19.7004
        19.6004
 107527552.69347  20461807.666    83787703.83747  20461802.8904         42.4004
        42.5004
 118633564.47944  22575219.227    92441733.82744  22575217.2504         27.1004
        27.1004
 119140278.79944  22671647.371    92836572.09044  22671644.8104         28.7004
        28.8004
 10 10 11  2  9 30.0000000  0  9G 6G24G16G 7G 3G31G19G13G23
 110375591.37546  21003774.127    86006954.30046  21003771.5624         39.0004
        39.2004
 116367315.09245  22143955.392    90675844.96045  22143955.2704         33.1004
        33.1004
 116075822.63245  22088500.473    90448686.05545  22088497.0594         34.4004
        34.4004
 124831721.94644  23754686.013    97271468.02644  23754683.7334         25.0004
        24.9004
 105475939.20346  20071402.145    82189048.18746  20071399.1924         41.7004
        41.7004
 129271190.98543  24599515.788   100730762.87943  24599521.7844         19.2004
        19.6004
 109042131.51447  20750022.594    84967895.12147  20750017.6924         42.4004
        42.7004
 120207678.92844  22874762.935    93668316.46444  22874760.7334         26.9004
        26.9004
 120753646.68644  22978661.706    94093741.76244  22978659.4684         29.0004
        29.0004
 10 10 11  2 10  0.0000000  0  9G 6G24G16G 7G 3G31G19G13G23
 110398454.92846  21008125.159    86024770.01246  21008122.5884         39.4004
        39.5004
 116249291.06645  22121495.963    90583878.21645  22121496.1714         32.9004
        32.9004
 116083112.12845  22089887.249    90454366.15145  22089884.5464         34.5004
        34.6004
 124701596.52844  23729923.686    97170071.60644  23729921.3544         25.8004
        25.8004
 105470528.43046  20070372.707    82184831.96946  20070369.9034         41.8004
        41.8004
 129344187.57743  24613407.946   100787642.54443  24613412.5474         19.7004
        19.1004
 108981729.66847  20738528.377    84920828.74547  20738523.7834         42.3004
        42.5004
 120206873.47344  22874609.826    93667688.76544  22874607.2344         27.1004
        26.9004
 120791868.77044  22985934.980    94123525.09444  22985932.1344         29.2004
        29.3004
 10 10 11  2 10 30.0000000  0  9G 6G24G16G 7G 3G31G19G13G23
 110421543.09146  21012518.570    86042760.75646  21012516.2814         39.3004
        39.1004
 116131542.14945  22099089.301    90492125.84745  22099088.7794         33.1004
        33.3004
 116090522.23845  22091297.595    90460140.23145  22091294.6164         34.5004
        34.6004
 124571630.51044  23705191.735    97068799.38244  23705189.4534         25.8004
        25.8004
 105465477.16046  20069411.363    82180895.90347  20069408.4304         41.8004
        42.2004
 129417318.72143  24627324.556   100844627.05443  24627330.2754         19.7004
        19.5004
 108921765.79247  20727117.704    84874103.64747  20727113.0484         42.7004
        42.8004
 120206563.59144  22874551.173    93667447.25044  22874548.8544         27.1004
        27.1004
 120830357.42844  22993259.072    94153516.14844  22993255.8424         28.8004
        28.9004
 10 10 11  2 11  0.0000000  0  9G 6G24G16G 7G 3G31G19G13G23
 110444855.53946  21016955.162    86060926.26146  21016952.3304         39.1004
        39.0004
 116014073.15645  22076735.256    90400591.58745  22076735.0504         33.3004
        33.4004
 116098055.18745  22092731.083    90466010.02645  22092727.5754         34.3004
        34.4004
 124441828.11344  23680491.103    96967654.68444  23680488.7044         24.7004
        24.8004
 105460785.76746  20068518.680    82177240.25846  20068515.8624         41.6004
        41.7004
 129490583.89443  24641267.285   100901716.00143  24641272.4714         19.2004
        19.5004
 108862241.22547  20715790.614    84827720.86347  20715786.0184         42.5004
        42.9004
 120206748.94344  22874586.462    93667591.60844  22874584.5454         27.3004
        27.2004
 120869111.63544  23000633.876    94183714.11944  23000630.2664         28.9004
        29.0004
 10 10 11  2 11 30.0000000  0 10G 6G11G24G16G 7G 3G31G19G13G23
 110468389.69446  21021433.380    86079264.53446  21021430.7894         39.3004
        39.2004
 133356350.143 6  25376871.176                                          36.400

 115896886.40345  22054435.268    90309277.26545  22054434.9564         33.3004
        33.4004
 116105710.87345  22094187.600    90471975.45645  22094185.1604         34.2004
        34.3004
 124312191.56444  23655821.445    96866639.21744  23655820.0614         24.5004
        24.7004
 105456451.62546  20067693.752    82173862.98846  20067691.0534         41.6004
        41.6004
 129563980.40643  24655234.538   100958907.26042  24655240.0534         19.2004
        17.9004
 108803154.84947  20704546.965    84781679.52647  20704542.1544         42.7004
        42.9004
 120207426.97544  22874715.694    93668119.87444  22874713.0184         27.4004
        27.6004
 120908127.66044  23008058.765    94214116.08944  23008055.1044         28.6004
        28.7004
 10 10 11  2 12  0.0000000  0 10G 6G11G24G16G 7G 3G31G19G13G23
 110492143.13946  21025953.683    86097773.67646  21025951.1264         39.1004
        39.3004
 133212828.217 5  25349561.194                                          34.300

 115779984.72845  22032189.726    90218185.07545  22032189.1724         33.6004
        33.4004
 116113489.44445  22095668.051    90478036.64045  22095664.9534         34.4004
        34.3004
 124182723.19544  23631184.629    96765754.82744  23631183.5264         25.5004
        25.8004
 105452472.56846  20066936.901    82170762.39446  20066934.0334         41.4004
        41.7004
 129637506.16342  24669226.673   101016199.21942  24669233.4594         17.0004
        17.9004
 108744505.97147  20693386.364    84735979.09947  20693381.5344         42.6004
        42.8004
 120208595.29544  22874938.303    93669030.19344  22874936.4164         27.3004
        27.3004
 120947401.58644  23015532.186    94244719.04944  23015528.5294         28.5004
        28.6004
 10 10 11  2 12 30.0000000  0 10G 6G11G24G16G 7G 3G31G19G13G23
 110516117.70846  21030515.889    86116455.11946  21030513.3144         38.9004
        39.0004
 133069257.3084   25322239.501   103690335.8384   25322239.8724          2.7004
         2.9004
 115663374.88645  22009999.402    90127320.28745  22009999.5944         33.7004
        33.8004
 116121394.68145  22097172.558    90484196.52345  22097169.3694         34.4004
        34.6004
 124053429.14144  23606581.282    96665006.24644  23606579.0904         26.1004
        25.8004
 105448850.68846  20066247.636    82167940.13246  20066244.6264         41.2004
        41.6004
 129711162.47542  24683243.604   101073592.87942  24683250.2544         17.0004
        17.9004
 108686297.58847  20682309.689    84690621.91547  20682304.7734         42.4004
        42.4004
 120210255.43144  22875253.554    93670323.74044  22875252.0134         27.5004
        27.4004
 120986933.98044  23023054.973    94275523.40944  23023052.2754         28.2004
        28.3004
 10 10 11  2 13  0.0000000  0 10G 6G11G24G16G 7G 3G31G19G13G23
 110540310.07746  21035119.227    86135306.27546  21035116.9784         38.8004
        38.9004
 132925637.3004   25294910.034   103578424.1414   25294911.1964          4.9004
         4.8004
 115547058.44845  21987865.326    90036684.13245  21987865.5584         33.8004
        33.9004
 116129426.44645  22098701.304    90490454.99345  22098697.6474         34.2004
        34.2004
 123924310.99444  23582010.329    96564394.72044  23582008.4984         26.3004
        26.4004
 105445583.17946  20065625.663    82165394.00647  20065622.9984         41.7004
        42.1004
 129784946.12842  24697285.857   101131085.71742  24697291.4314         15.7004
        15.5004
 108628528.14847  20671316.676    84645606.76247  20671311.4404         42.4004
        42.5004
 120212403.91944  22875662.176    93671997.82444  22875660.8794         27.5004
        27.5004
 121026720.26844  23030625.689    94306525.59644  23030623.2894         27.9004
        28.0004
 10 10 11  2 13 30.0000000  0 10G 6G11G24G16G 7G 3G31G19G13G23
 110564717.95646  21039764.050    86154325.36446  21039761.9684         39.2004
        39.1004
 132781971.1534   25267572.044   103466476.5574   25267572.6534          5.0004
         5.0004
 115431038.00245  21965787.927    89946278.61445  21965787.5324         34.1004
        34.2004
 116137584.24745  22100253.644    90496811.68345  22100250.0434         34.4004
        34.5004
 123795370.95244  23557473.941    96463921.99444  23557471.1174         25.4004
        25.6004
 105442667.67146  20065070.920    82163122.15746  20065068.1664         41.5004
        41.7004
 129858854.94942  24711349.875   101188676.08242  24711357.5964         15.7004
        15.5004
 108571196.81147  20660406.568    84600932.99647  20660401.8234         42.8004
        42.8004
 120215038.35144  22876164.074    93674050.56544  22876161.6094         27.4004
        27.5004
 121066757.06844  23038244.919    94337722.98844  23038241.3174         27.7004
        27.7004
 10 10 11  2 14  0.0000000  0 10G 6G11G24G16G 7G 3G31G19G13G23
 110589339.79146  21044449.597    86173511.16346  21044447.3454         38.8004
        38.9004
 132638261.1624   25240224.465   103354494.8064   25240227.5074          5.0004
         5.0004
 115315317.04245  21943766.061    89856106.45645  21943766.3804         34.0004
        34.0004
 116145869.12845  22101829.821    90503267.39145  22101826.4974         34.2004
        34.4004
 123666612.01644  23532972.381    96363590.37144  23532969.9924         24.9004
        25.0004
 105440102.81046  20064582.789    82161123.53446  20064579.9224         41.3004
        41.7004
 129932887.02042  24725438.781   101246362.48542  24725447.5414         16.1004
        15.9004
 108514303.15947  20649580.356    84556600.27847  20649575.2944         42.5004
        42.8004
 120218156.70544  22876756.999    93676480.38844  22876753.5554         27.1004
        27.2004
 121107041.39744  23045910.361    94369113.26244  23045906.8904         27.3004
        27.2004
 10 10 11  2 14 30.0000000  0 10G 6G11G24G16G 7G 3G31G19G13G23
 110614171.93346  21049175.209    86192860.85546  21049172.3924         38.6004
        38.7004
 132494507.41341  25212868.651   103242478.97141  25212872.0334          8.5004
         9.4004
 115199896.90845  21921802.501    89766168.72345  21921802.3354         33.8004
        34.0004
 116154280.03045  22103430.327    90509821.29845  22103427.3104         34.3004
        34.2004
 123538035.34144  23508505.368    96263400.77144  23508501.9404         24.9004
        25.7004
 105437885.57646  20064160.824    82159395.79546  20064158.1484         41.5004
        41.6004
 130007038.76742  24739550.101   101304142.09042  24739557.6834         16.1004
        15.9004
 108457845.07647  20638836.458    84512606.96547  20638831.8114         42.5004
        42.6004
 120221755.11244  22877442.272    93679284.27044  22877439.4524         27.0004
        27.0004
 121147568.36544  23053623.310    94400692.60944  23053619.6474         27.4004
        27.4004
 10 10 11  2 15  0.0000000  0 10G 6G11G24G16G 7G 3G31G19G13G23
 110639213.56046  21053939.910    86212373.77746  21053937.7634         38.3004
        38.3004
 132350713.62641  25185506.689   103130431.96241  25185509.2194          8.5004
         9.4004
 115084781.79845  21899896.736    89676468.65345  21899896.8054         34.0004
        34.1004
 116162818.68145  22105055.537    90516474.74045  22105051.8374         33.9004
        34.0004
 123409644.55344  23484072.434    96163356.03944  23484070.2084         25.9004
        25.7004
 105436015.46346  20063804.929    82157938.54946  20063802.4384         41.5004
        41.7004
 130081309.22642  24753684.738   101362014.18742  24753693.3914         14.0004
        13.5004
 108401823.20047  20628175.902    84468953.55547  20628171.0824         42.7004
        42.6004
 120225832.71444  22878217.344    93682461.57044  22878216.1434         26.7004
        26.8004
 121188336.05644  23061381.085    94432459.52344  23061377.2854         27.4004
        27.6004
 10 10 11  2 15 30.0000000  0 10G 6G11G24G16G 7G 3G31G19G13G23
 110664461.68346  21058744.439    86232047.59246  21058742.2494         38.3004
        38.5004
 132206880.67441  25158134.332   103018354.41341  25158137.0894         11.4004
        11.1004
 114969973.54445  21878049.705    89587007.70045  21878049.5344         34.3004
        34.5004
 116171484.13445  22106704.445    90523226.98645  22106701.1734         33.7004
        33.8004
 123281441.70744  23459676.574    96063457.73544  23459674.9834         27.5004
        26.5004
 105434489.25746  20063514.625    82156749.28646  20063511.8594         41.6004
        41.7004
 130155695.16242  24767840.267   101419976.25842  24767849.1244         14.0004
        13.5004
 108346236.08447  20617598.499    84425638.91447  20617593.3014         42.7004
        42.6004
 120230386.30344  22879084.274    93686009.74944  22879082.5034         26.7004
        26.7004
 121229339.81144  23069184.190    94464410.39844  23069181.2824         27.2004
        27.2004
 10 10 11  2 16  0.0000000  0 10G 6G11G24G16G 7G 3G31G19G13G23
 110689915.67146  21063588.257    86251881.82946  21063586.0654         38.5004
        38.7004
 132063011.94041  25130757.460   102906248.99641  25130759.7964         11.4004
        11.1004
 114855476.44045  21856261.423    89497789.20245  21856261.3914         34.1004
        34.1004
 116180278.52745  22108377.908    90530079.71345  22108375.0334         33.9004
        34.0004
 123153430.13644  23435316.531    95963708.50344  23435314.4794         27.1004
        27.5004
 105433306.39646  20063289.655    82155827.55846  20063287.0564         41.2004
        41.5004
 130230196.03241  24782018.615   101478027.90341  24782028.4534          9.8004
         8.7004
 108291084.21347  20607103.241    84382663.43647  20607098.4554         42.6004
        42.6004
 120235414.57144  22880041.514    93689927.81344  22880038.9194         27.0004
        27.0004
 121270578.14244  23077031.168    94496544.05144  23077026.3544         27.3004
        27.3004
 10 10 11  2 16 30.0000000  0 10G 6G11G24G16G 7G 3G31G19G13G23
 110715573.47446  21068471.012    86271874.88646  21068468.8824         38.4004
        38.6004
 131919109.64441  25103372.877   102794117.40041  25103376.2424         10.9004
        11.1004
 114741293.38745  21834533.177    89408815.42745  21834532.6604         34.4004
        34.5004
 116189202.16145  22110075.960    90537033.13845  22110072.8554         33.9004
        34.0004
 123025613.02244  23410993.354    95864110.79744  23410991.4884         26.6004
        27.0004
 105432464.93346  20063129.481    82155171.85246  20063126.7144         41.5004
        41.4004
 130304809.67341  24796217.567   101536167.39741  24796225.3884          9.8004
         8.7004
 108236366.61447  20596690.783    84340026.33847  20596685.8434         42.4004
        42.8004
 120240915.50444  22881088.348    93694214.19044  22881086.0914         26.8004
        26.8004
 121312047.26844  23084922.731    94528857.54744  23084919.4334         26.9004
        27.0004
 10 10 11  2 17  0.0000000  0 10G 6G11G24G16G 7G 3G31G19G13G23
 110741433.25146  21073391.904    86292025.32746  21073389.4074         38.5004
        38.5004
 131775176.26941  25075983.686   102681961.61741  25075984.8024         10.9004
        10.6004
 114627427.46745  21812865.006    89320088.75945  21812864.8444         34.5004
        34.5004
 116198255.39645  22111798.571    90544087.55245  22111795.9654         33.8004
        33.8004
 122897992.90844  23386708.547    95764666.57144  23386706.1374         26.7004
        26.5004
 105431963.72146  20063034.046    82154781.29046  20063031.4264         41.5004
        41.7004
 130379534.15541  24810437.111   101594393.29441  24810448.3274         10.4004
        11.1004
 108182083.06447  20586360.940    84297727.46547  20586356.0494         42.7004
        42.8004
 120246886.60044  22882224.463    93698866.93244  22882223.3854         27.1004
        27.1004
 121353743.98144  23092857.217    94561348.36844  23092853.3104         27.2004
        27.2004
 10 10 11  2 17 30.0000000  0 10G 6G11G24G16G 7G 3G31G19G13G23
 110767490.28546  21078350.834    86312329.47146  21078348.2754         38.4004
        38.6004
 131631211.04041  25048587.974   102569781.00241  25048588.5494         10.2004
        10.6004
 114513879.08345  21791257.506    89231609.51745  21791256.8834         34.2004
        34.3004
 116207436.35245  22113545.984    90551241.48845  22113542.7144         33.5004
        33.6004
 122770569.93644  23362460.848    95665375.94544  23362459.2954         26.7004
        26.7004
 105431798.40346  20063002.563    82154652.45046  20063000.1214         40.9004
        41.3004
 130454364.68842  24824678.269   101652701.84841  24824687.9674         12.0004
        11.1004
 108128230.53747  20576113.111    84255764.45047  20576108.1044         42.6004
        42.7004
 120253323.14244  22883449.540    93703882.34344  22883447.8594         26.6004
        27.1004
 121395662.59444  23100834.002    94594012.10844  23100831.2464         27.2004
        27.2004
 10 10 11  2 18  0.0000000  0 10G 6G11G24G16G 7G 3G31G19G13G23
 110793746.69046  21083346.926    86332788.96246  21083344.9834         38.4004
        38.7004
 131487220.11241  25021186.324   102457580.35841  25021187.5724         10.2004
         9.5004
 114400655.14045  21769711.786    89143383.09645  21769711.7034         34.5004
        34.7004
 116216749.43345  22115317.931    90558498.38445  22115314.9634         33.3004
        33.4004
 122643350.50044  23338251.782    95566243.94844  23338248.9484         27.4004
        27.0004
 105431970.73746  20063035.590    82154786.71846  20063032.9264         41.3004
        41.6004
 130529303.02242  24838938.910   101711094.45041  24838947.2284         12.0004
        11.1004
 108074812.03947  20565947.981    84214139.64247  20565942.9004         42.8004
        42.9004
 120260226.71544  22884763.237    93709261.67344  22884761.5654         26.5004
        26.5004
 121437803.93244  23108853.446    94626849.37744  23108851.5484         27.2004
        27.2004
 10 10 11  2 18 30.0000000  0 10G 6G11G24G16G 7G 3G31G19G13G23
 110820201.58446  21088381.440    86353403.12546  21088379.0754         38.4004
        38.6004
 131343206.79041  24993781.513   102345362.29241  24993784.3764          8.8004
         9.5004
 114287759.29245  21748228.219    89055412.32645  21748228.0924         34.7004
        34.8004
 116226196.00645  22117115.369    90565859.29545  22117112.3284         33.1004
        33.2004
 122516338.52144  23314081.795    95467273.60744  23314079.7774         27.9004
        27.9004
 105432480.23846  20063132.154    82155183.71446  20063129.9104         40.9004
        41.3004
 130604348.07942  24853219.637   101769570.28942  24853229.1274         15.0004
        13.5004
 108021827.63647  20555865.181    84172853.08547  20555860.4554         42.6004
        43.0004
 120267595.81444  22886165.985    93715003.74844  22886163.4924         26.4004
        26.6004
 121480165.36844  23116914.921    94659858.17144  23116912.4864         27.1004
        27.4004
 10 10 11  2 19  0.0000000  0 10G 6G11G24G16G 7G 3G31G19G13G23
 110846850.90946  21093452.556    86374168.79246  21093450.4744         38.3004
        38.5004
 131199171.44041  24966372.844   102233127.10241  24966374.5034          8.8004
         7.9004
 114175192.65645  21726807.261    88967698.08945  21726807.2674         34.8004
        34.8004
 116235774.82245  22118938.175    90573323.24845  22118935.7114         33.1004
        33.3004
 122389534.99344  23289952.025    95368465.70144  23289950.2254         28.1004
        28.0004
 105433323.36646  20063292.727    82155840.68446  20063290.4124         41.6004
        41.5004
 130679496.20242  24867520.557   101828126.53742  24867530.2324         15.0004
        13.5004
 107969274.90247  20545864.732    84131902.90447  20545859.9774         43.0004
        43.4004
 120275426.31344  22887655.902    93721105.35244  22887654.8104         26.5004
        26.4004
 121522742.02344  23125016.976    94693034.65544  23125014.0894         27.3004
        27.3004
 10 10 11  2 19 30.0000000  0 10G 6G11G24G16G 7G 3G31G19G13G23
 110873692.76746  21098560.572    86395084.48646  21098558.1224         38.2004
        38.4004
 131055115.99741  24938959.739   102120876.21541  24938962.4854          8.1004
         7.9004
 114062958.09245  21705449.848    88880242.59945  21705449.9244         34.9004
        35.0004
 116245486.06445  22120786.531    90580890.39545  22120783.5904         33.4004
        33.6004
 122262941.96244  23265862.359    95269821.78744  23265859.5544         28.2004
        28.2004
 105434497.70346  20063516.211    82156755.73846  20063513.6864         41.1004
        41.6004
 130754745.22142  24881840.138   101886761.53042  24881850.8994         15.0004
        15.1004
 107917153.28147  20535946.307    84091288.64947  20535941.4654         42.5004
        42.5004
 120283715.44844  22889232.758    93727564.33644  22889230.6054         26.6004
        26.5004
 121565530.26044  23133159.132    94726376.01444  23133157.1694         26.9004
        27.0004
 10 10 11  2 20  0.0000000  0 10G 6G11G24G16G 7G 3G31G19G13G23
 110900727.30146  21103705.163    86416150.32146  21103702.5104         38.3004
        38.3004
 130911044.66641  24911545.103   102008612.93141  24911546.9864          8.1004
        11.1004
 113951060.54645  21684156.626    88793049.73445  21684156.5264         35.0004
        35.2004
 116255332.48945  22122659.968    90588562.88145  22122657.4234         33.4004
        33.4004
 122136564.56144  23241813.700    95171345.90544  23241811.0054         27.7004
        27.5004
 105436003.93046  20063802.949    82157929.40746  20063800.3214         41.2004
        41.5004
 130830094.93742  24896178.853   101945475.15642  24896188.6294         15.0004
        15.1004
 107865464.00447  20526110.253    84051011.28447  20526105.4154         42.8004
        43.0004
 120292463.00344  22890897.988    93734380.52544  22890896.6864         26.5004
        26.5004
 121608529.01644  23141341.624    94759881.41144  23141339.1684         26.8004
        27.0004
 10 10 11  2 20 30.0000000  0 10G 6G11G24G16G 7G 3G31G19G13G23
 110927949.37046  21108885.532    86437362.28646  21108883.0864         38.4004
        38.5004
 130766956.50041  24884124.989   101896336.51541  24884128.0704         11.5004
        11.1004
 113839499.79645  21662927.330    88706119.30545  21662926.5004         34.9004
        35.0004
 116265311.12645  22124559.182    90596338.37245  22124556.4474         33.3004
        33.3004
 122010402.26344  23217805.236    95073037.64844  23217803.0934         27.4004
        27.6004
 105437836.91546  20064151.793    82159357.68646  20064149.1254         41.1004
        41.6004
 130905540.16042  24910537.225   102004263.32842  24910546.0244         15.0004
        14.7004
 107814202.96647  20516355.609    84011067.61147  20516350.8994         42.7004
        42.9004
 120301663.46744  22892648.297    93741549.62844  22892646.5304         26.3004
        26.4004
 121651731.76044  23149563.380    94793545.75044  23149560.7634         26.5004
        26.8004
 10 10 11  2 21  0.0000000  0 10G 6G11G24G16G 7G 3G31G19G13G23
 110955357.77346  21114100.634    86458719.44546  21114098.4374         38.4004
        38.4004
 130622854.40441  24856703.191   101784049.24341  24856706.8074         11.5004
        11.1004
 113728279.48445  21641762.774    88619454.14945  21641762.3634         35.2004
        35.2004
 116275423.30945  22126483.854    90604217.94545  22126480.9254         33.5004
        33.6004
 121884458.48944  23193839.674    94974899.63044  23193836.6124         27.7004
        27.5004
 105439995.60446  20064562.618    82161039.75946  20064559.9014         41.3004
        41.5004
 130981079.61542  24924911.098   102063125.12242  24924919.9244         15.0004
        14.7004
 107763369.99347  20506682.383    83971457.50147  20506677.4124         42.4004
        42.8004
 120311314.96644  22894485.926    93749070.21344  22894483.5894         26.1004
        26.1004
 121695135.98544  23157822.330    94827367.09444  23157819.3134         27.0004
        26.7004
 10 10 11  2 21 30.0000000  0 10G 6G11G24G16G 7G 3G31G19G13G23
 110982951.60746  21119351.557    86480221.10546  21119349.3234         38.0004
        38.0004
 130478741.78741  24829278.647   101671753.77641  24829282.7984         11.5004
        11.1004
 113617403.62245  21620663.828    88533057.39445  21620663.5504         35.1004
        35.2004
 116285670.44345  22128433.766    90612202.67045  22128430.4274         33.3004
        33.4004
 121758737.13144  23169915.424    94876934.95744  23169914.0474         27.9004
        27.8004
 105442479.21146  20065035.268    82162975.01446  20065032.6414         41.1004
        41.3004
 131056712.20742  24939303.136   102122059.73642  24939311.6314         16.0004
        15.9004
 107712965.66647  20497090.602    83932181.39747  20497085.7374         43.0004
        42.9004
 120321415.89044  22896407.548    93756940.99344  22896405.7154         26.2004
        26.1004
 121738739.36744  23166120.130    94861343.62744  23166118.1044         26.6004
        26.9004
 10 10 11  2 22  0.0000000  0 10G 6G11G24G16G 7G 3G31G19G13G23
 111010727.99346  21124637.073    86501865.00746  21124634.9094         37.7004
        37.6004
 130334619.90942  24801854.223   101559451.08341  24801856.9154         14.5004
        11.1004
 113506873.90145  21599630.765    88446930.36845  21599629.9174         35.4004
        35.4004
 116296052.13545  22130409.370    90620292.24345  22130406.2344         33.4004
        33.5004
 121633239.59744  23146033.669    94779144.68544  23146032.1254         28.2004
        28.2004
 105445285.09446  20065569.063    82165161.40746  20065566.6214         40.8004
        41.1004
 131132434.64842  24953713.019   102181064.51642  24953721.0694         16.0004
        15.9004
 107662987.91847  20487580.294    83893237.70047  20487575.4944         42.7004
        42.9004
 120331963.20744  22898415.028    93765159.61244  22898413.2194         26.2004
        26.2004
 121782537.76344  23174455.053    94895472.09244  23174451.7014         26.5004
        26.7004
 10 10 11  2 22 30.0000000  0 10G 6G11G24G16G 7G 3G31G19G13G23
 111038689.01146  21129957.943    86523652.78446  21129956.0224         37.6004
        37.6004
 130190494.61642  24774428.151   101447145.69442  24774431.0394         14.5004
        14.8004
 113396697.10645  21578664.663    88361078.34545  21578664.0854         35.5004
        35.5004
 116306572.98745  22132411.772    90628490.25445  22132408.3624         33.1004
        33.2004
 121507972.89344  23122196.166    94681534.28744  23122194.5364         28.3004
        28.3004
 105448414.94246  20066164.649    82167600.23946  20066162.0554         40.7004
        41.1004
 131208248.83742  24968139.199   102240140.98842  24968146.1744         14.5004
        13.9004
 107613440.16647  20478151.691    83854629.06047  20478146.9494         42.8004
        43.0004
 120342958.01544  22900507.395    93773726.89444  22900506.9154         26.5004
        26.4004
 121826531.64844  23182827.520    94929752.90244  23182823.6514         25.9004
        26.2004
 10 10 11  2 23  0.0000000  0 10G 6G11G24G16G 7G 3G31G19G13G23
 111066829.04846  21135312.967    86545580.05646  21135310.8784         37.9004
        37.9004
 130046364.53042  24747001.235   101334836.53442  24747004.0564         14.5004
        14.8004
 113286872.59345  21557765.788    88275500.82745  21557765.7624         35.1004
        35.2004
 116317229.65645  22134439.248    90636794.10045  22134436.0874         33.0004
        33.0004
 121382935.84244  23098403.026    94584102.85144  23098400.0954         28.4004
        28.6004
 105451863.97246  20066820.987    82170287.77646  20066818.5964         41.0004
        41.2004
 131284148.667 6  24982582.889                                          37.600

 107564317.91047  20468804.177    83816351.97547  20468799.2544         42.7004
        43.2004
 120354394.00044  22902683.516    93782637.96744  22902681.7824         26.6004
        26.7004
 121870714.25744  23191234.489    94964180.77244  23191232.1894         25.9004
        25.4004
 10 10 11  2 23 30.0000000  0 10G 6G11G24G16G 7G 3G31G19G13G23
 111095147.97346  21140701.751    86567646.72346  21140699.9754         37.5004
        37.5004
 129902233.77642  24719574.225   101222526.87942  24719574.7944         14.5004
        13.7004
 113177404.83745  21536934.771    88190201.31045  21536934.4464         35.4004
        35.5004
 116328024.52445  22136494.055    90645205.62645  22136490.9844         33.1004
        33.2004
 121258132.97444  23074653.663    94486853.87644  23074651.3074         28.7004
        28.5004
 105455631.92846  20067538.038    82173223.82146  20067535.6564         41.1004
        41.0004
 131360134.176 6  24997041.658                                          37.900

 107515622.01547  20459537.444    83778407.12347  20459532.8144         42.9004
        43.1004
 120366270.87044  22904943.362    93791892.60744  22904942.0494         26.3004
        26.5004
 121915083.91344  23199678.198    94998754.38444  23199675.2964         25.4004
        25.4004
 10 10 11  2 24  0.0000000  0 10G 6G11G24G16G 7G 3G31G19G13G23
 111123644.42246  21146124.599    86589851.72346  21146123.1544         37.4004
        37.5004
 129758104.99742  24692147.734   101110218.81542  24692148.9104         13.0004
        13.7004
 113068297.23045  21516172.466    88105182.40945  21516171.9984         35.6004
        35.6004
 116338958.62845  22138574.167    90653725.64845  22138571.6534         33.0004
        33.1004
 121133567.69144  23050949.449    94389790.03344  23050947.1694         28.7004
        28.9004
 105459717.28846  20068315.467    82176407.19946  20068313.0634         41.0004
        41.2004
 131436203.326 6  25011515.759                                          37.800

 107467352.09447  20450352.009    83740794.19447  20450347.2154         42.6004
        42.9004
 120378586.08044  22907287.232    93801488.78344  22907285.6774         26.4004
        26.4004
 121959637.74944  23208155.961    95033471.52044  23208154.8424         25.7004
        25.6004
 10 10 11  2 24 30.0000000  0 10G 6G11G24G16G 7G 3G31G19G13G23
 111152312.52646  21151580.190    86612190.48046  21151578.2894         37.5004
        37.7004
 129613976.78242  24664720.471   100997911.16342  24664722.5814         13.0004
        14.0004
 112959548.68545  21495478.201    88020443.31145  21495477.6274         35.5004
        35.8004
 116350028.36145  22140681.104    90662351.36445  22140678.1634         32.7004
        33.0004
 121009238.71244  23027290.478    94292910.32844  23027287.6354         28.9004
        28.7004
 105464114.65746  20069152.399    82179833.69746  20069149.6104         40.9004
        41.0004
 131512349.952 6  25026005.606                                          38.100

 107419503.32347  20441246.800    83703509.43847  20441241.5864         42.8004
        43.1004
 120391333.44244  22909712.875    93811421.72144  22909711.5674         26.1004
        26.2004
 122004368.77744  23216668.768    95068326.72744  23216668.1464         25.9004
        26.0004
 10 10 11  2 25  0.0000000  0 10G 6G11G24G16G 7G 3G31G19G13G23
 111181153.28946  21157068.104    86634663.78246  21157066.1214         37.6004
        37.6004
 129469853.63542  24637293.857   100885607.50642  24637297.5674         14.9004
        14.0004
 112851164.79445  21474853.091    87935988.35745  21474853.0384         35.8004
        35.9004
 116361237.00445  22142813.395    90671085.32145  22142810.9434         32.8004
        32.9004
 120885151.46144  23003677.381    94196218.99044  23003674.4364         28.7004
        28.7004
 105468824.81446  20070048.601    82183503.93546  20070045.9484         41.1004
        41.0004
 131588574.8564   25040510.159   102536700.7564   25040514.3074          3.0004
         4.8004
 107372077.50447  20432221.839    83666554.25647  20432216.9984         42.8004
        43.2004
 120404513.14544  22912221.452    93821691.53144  22912219.4704         25.9004
        26.2004
 122049276.38744  23225214.678    95103319.52644  23225211.4644         26.1004
        26.2004
 10 10 11  2 25 30.0000000  0 10G 6G11G24G16G 7G 3G31G19G13G23
 111210164.45546  21162589.039    86657269.85846  21162586.7364         37.4004
        37.3004
 129325737.76342  24609869.897   100773309.48042  24609872.2454         14.9004
        13.7004
 112743147.98945  21454298.612    87851819.43745  21454298.2454         35.8004
        35.9004
 116372584.60345  22144973.524    90679927.53745  22144969.9364         33.0004
        33.1004
 120761308.36444  22980111.007    94099717.89044  22980108.3584         28.9004
        28.9004
 105473845.72346  20071003.994    82187416.31646  20071001.5114         40.8004
        41.0004
 131664875.37741  25055028.700   102596156.38741  25055036.8934          8.9004
         9.9004
 107325073.55547  20423277.441    83629927.80447  20423272.5684         42.9004
        43.1004
 120418122.08544  22914810.349    93832295.82244  22914809.0784         25.7004
        25.8004
 122094356.93244  23233792.888    95138447.07944  23233790.6784         26.4004
        26.2004
 10 10 11  2 26  0.0000000  0 10G 6G11G24G16G 7G 3G31G19G13G23
 111239343.95446  21168141.874    86680007.10546  21168139.3554         37.2004
        37.4004
 129181631.35542  24582447.305   100661018.81942  24582449.4524         12.8004
        13.7004
 112635501.00745  21433814.166    87767938.70145  21433813.5764         35.8004
        35.8004
 116384071.72945  22147159.654    90688878.48645  22147157.0224         33.0004
        33.0004
 120637712.33344  22956591.286    94003409.30444  22956588.7584         28.8004
        28.8004
 105479175.13846  20072018.410    82191569.08646  20072015.7224         40.9004
        41.0004
 131741249.37841  25069562.149   102655669.20141  25069569.1994          9.3004
        10.0004
 107278490.29747  20414412.855    83593629.16247  20414407.9904         42.9004
        43.1004
 120432157.72744  22917481.671    93843232.60244  22917481.2424         25.7004
        25.8004
 122139606.93844  23242403.853    95173706.67044  23242402.5604         26.4004
        26.7004
 10 10 11  2 26 30.0000000  0 10G 6G11G24G16G 7G 3G31G19G13G23
 111268690.70646  21173725.976    86702874.68246  21173724.2324         37.2004
        37.3004
 129037537.11342  24555027.176   100548737.63442  24555028.4034         12.8004
        13.0004
 112528227.20846  21413400.346    87684348.75146  21413399.9634         36.0004
        36.1004
 116395699.57845  22149371.959    90697939.09345  22149369.0634         32.8004
        32.8004
 120514366.39644  22933119.088    93907295.61044  22933116.6684         29.1004
        28.9004
 105484812.17646  20073090.717    82195961.55946  20073088.2844         40.6004
        40.5004
 131817695.45741  25084106.857   102715238.22641  25084112.6284          9.3004
         9.9004
 107232327.93547  20405628.403    83557658.48747  20405623.6624         43.0004
        43.3004
 120446617.79444  22920233.100    93854500.09944  22920231.6294         25.8004
        25.6004
 122185023.88744  23251047.040    95209096.36444  23251043.8034         26.7004
        26.7004
 10 10 11  2 27  0.0000000  0 10G 6G11G24G16G 7G 3G31G19G13G23
 111298204.43046  21179342.509    86725872.36146  21179340.7984         37.6004
        37.6004
 128893458.98742  24527609.593   100436468.99842  24527611.0164         13.3004
        13.0004
 112421330.91246  21393058.621    87601052.95746  21393058.1144         36.0004
        36.2004
 116407470.24145  22151611.847    90707110.99345  22151608.6804         32.7004
        32.8004
 120391274.90644  22909695.574    93811380.18244  22909693.6994         29.3004
        29.5004
 105490756.57246  20074222.236    82200593.54046  20074219.4904         40.3004
        40.7004
 131894212.577 6  25098667.796                                          36.400

 107186586.63947  20396924.118    83522015.90947  20396919.3824         42.8004
        43.0004
 120461501.30944  22923065.486    93866097.56344  22923063.8234         25.5004
        25.5004
 122230606.06844  23259720.791    95244614.79144  23259719.0724         25.9004
        26.2004
 10 10 11  2 27 30.0000000  0 10G 6G11G24G16G 7G 3G31G19G13G23
 111327881.60846  21184990.228    86748997.40646  21184987.9504         37.5004
        37.5004
 128749397.72442  24500195.962   100324213.58042  24500197.3454         13.3004
        13.0004
 112314813.25745  21372789.075    87518052.21645  21372788.3444         35.9004
        35.9004
 116419382.48745  22153878.695    90716393.20645  22153875.7074         32.2004
        32.4004
 120268438.95444  22886320.896    93715663.87444  22886318.4754         29.5004
        29.5004
 105497004.85346  20075411.053    82205462.31746  20075408.4254         40.6004
        40.9004
 131970797.261 6  25113241.795                                          36.800

 107141264.08947  20388299.378    83486699.63847  20388294.7484         42.9004
        43.3004
 120476804.19644  22925978.099    93878021.81344  22925976.7424         25.3004
        25.5004
 122276348.31244  23268425.449    95280257.93844  23268424.1784         26.2004
        26.1004
 10 10 11  2 28  0.0000000  0  9G 6G11G24G16G 7G 3G19G13G23
 111357721.59046  21190668.941    86772249.30746  21190665.8594         37.4004
        37.4004
 128605356.39542  24472785.690   100211973.70742  24472787.0344         13.0004
        12.7004
 112208678.48645  21352592.433    87435349.81745  21352591.7314         35.7004
        35.9004
 116431438.16245  22156173.027    90725787.18145  22156169.5494         32.6004
        32.6004
 120145862.81544  22862995.273    93620150.02344  22862992.5884         29.6004
        29.6004
 105503556.64346  20076658.041    82210567.59046  20076655.4524         40.4004
        40.6004
 107096360.48347  20379754.850    83451709.81647  20379749.9744         43.3004
        43.3004
 120492524.77544  22928969.266    93890271.53944  22928967.3654         25.4004
        25.3004
 122322248.97644  23277159.889    95316024.53444  23277157.3184         25.9004
        25.9004
 10 10 11  2 28 30.0000000  0  9G 6G11G24G16G 7G 3G19G13G23
 111387722.76546  21196377.091    86795626.81846  21196375.1214         37.0004
        37.1004
 128461337.63842  24445380.119   100099751.38942  24445381.4104         13.0004
        12.7004
 112102929.41945  21332468.559    87352947.96745  21332468.2604         35.8004
        35.9004
 116443637.80145  22158494.543    90735293.33445  22158491.6694         32.4004
        32.5004
 120023549.21944  22839719.499    93524840.73744  22839717.2954         29.1004
        29.2004
 105510410.21246  20077962.183    82215908.02046  20077959.6954         40.7004
        40.8004
 107051874.89547  20371289.389    83417045.72147  20371284.4974         43.2004
        43.1004
 120508660.55044  22932040.035    93902844.77544  22932037.8914         25.6004
        25.6004
 122368304.69444  23285923.419    95351911.95044  23285921.3604         25.0004
        25.0004
 10 10 11  2 29  0.0000000  0  9G 6G11G24G16G 7G 3G19G13G23
 111417887.63446  21202117.616    86819131.88146  21202115.4564         36.7004
        37.0004
 128317348.17342  24417979.736    99987551.88242  24417981.4764         13.9004
        13.9004
 111997573.27546  21312420.081    87270852.30246  21312419.5944         36.1004
        36.1004
 116455986.27045  22160844.109    90744915.46845  22160841.9384         32.5004
        32.4004
 119901505.28044  22816495.508    93429741.57044  22816492.9684         29.3004
        29.4004
 105517568.07746  20079324.205    82221485.55646  20079321.7844         40.4004
        40.7004
 107007810.67147  20362904.256    83382709.95547  20362899.5074         43.2004
        43.5004
 120525213.21044  22935190.191    93915742.85444  22935187.5144         25.4004
        25.4004
 122414516.49644  23294717.812    95387920.96644  23294715.6514         25.3004
        25.0004
 10 10 11  2 29 30.0000000  0  9G 6G11G24G16G 7G 3G19G13G23
 111448210.51746  21207887.808    86842760.07146  21207885.8584         36.8004
        36.9004
 128173386.12242  24390584.083    99875373.78742  24390584.5554         13.9004
        13.9004
 111892608.62446  21292446.336    87189061.68546  21292445.3514         36.1004
        36.1004
 116468480.28745  22163221.665    90754651.00945  22163219.4064         32.1004
        32.1004
 119779729.62445  22793322.596    93334851.46645  22793320.4104         30.3004
        30.0004
 105525024.16146  20080743.287    82227295.47246  20080740.7724         40.6004
        40.9004
 106964163.06447  20354598.524    83348698.83147  20354593.5654         43.2004
        43.3004
 120542175.78744  22938418.006    93928960.36844  22938417.0554         25.4004
        25.4004
 122460877.22844  23303540.814    95424046.06144  23303538.2524         25.5004
        25.5004
 10 10 11  2 30  0.0000000  0  9G 6G11G24G16G 7G 3G19G13G23
 111478685.75746  21213687.496    86866506.97946  21213684.7624         36.6004
        36.9004
 128029450.12142  24363193.551    99763216.00942  24363195.3394         14.1004
        13.9004
 111788034.63346  21272546.280    87107575.47446  21272545.7254         36.0004
        36.1004
 116481116.54945  22165626.442    90764497.39145  22165623.7054         32.1004
        32.1004
 119658221.81945  22770200.276    93240170.07045  22770198.1124         31.1004
        31.0004
 105532773.54146  20082217.954    82233333.93646  20082215.1484         40.4004
        40.7004
 106920927.29947  20346370.945    83315008.61647  20346366.0344         43.0004
        43.4004
 120559542.32544  22941722.712    93942492.64144  22941721.7724         25.6004
        25.6004
 122507379.94644  23312389.942    95460281.76844  23312388.0184         25.5004
        25.5004
 10 10 11  2 30 30.0000000  0  9G 6G11G24G16G 7G 3G19G13G23
 111509316.57946  21219515.992    86890375.11546  21219513.8854         36.9004
        36.8004
 127885547.29742  24335809.568    99651084.07642  24335810.8254         14.1004
        13.9004
 111683858.68646  21252722.624    87026399.43746  21252721.8254         36.3004
        36.5004
 116493900.23745  22168059.275    90774458.66645  22168056.1104         32.2004
        32.2004
 119536989.25045  22747130.686    93145703.15245  22747128.6734         31.2004
        30.8004
 105540819.02546  20083749.039    82239603.13446  20083746.4304         40.6004
        40.7004
 106878107.22047  20338222.571    83281642.31747  20338217.7874         43.3004
        43.6004
 120577314.74444  22945104.961    93956341.17544  22945104.0134         25.7004
        25.6004
 122554026.18044  23321266.262    95496629.33044  23321264.5384         25.6004
        25.7004
 10 10 11  2 31  0.0000000  0  9G 6G11G24G16G 7G 3G19G13G23
 111540095.98146  21225373.054    86914359.02746  21225370.8164         36.6004
        36.9004
 127741674.92342  24308431.764    99538975.85042  24308433.0204         14.7004
        14.4004
 111580078.84946  21232973.605    86945532.05546  21232973.3134         36.4004
        36.5004
 116506827.17745  22170519.348    90784531.56545  22170517.0774         32.4004
        32.5004
 119416029.45245  22724112.487    93051448.79445  22724110.0694         30.7004
        30.8004
 105549153.68346  20085335.012    82246097.65446  20085332.4134         40.5004
        40.6004
 106835696.63047  20330152.057    83248595.10147  20330147.3324         43.3004
        43.5004
 120595485.37844  22948562.844    93970500.00544  22948561.3664         25.7004
        25.7004
 122600807.64944  23330168.762    95533082.26844  23330167.4114         25.7004
        25.5004
 10 10 11  2 31 30.0000000  0  9G 6G11G24G16G 7G 3G19G13G23
 111571027.28846  21231259.302    86938461.32046  21231256.7424         36.7004
        36.7004
 127597840.47142  24281062.200    99426897.21642  24281062.5414         14.7004
        14.4004
 111476702.58046  21213301.697    86864979.14346  21213301.1344         36.5004
        36.7004
 116519902.91645  22173007.774    90794720.39645  22173005.3124         32.4004
        32.4004
 119295350.14645  22701147.914    92957412.99145  22701145.1464         30.5004
        30.5004
 105557780.90146  20086976.522    82252820.14246  20086974.0204         40.1004
        40.4004
 106793699.74847  20322160.179    83215870.25347  20322155.3864         43.2004
        43.2004
 120614056.45944  22952096.227    93984970.88244  22952095.0034         25.6004
        25.1004
 122647726.16744  23339097.506    95569641.98344  23339095.0384         25.2004
        25.5004
 10 10 11  2 32  0.0000000  0  9G 6G11G24G16G 7G 3G19G13G23
 111602108.49646  21237173.816    86962680.41146  21237171.5544         36.7004
        36.7004
 127454045.80442  24253698.494    99314849.54542  24253698.7204         13.8004
        14.3004
 111373732.41046  21193707.143    86784742.65546  21193706.5654         36.7004
        36.6004
 116533127.37145  22175523.925    90805025.12445  22175521.8264         32.2004
        32.4004
 119174954.29745  22678237.337    92863598.07145  22678234.9734         31.1004
        30.9004
 105566698.76446  20088673.654    82259769.11246  20088671.2904         40.1004
        40.1004
 106752115.19747  20314246.957    83183466.69947  20314242.4154         43.3004
        43.5004
 120633024.79744  22955706.246    93999751.32244  22955705.0864         24.8004
        25.1004
 122694778.07544  23348050.980    95606305.64344  23348049.0094         25.3004
        25.3004
 10 10 11  2 32 30.0000000  0  9G 6G11G24G16G 7G 3G19G13G23
 111633338.56146  21243116.702    86987015.49946  21243114.8124         36.6004
        36.5004
 127310293.96242  24226342.934    99202835.26342  24226343.9294         13.8004
        14.3004
 111271171.61746  21174190.297    86704825.17546  21174189.7844         36.4004
        36.5004
 116546502.14345  22178069.506    90815446.98345  22178066.7774         32.2004
        32.3004
 119054845.22045  22655381.790    92770006.58945  22655378.8534         31.2004
        31.0004
 105575906.05446  20090425.676    82266943.60346  20090423.1344         40.0004
        40.1004
 106710942.70047  20306412.122    83151384.22847  20306407.3604         43.6004
        43.2004
 120652388.24944  22959391.542    94014839.63044  22959390.0824         24.6004
        24.6004
 122741961.11344  23357029.171    95643071.47344  23357027.5574         24.8004
        24.9004
 10 10 11  2 33  0.0000000  0  9G 6G11G24G16G 7G 3G19G13G23
 111664713.25846  21249086.957    87011463.28546  21249084.8694         36.3004
        36.4004
 127166584.53842  24198996.002    99090854.05942  24198996.9494         15.9004
        14.3004
 111169020.34646  21154751.372    86625226.80346  21154751.0484         36.6004
        36.6004
 116560024.98145  22180642.639    90825984.21445  22180639.8844         32.3004
        32.5004
 118935023.14745  22632579.981    92676638.76645  22632577.9374         31.6004
        31.6004
 105585398.25346  20092232.142    82274340.10646  20092229.5884         40.2004
        40.5004
 106670178.65247  20298655.167    83119620.02647  20298650.1854         43.7004
        43.8004
 120672141.71044  22963149.930    94030231.84244  22963149.9734         25.0004
        25.0004
 122789269.25044  23366031.641    95679934.77044  23366029.8954         24.1004
        24.9004
 10 10 11  2 33 30.0000000  0  9G 6G11G24G16G 7G 3G19G13G23
 111696231.62746  21255084.652    87036023.01646  21255082.7744         36.3004
        36.4004
 127022920.84542  24171657.746    98978908.48342  24171658.6154         15.9004
        15.5004
 111067281.89546  21135391.337    86545950.10946  21135390.7974         36.5004
        36.8004
 116573697.23145  22183244.380    90836637.86945  22183241.3414         32.0004
        32.1004
 118815491.60745  22609833.875    92583497.34845  22609831.8274         31.9004
        31.9004
 105595174.52846  20094092.298    82281957.95246  20094090.0334         40.0004
        40.2004
 106629822.72547  20290975.471    83088173.84647  20290970.8184         43.5004
        43.7004
 120692282.98444  22966982.356    94045926.24844  22966981.6974         25.1004
        25.0004
 122836700.25144  23375058.396    95716893.81144  23375056.1734         24.1004
        24.0004
 10 10 11  2 34  0.0000000  0  9G 6G11G24G16G 7G 3G19G13G23
 111727892.04146  21261109.580    87060693.43546  21261107.9574         36.4004
        36.3004
 126879305.36142  24144328.758    98867000.44442  24144328.6814         15.3004
        15.5004
 110965959.36346  21116110.267    86466997.51246  21116109.5374         36.7004
        36.9004
 116587519.69045  22185874.957    90847408.55845  22185871.9594         31.9004
        31.9004
 118696253.51445  22587143.883    92490584.58545  22587141.2754         31.5004
        31.5004
 105605233.77446  20096006.497    82289796.30146  20096004.0604         40.0004
        40.2004
 106589874.16847  20283373.741    83057045.09347  20283368.8304         43.2004
        43.3004
 120712809.62544  22970888.849    94061920.93344  22970888.7204         25.1004
        25.1004
 122884251.02643  23384107.152    95753946.20444  23384105.2054         23.9004
        24.2004
 10 10 11  2 34 30.0000000  0  9G 6G11G24G16G 7G 3G19G13G23
 111759692.97746  21267161.346    87085473.36046  21267159.1424         36.5004
        36.4004
 126735740.63142  24117008.188    98755131.95242  24117009.8124         16.2004
        15.9004
 110865055.48246  21096908.796    86388371.13046  21096908.3744         36.8004
        37.0004
 116601493.34145  22188533.974    90858297.06645  22188531.2244         31.9004
        31.9004
 118577311.78045  22564509.846    92397902.74645  22564507.0044         31.7004
        31.9004
 105615574.16146  20097974.209    82297853.72746  20097971.8004         40.2004
        40.2004
 106550331.91747  20275848.811    83026232.94247  20275844.0844         43.4004
        43.6004
 120733718.95844  22974868.309    94078213.82544  22974867.6504         24.8004
        24.8004
 122931918.27244  23393177.412    95791089.32644  23393175.6164         24.8004
        24.2004
 10 10 11  2 35  0.0000000  0  9G 6G11G24G16G 7G 3G19G13G23
 111791635.24746  21273239.666    87110363.40846  21273237.7534         36.4004
        36.5004
 126592231.19142  24089700.035    98643306.56342  24089700.9094         16.2004
        15.9004
 110764575.40646  21077788.323    86310074.98746  21077787.8214         37.1004
        37.1004
 116615621.09945  22191222.463    90869305.66345  22191220.0374         32.0004
        32.2004
 118458671.90845  22541933.502    92305456.10845  22541931.2444         31.7004
        31.7004
 105626195.91046  20099995.576    82306130.39146  20099993.2934         40.0004
        40.3004
 106511197.17647  20268401.906    82995738.33447  20268397.1464         43.2004
        43.0004
 120755010.57044  22978919.995    94094804.60044  22978918.4404         24.6004
        24.6004
 122979701.43544  23402271.044    95828322.75944  23402268.3454         24.2004
        24.7004
 10 10 11  2 35 30.0000000  0  9G 6G11G24G16G 7G 3G19G13G23
 113399135.98746  21579137.130    88362961.35346  21579135.0314         36.3004
        36.4004
 128024204.13842  24362195.625    99759129.81742  24362196.0174         16.7004
        16.4004
 112239945.25446  21358541.730    87459713.85146  21358541.5334         37.2004
        37.4004
 118205322.54845  22493732.610    92108034.01945  22493730.2284         31.9004
        32.0004
 119915760.58245  22819208.650    93440849.89145  22819205.0614         31.6004
        31.8004
 107212517.55746  20401862.584    83542225.15746  20401860.2614         39.9004
        40.1004
 108047890.57047  20560824.972    84193161.75547  20560820.1624         43.5004
        43.4004
 122352100.76844  23282836.238    95339290.37444  23282835.1404         24.5004
        24.6004
 124603015.81044  23711177.976    97093242.89444  23711175.3014         24.3004
        24.3004
 10 10 11  2 36  0.0000000  0  9G 6G11G24G16G 7G 3G19G13G23
 113431351.60146  21585267.319    88388064.39446  21585265.4444         36.1004
        36.1004
 127880808.53042  24334908.003    99647393.09042  24334908.1854         16.7004
        16.4004
 112140316.53346  21339583.220    87382081.10946  21339582.4324         37.1004
        37.3004
 118219755.32945  22496479.116    92119280.27745  22496476.3414         31.8004
        32.0004
 119797728.56945  22796747.681    93348876.90745  22796744.4184         31.8004
        31.6004
 107223693.60846  20403989.182    83550933.73946  20403986.8144         40.0004
        40.2004
 108009563.87447  20553531.666    84163296.78847  20553526.8794         43.6004
        43.7004
 122374144.12543  23287031.097    95356466.91544  23287029.6664         23.9004
        24.1004
 124651016.95444  23720312.205    97130646.19644  23720310.4654         24.3004
        24.3004
 10 10 11  2 36 30.0000000  0  9G 6G11G24G16G 7G 3G19G13G23
 113463704.88546  21591424.245    88413274.71046  21591421.9604         36.1004
        36.3004
 127737476.74442  24307632.852    99535706.08542  24307632.4234         17.5004
        17.4004
 112041120.80646  21320706.795    87304785.76146  21320706.2254         37.2004
        37.2004
 118234345.34745  22499255.296    92130649.07545  22499252.9074         31.7004
        31.8004
 119680008.03945  22774346.480    93257146.62145  22774343.5724         31.7004
        31.7004
 107235147.32346  20406168.782    83559858.68246  20406166.4954         39.9004
        40.0004
 107971642.87547  20546315.434    84133747.95447  20546310.8624         43.4004
        43.4004
 122396562.62443  23291296.959    95373935.76244  23291296.5434         23.9004
        24.0004
 124699125.74144  23729467.009    97168133.37644  23729465.4874         24.3004
        24.3004
 10 10 11  2 37  0.0000000  0  9G 6G11G24G16G 7G 3G19G13G23
 113496189.44746  21597605.524    88438587.32046  21597604.0284         36.1004
        36.2004
 127594206.39442  24280368.969    99424066.99942  24280369.7544         17.5004
        17.4004
 111942356.04846  21301912.367    87227826.23446  21301912.0414         37.3004
        37.3004
 118249088.11645  22502060.708    92142136.89245  22502058.9154         31.4004
        31.4004
 119562597.36645  22752003.231    93165657.80245  22752000.7104         31.7004
        31.8004
 107246872.37646  20408400.266    83568995.06046  20408397.5864         39.7004
        39.9004
 107934121.78647  20539175.384    84104510.74847  20539170.7334         42.9004
        43.4004
 122419348.61844  23295632.476    95391690.95944  23295633.2664         24.2004
        24.0004
 124747334.20644  23738640.462    97205698.23744  23738640.1644         24.2004
        24.3004
 10 10 11  2 37 30.0000000  0  9G 6G11G24G16G 7G 3G19G13G23
 113528806.42845  21603812.122    88464003.11345  21603810.0014         35.8004
        35.9004
 127451002.77943  24253117.969    99312479.91543  24253119.4864         18.3004
        18.1004
 111844027.61446  21283201.171    87151206.69946  21283200.5004         37.6004
        37.6004
 118263987.10045  22504896.239    92153746.41045  22504893.3384         31.3004
        31.3004
 119445501.79545  22729720.478    93074414.49945  22729718.7404         31.8004
        31.8004
 107258870.07446  20410683.380    83578343.88646  20410681.1004         39.8004
        40.0004
 107897002.33247  20532111.937    84075586.50547  20532107.0094         43.8004
        43.0004
 122442502.07444  23300039.693    95409732.52144  23300038.0924         24.3004
        24.4004
 124795642.17843  23747834.044    97243340.61243  23747832.3864         23.6004
        23.5004
 10 10 11  2 38  0.0000000  0  9G 6G11G24G16G 7G 3G19G13G23
 113561551.26645  21610043.497    88489518.54645  21610041.6434         35.8004
        35.9004
 127307865.01943  24225880.494    99200944.12543  24225880.0464         18.3004
        18.1004
 111746135.02446  21264572.930    87074926.78446  21264572.4034         37.7004
        37.8004
 118279039.80645  22507760.670    92165475.72945  22507757.8524         31.6004
        31.6004
 119328721.55345  22707498.352    92983416.89945  22707495.7424         32.4004
        32.3004
 107271135.51646  20413017.615    83587901.34046  20413014.8864         39.6004
        39.8004
 107860280.32847  20525124.158    84046971.95047  20525119.0184         43.1004
        43.5004
 122466017.28143  23304513.889    95428055.95543  23304512.6114         23.8004
        23.9004
 124844043.47343  23757044.076    97281055.71843  23757042.0684         23.6004
        23.5004
 10 10 11  2 38 30.0000000  0  9G 6G11G24G16G 7G 3G19G13G23
 113594423.48846  21616299.326    88515133.24146  21616297.2904         36.0004
        36.0004
 127164796.95743  24198654.817    99089462.61743  24198655.4954         19.1004
        19.0004
 111648682.10746  21246028.149    86998989.46746  21246027.4994         37.8004
        37.7004
 118294248.14545  22510654.461    92177326.33445  22510652.1254         31.7004
        31.8004
 119212260.23645  22685336.605    92892667.82645  22685334.0494         32.6004
        32.4004
 107283668.36446  20415402.328    83597667.17246  20415399.8664         39.8004
        39.8004
 107823956.10447  20518211.516    84018667.35647  20518206.8694         43.3004
        43.6004
 122489892.32743  23309057.509    95446659.79143  23309056.2844         23.7004
        23.9004
 124892536.03243  23766272.229    97318841.94643  23766269.8784         23.4004
        23.4004
 10 10 11  2 39  0.0000000  0  9G 6G11G24G16G 7G 3G19G13G23
 113627420.52945  21622578.242    88540845.18845  21622576.1054         35.6004
        35.7004
 127021800.00942  24171443.334    98978036.55243  24171444.0624         17.7004
        19.0004
 111551670.50446  21227567.663    86923396.03246  21227567.2294         37.7004
        37.8004
 118309611.30845  22513578.264    92189297.55945  22513576.0294         31.7004
        31.7004
 119096119.90845  22663235.348    92802168.87045  22663233.2464         32.0004
        32.1004
 107296465.90146  20417837.535    83607639.26346  20417835.1894         39.7004
        39.9004
 107788027.14847  20511374.510    83990670.77347  20511369.7654         43.7004
        43.6004
 122514123.41843  23313668.218    95465541.04343  23313668.3754         23.7004
        23.7004
 124941115.82243  23775516.488    97356696.15543  23775515.3304         22.6004
        23.4004
 10 10 11  2 39 30.0000000  0  9G 6G11G24G16G 7G 3G19G13G23
 113660543.44045  21628881.480    88566655.21645  21628879.6864         35.6004
        35.7004
 126878879.14142  24144246.790    98866669.78942  24144247.0584         17.7004
        17.9004
 111455105.53646  21209191.776    86848150.62546  21209191.2214         37.8004
        37.9004
 118325133.03645  22516532.114    92201392.36145  22516529.2194         31.4004
        31.5004
 118980306.25645  22641196.814    92711924.47345  22641194.8234         32.7004
        32.7004
 107309529.02646  20420323.497    83617818.28746  20420321.0284         39.5004
        39.7004
 107752495.09147  20504612.996    83962983.46147  20504608.2954         43.5004
        43.6004
 122538710.54944  23318347.264    95484699.75944  23318346.7264         24.1004
        24.0004
 124989782.02043  23784777.266    97394617.65943  23784776.5824         22.6004
        22.5004
 10 10 11  2 40  0.0000000  0  9G 6G11G24G16G 7G 3G19G13G23
 113693789.84445  21635207.437    88592561.46545  21635205.8744         35.6004
        35.4004
 126736035.97243  24117063.937    98755363.56342  24117065.2184         19.4004
        17.9004
 111358988.65846  21190901.105    86773254.38146  21190900.6754         37.9004
        38.0004
 118340813.03345  22519516.097    92213610.47845  22519513.6964         31.3004
        31.5004
 118864820.93745  22619220.976    92621935.91445  22619218.8294         32.2004
        32.3004
 107322855.56346  20422859.580    83628202.58146  20422856.9754         39.5004
        39.7004
 107717357.99947  20497926.413    83935603.91547  20497921.8844         43.3004
        43.4004
 122563649.76743  23323092.625    95504132.80544  23323092.3244         23.9004
        24.0004
 125038530.88943  23794054.789    97432603.58343  23794053.1954         22.5004
        23.0004
 10 10 11  2 40 30.0000000  0  9G 6G11G24G16G 7G 3G19G13G23
 113727158.35145  21641557.729    88618562.86745  21641555.5844         35.4004
        35.4004
 126593272.81743  24089896.466    98644119.69143  24089897.3774         19.4004
        19.2004
 111263322.96846  21172696.655    86698709.70246  21172696.1874         38.0004
        38.2004
 118356651.94945  22522529.942    92225952.43345  22522526.8764         31.0004
        31.1004
 118749667.06245  22597307.874    92532205.62145  22597305.2124         33.0004
        33.0004
 107336443.52046  20425445.186    83638790.57846  20425442.7624         39.7004
        39.7004
 107682614.93747  20491315.353    83908531.40147  20491310.6964         43.3004
        43.3004
 122588938.17244  23327905.403    95523837.94444  23327904.4494         24.0004
        24.0004
 125087359.59043  23803346.311    97470651.71243  23803345.1634         23.6004
        23.0004
 10 10 11  2 41  0.0000000  0  9G 6G11G24G16G 7G 3G19G13G23
 113760649.98345  21647931.221    88644660.20545  21647929.1684         35.7004
        35.6004
 126450594.82043  24062746.306    98532942.16843  24062745.8664         18.6004
        19.2004
 111168113.48146  21154578.872    86624520.51046  21154578.3314         37.7004
        38.0004
 118372652.88745  22525574.672    92238420.64245  22525572.3084         30.5004
        30.5004
 118634850.30645  22575459.502    92442738.02145  22575456.5184         33.0004
        32.9004
 107350293.92846  20428080.879    83649583.07446  20428078.4524         39.5004
        39.6004
 107648267.44147  20484779.026    83881767.11147  20484774.5744         43.4004
        43.7004
 122614575.82944  23332784.078    95543815.22244  23332783.5264         24.0004
        24.1004
 125136267.63343  23812653.135    97508761.66343  23812652.4264         23.6004
        23.6004
 10 10 11  2 41 30.0000000  0  9G 6G11G24G16G 7G 3G19G13G23
 113794260.73445  21654326.877    88670850.36245  21654324.9434         35.1004
        35.1004
 126308001.81443  24035610.808    98421830.87243  24035612.4634         18.6004
        18.6004
 111073359.88946  21136548.081    86550686.55946  21136547.2314         38.1004
        38.0004
 118388814.40645  22528650.325    92251013.96945  22528648.5484         30.8004
        30.9004
 118520371.06645  22553674.268    92353533.43145  22553671.7704         33.1004
        33.2004
 107364402.64246  20430765.482    83660576.85246  20430763.5704         39.4004
        39.6004
 107614311.69847  20478317.507    83855308.08747  20478312.8854         43.4004
        43.7004
 122640557.33143  23337728.209    95564060.43344  23337728.1704         23.8004
        24.1004
 125185249.39743  23821973.984    97546929.08543  23821973.8004         23.6004
        23.3004
 10 10 11  2 42  0.0000000  0  9G 6G11G24G16G 7G 3G19G13G23
 113827987.76145  21660745.157    88697131.12345  21660743.3134         35.2004
        35.2004
 126165495.04043  24008493.469    98310786.79943  24008493.9784         18.8004
        18.6004
 110979063.50846  21118603.806    86477208.88446  21118603.2664         38.3004
        38.5004
 118405135.22045  22531756.348    92263731.43045  22531754.0294         31.2004
        31.2004
 118406230.67445  22531954.153    92264592.86145  22531952.1524         33.2004
        33.2004
 107378766.90446  20433499.175    83671769.75346  20433496.4644         39.4004
        39.5004
 107580745.22747  20471930.023    83829152.39347  20471925.5024         43.5004
        43.7004
 122666878.14744  23342737.070    95584570.05044  23342737.4104         24.0004
        24.0004
 125234300.28643  23831308.956    97585150.34443  23831307.9504         23.1004
        23.3004
 10 10 11  2 42 30.0000000  0  9G 6G11G24G16G 7G 3G19G13G23
 113861830.29345  21667184.979    88723501.89145  21667183.3944         35.2004
        35.3004
 126023077.66043  23981391.902    98199812.32043  23981393.8144         19.7004
        19.6004
 110885227.65646  21100747.776    86404090.04946  21100747.1234         38.5004
        38.6004
 118421616.96145  22534892.515    92276574.28745  22534890.5264         31.1004
        31.2004
 118292432.59645  22510298.687    92175919.04845  22510296.8464         33.1004
        33.2004
 107393385.76746  20436281.015    83683161.04446  20436278.5704         39.1004
        39.3004
 107547567.49547  20465616.581    83803299.61947  20465611.7944         43.2004
        43.4004
 122693536.18043  23347810.358    95605342.43643  23347809.0444         23.2004
        23.4004
 125283418.10943  23840655.911    97623423.74943  23840654.7034         23.2004
        23.0004
