     2.10           OBSERVATION DATA    G (GPS)             RINEX VERSION / TYPE
teqc  2002Mar14                         20110314 18:34:14UTCPGM / RUN BY / DATE
Linux 2.0.36|Pentium II|gcc -static|Linux|486/DX+           COMMENT
teqc  2002Mar14     GSI, JAPAN          20110314 16:58:40UTCCOMMENT
0214                                                        MARKER NAME
GSI, JAPAN          GEOSPATIAL INFORMATION AUTHORITY OF JAPAOBSERVER / AGENCY
00000               TRIMBLE NETRS       Nav 1.11 Sig 0.00   REC # / TYPE / VERS
                    TRM29659.00     GSI                     ANT # / TYPE
 -3959966.0416  3234976.2078  3799714.8448                  APPROX POSITION XYZ
        0.0000        0.0000        0.0000                  ANTENNA: DELTA H/E/N
     1     1                                                WAVELENGTH FACT L1/2
     6    L1    C1    L2    P2    S1    S2                  # / TYPES OF OBSERV
    30.0000                                                 INTERVAL
teqc windowed: start @ 2011 Mar 11 00:00:00.000             COMMENT
teqc windowed:  end  @ 2011 Mar 11 23:59:59.000             COMMENT
  2011     3    11     0     0    0.0000000     GPS         TIME OF FIRST OBS
                                                            END OF HEADER
 11  3 11  0  0  0.0000000  0  9G 2G 4G 5G10G12G13G17G20G23
 -16952060.383 7  22185671.242 7 -13132726.11948  22185664.52748        48.000
        38.0004
 -24635836.629 7  20327858.047 7 -19182603.58349  20327853.64549        51.500
        46.5004
  -6673607.101 6  23917618.922 6  -5192549.03347  23917616.66047        43.000
        27.7504
 -23955228.133 8  20486959.031 8 -18506258.46049  20486954.44149        52.500
        44.2504
  -3308281.834 3  24604754.742 3  -2464718.42346  24604751.77346        37.000
        22.5004
 -22564447.566 7  20940502.250 7 -17570315.90749  20940497.66849        50.750
        44.0004
 -19868454.763 7  21526205.258 7 -15468716.70949  21526201.16849        48.250
        41.7504
   1339730.089 4  24673302.859 4  -1652997.93446  24673301.39846        38.250
        22.5004
 -14086775.255 7  22605608.969 7 -10969146.82548  22605602.69148        49.250
        35.5004
 11  3 11  0  0 30.0000000  0  9G 2G 4G 5G10G12G13G17G20G23
 -17029012.387 6  22171027.750 6 -13192688.68748  22171021.00048        47.250
        38.7504
 -24649657.581 8  20325227.625 8 -19193373.13749  20325223.50849        53.250
        46.2504
  -6757569.401 5  23901642.016 5  -5257974.17547  23901638.81247        42.250
        28.2504
 -23985748.443 7  20481151.125 7 -18530040.49049  20481146.43849        51.750
        44.5004
  -3283354.048 3  24609500.078 3  -2445294.23546  24609496.20346        36.500
        21.7504
 -22569232.987 7  20939591.672 7 -17574044.78449  20939586.91849        51.250
        44.0004
 -19783925.682 7  21542290.555 7 -15402849.93849  21542286.77349        48.250
        41.5004
   1433871.032 5  24691217.773 5  -1579641.47046  24691216.49246        39.500
        21.2504
 -14024466.269 7  22617466.188 7 -10920594.35548  22617459.78948        49.000
        35.7504
 11  3 11  0  1  0.0000000  0  9G 2G 4G 5G10G12G13G17G20G23
 -17105871.013 7  22156402.125 7 -13252578.49948  22156395.78948        47.750
        38.2504
 -24663171.672 8  20322656.461 8 -19203903.57949  20322651.95349        53.750
        46.5004
  -6841351.364 6  23885698.492 6  -5323258.81547  23885696.39847        44.250
        29.7504
 -24015873.194 7  20475418.492 7 -18553514.29149  20475414.02049        51.500
        45.0004
  -3257976.390 3  24614327.711 3  -2425519.48146  24614324.76246        36.000
        22.0004
 -22573383.859 7  20938802.109 7 -17577279.20949  20938797.35249        51.500
        44.0004
 -19699005.712 7  21558450.438 7 -15336678.57649  21558446.35249        48.500
        41.7504
   1527983.012 4  24709125.281 4  -1506307.58146  24709124.52746        38.000
        20.7504
 -13961706.517 7  22629409.219 7 -10871690.63948  22629403.39548        48.750
        36.0004
 11  3 11  0  1 30.0000000  0  9G 2G 4G 5G10G12G13G17G20G23
 -17182636.318 7  22141793.945 7 -13312395.59648  22141787.19548        47.750
        39.0004
 -24676379.210 8  20320143.031 8 -19214195.13149  20320138.83249        53.500
        46.5004
  -6924953.383 6  23869790.344 6  -5388403.24047  23869787.26647        44.000
        28.2504
 -24045604.083 7  20469761.023 7 -18576681.19849  20469756.23849        51.500
        44.5004
  -3232151.523 2  24619243.844 2  -2405396.27546  24619239.75846        35.500
        21.0004
 -22576901.209 7  20938132.695 7 -17580019.97149  20938127.78549        51.000
        44.0004
 -19613698.342 7  21574683.867 7 -15270205.33449  21574679.29749        48.250
        41.7504
   1622064.647 4  24727032.938 4  -1432997.39746  24727027.87946        39.000
        21.5004
 -13898499.001 7  22641436.992 7 -10822438.03748  22641430.75448        49.000
        36.5004
 11  3 11  0  2  0.0000000  0  9G 2G 4G 5G10G12G13G17G20G23
 -17259305.693 7  22127204.227 7 -13372137.93648  22127198.03148        48.000
        38.2504
 -24689278.070 8  20317688.664 8 -19224246.18449  20317684.04349        54.000
        46.7504
  -7008373.927 6  23853914.828 6  -5453406.22547  23853911.43047        43.250
        27.5004
 -24074940.196 7  20464178.422 7 -18599540.48549  20464174.21949        51.000
        44.5004
  -3205879.969 3  24624243.531 3  -2384924.99246  24624239.36346        36.000
        20.5004
 -22579783.724 7  20937584.266 7 -17582266.05549  20937579.32049        51.750
        43.7504
 -19528004.398 7  21590991.211 7 -15203430.85649  21590986.74649        49.000
        42.0004
   1716116.007 4  24744925.742 4  -1359710.76446  24744925.19146        38.500
        21.5004
 -13834844.673 7  22653550.156 7 -10772837.27248  22653543.28948        48.750
        36.5004
 11  3 11  0  2 30.0000000  0  9G 2G 4G 5G10G12G13G17G20G23
 -17335878.551 7  22112633.109 7 -13431805.06948  22112626.26648        48.500
        39.0004
 -24701868.037 8  20315292.625 8 -19234056.54149  20315288.07449        52.500
        46.2504
  -7091613.203 6  23838074.641 6  -5518267.93647  23838072.38347        43.000
        29.0004
 -24103882.740 7  20458670.812 7 -18622093.08749  20458666.50049        51.500
        45.0004
  -3179164.656 3  24629325.266 3  -2364107.88046  24629322.14546        37.000
        21.0004
 -22582032.090 7  20937156.336 7 -17584017.98549  20937151.40649        50.750
        43.5004
 -19441927.262 7  21607370.695 7 -15136357.80749  21607366.48849        48.000
        41.7504
   1810135.709 3  24762819.344 3  -1286448.79846  24762817.14546        36.500
        21.0004
 -13770746.273 7  22665747.594 7 -10722890.48448  22665740.75848        50.000
        36.5004
 11  3 11  0  3  0.0000000  0  9G 2G 4G 5G10G12G13G17G20G23
 -17412353.343 6  22098080.445 6 -13491395.76948  22098073.55948        47.250
        37.7504
 -24714148.559 8  20312955.641 8 -19243625.77149  20312951.12949        52.750
        46.5004
  -7174670.475 5  23822269.555 5  -5582987.82447  23822267.22747        41.000
        28.0004
 -24132432.203 7  20453238.062 7 -18644339.39949  20453233.20749        51.250
        44.7504
  -3152007.136 3  24634494.305 3  -2342946.20446  24634490.29346        36.250
        21.5004
 -22583646.124 7  20936848.898 7 -17585275.64049  20936844.23449        51.250
        44.5004
 -19355469.173 7  21623822.953 7 -15068987.88848  21623819.60948        47.750
        40.5004
   1904122.496 4  24780703.680 4  -1213212.52246  24780701.92646        39.000
        20.7504
 -13706206.773 7  22678029.195 7 -10672599.97448  22678022.80148        49.500
        34.7504
 11  3 11  0  3 30.0000000  0  9G 2G 4G 5G10G12G13G17G20G23
 -17488728.405 6  22083546.781 6 -13550908.79548  22083540.14548        47.250
        39.5004
 -24726118.175 8  20310677.719 8 -19252952.73749  20310673.52349        53.000
        46.5004
  -7257545.346 6  23806499.508 6  -5647565.58847  23806496.61747        44.000
        29.2504
 -24160588.385 7  20447879.891 7 -18666279.25949  20447875.50849        52.000
        44.7504
  -3124409.093 4  24639746.703 4  -2321441.24846  24639742.79746        38.250
        22.0004
 -22584625.325 7  20936662.570 7 -17586038.62449  20936657.67649        51.750
        44.0004
 -19268632.169 7  21640347.555 7 -15001322.69349  21640343.79749        48.500
        41.2504
   1998076.010 3  24798582.188 3  -1140002.10246  24798580.44146        36.000
        19.5004
 -13641226.920 7  22690393.930 7 -10621966.34148  22690388.58248        48.500
        35.2504
 11  3 11  0  4  0.0000000  0  9G 2G 4G 5G10G12G13G17G20G23
 -17565002.696 7  22069031.766 7 -13610343.27748  22069025.93048        47.500
        39.2504
 -24737776.217 8  20308459.336 8 -19262036.91649  20308455.12149        53.500
        46.5004
  -7340237.438 5  23790763.109 5  -5712000.94147  23790761.15647        42.000
        30.5004
 -24188352.414 7  20442596.391 7 -18687913.56549  20442592.21949        51.250
        44.5004
  -3096372.736 4  24645082.594 4  -2299594.76246  24645078.30546        38.750
        22.5004
 -22584970.074 7  20936597.000 7 -17586307.23549  20936592.12149        52.250
        43.7504
 -19181419.123 7  21656944.297 7 -14933364.52049  21656940.38749        49.500
        42.0004
   2091995.270 4  24816455.594 4  -1066818.40446  24816453.05546        38.000
        19.2504
 -13575809.743 7  22702841.867 7 -10570991.93648  22702836.87548        47.500
        34.7504
 11  3 11  0  4 30.0000000  0  9G 2G 4G 5G10G12G13G17G20G23
 -17641174.845 7  22054536.703 7 -13669698.16448  22054531.04348        48.000
        38.5004
 -24749121.881 8  20306300.539 8 -19270877.68849  20306296.12949        53.000
        46.7504
  -7422746.153 6  23775062.422 6  -5776293.32847  23775060.32047        42.750
        30.2504
 -24215724.472 7  20437388.172 7 -18709242.42349  20437383.62549        51.000
        44.5004
  -3067899.620 3  24650499.969 3  -2277407.92946  24650496.46146        37.000
        23.5004
 -22584680.347 7  20936651.828 7 -17586081.43749  20936647.05949        52.000
        43.7504
 -19093831.988 7  21673611.430 7 -14865114.85149  21673607.15649        50.500
        41.7504
   2185879.169 4  24834320.688 4   -993662.21346  24834318.72346        37.750
        19.5004
 -13509956.955 7  22715373.836 7 -10519678.08248  22715368.32448        47.750
        35.0004
 11  3 11  0  5  0.0000000  0  9G 2G 4G 5G10G12G13G17G20G23
 -17717243.123 7  22040061.836 7 -13728972.11448  22040055.26248        48.250
        39.0004
 -24760154.136 8  20304201.078 8 -19279474.25049  20304196.93449        53.500
        46.7504
  -7505070.940 6  23759396.711 6  -5840442.47447  23759394.55947        43.000
        30.5004
 -24242704.816 7  20432253.672 7 -18730266.05549  20432249.09449        51.250
        44.5004
  -3038991.478 4  24656001.367 4  -2254882.13946  24655996.88346        39.000
        22.2504
 -22583756.216 7  20936828.016 7 -17585361.29149  20936823.10949        52.000
        43.7504
 -19005873.277 7  21690349.703 7 -14796575.63548  21690345.70748        50.000
        41.0004
   2279727.283 3  24852179.984 3   -920533.92046  24852178.67646        35.750
        19.0004
 -13443670.863 6  22727987.500 6 -10468026.61548  22727982.30948        47.000
        35.5004
 11  3 11  0  5 30.0000000  0  9G 2G 4G 5G10G12G13G17G20G23
 -17793206.555 7  22025605.992 7 -13788164.37348  22025599.75048        48.000
        38.5004
 -24770872.212 7  20302161.688 7 -19287826.00749  20302157.19949        51.750
        46.7504
  -7587211.441 6  23743766.164 6  -5904447.98647  23743763.51247        43.250
        29.5004
 -24269293.880 7  20427193.875 7 -18750984.79549  20427189.62549        49.500
        44.5004
  -3009650.402 4  24661584.422 4  -2232018.97446  24661581.01246        38.500
        22.5004
 -22582197.765 7  20937124.320 7 -17584146.87949  20937119.70349        50.750
        44.0004
 -18917545.511 7  21707157.508 7 -14727748.86048  21707153.68848        49.500
        40.5004
   2373538.532 3  24870032.992 3   -847434.29545  24870030.80945        36.750
        18.5004
 -13376953.697 7  22740683.281 7 -10416039.21848  22740677.71548        47.500
        35.0004
 11  3 11  0  6  0.0000000  0  9G 2G 4G 5G10G12G13G17G20G23
 -17869062.782 7  22011170.984 7 -13847273.10148  22011164.86748        49.000
        38.7504
 -24781274.483 8  20300181.883 8 -19295931.66749  20300177.59849        53.500
        46.5004
  -7669166.447 6  23728170.445 6  -5968308.98447  23728167.78947        43.250
        30.0004
 -24295491.888 7  20422208.680 7 -18771398.82649  20422203.90649        50.000
        45.2504
  -2979877.901 4  24667250.000 4  -2208819.65346  24667246.75446        37.500
        22.2504
 -22580004.180 7  20937541.805 7 -17582437.56149  20937537.24249        51.250
        43.7504
 -18828850.135 7  21724035.586 7 -14658635.64548  21724032.07448        47.750
        40.5004
   2467312.930 2  24887875.398 2   -774363.37845  24887874.33245        34.250
        18.2504
 -13309806.992 6  22753460.820 6 -10363717.11548  22753455.49648        47.000
        35.2504
 11  3 11  0  6 30.0000000  0  9G 2G 4G 5G10G12G13G17G20G23
 -17944811.582 7  21996756.805 7 -13906298.09848  21996750.33648        48.500
        38.7504
 -24791361.232 7  20298262.344 7 -19303791.46449  20298258.06249        52.000
        46.2504
  -7750936.691 6  23712609.625 6  -6032025.98947  23712606.61347        43.500
        28.7504
 -24321300.113 7  20417297.742 7 -18791509.11049  20417292.66049        50.000
        44.7504
  -2949676.322 4  24672997.719 4  -2185286.01646  24672994.11746        39.000
        22.7504
 -22577176.687 7  20938079.977 7 -17580234.28749  20938075.10549        50.250
        43.7504
 -18739791.015 7  21740983.469 7 -14589238.98449  21740978.88749        49.500
        41.5004
   2561048.51113  24905713.352 3   -701322.63755  24905710.88745        37.0001
        16.7505
 -13242234.249 7  22766319.531 7 -10311063.04748  22766314.32048        48.500
        34.7504
 11  3 11  0  7  0.0000000  0  9G 2G 4G 5G10G12G13G17G20G23
 -18020451.108 7  21982362.891 7 -13965237.97448  21982356.60948        48.750
        39.0004
 -24801131.173 8  20296403.359 8 -19311404.39349  20296399.03949        53.250
        46.5004
  -7832521.241 5  23697084.062 5  -6095598.30747  23697082.35947        40.750
        28.2504
 -24346718.885 7  20412460.172 7 -18811315.92549  20412456.29749        50.500
        45.2504
  -2919047.569 4  24678825.773 4  -2161419.44946  24678821.85246        37.500
        21.7504
 -22573715.284 7  20938738.531 7 -17577537.05949  20938734.03149        50.500
        44.0004
 -18650369.985 7  21757999.672 7 -14519560.30848  21757995.83648        48.750
        40.2504
   2654744.587 1  24923542.078 1   -628312.68545  24923541.12145        33.250
        17.2504
 -13174237.061 7  22779258.961 7 -10258078.23348  22779252.88348        48.000
        34.5004
 11  3 11  0  7 30.0000000  0  9G 2G 4G 5G10G12G13G17G20G23
 -18095979.531 7  21967990.008 7 -14024091.26348  21967984.04748        48.750
        39.0004
 -24810582.877 8  20294604.609 8 -19318769.36849  20294600.12949        53.500
        46.2504
  -7913919.508 6  23681594.281 6  -6159025.44347  23681591.66847        43.750
        28.2504
 -24371748.041 7  20407697.180 7 -18830819.14649  20407693.14149        50.000
        44.7504
  -2887993.044 3  24684735.562 3  -2137221.17346  24684731.81646        35.750
        22.2504
 -22569619.599 7  20939517.867 7 -17574345.58449  20939513.27749        51.250
        43.7504
 -18560589.141 7  21775084.406 7 -14449601.22448  21775079.81648        49.500
        40.5004
   2748400.958 3  24941366.766 3   -555333.73145  24941363.79345        36.000
        18.2504
 -13105816.954 7  22792279.359 7 -10204763.88248  22792273.55948        48.750
        35.0004
 11  3 11  0  8  0.0000000  0  9G 2G 4G 5G10G12G13G17G20G23
 -18171395.430 6  21953638.828 6 -14082856.88048  21953632.87548        47.250
        38.5004
 -24819715.777 8  20292866.852 8 -19325885.88649  20292862.48849        53.500
        46.5004
  -7995130.716 6  23666140.742 6  -6222306.83447  23666137.96147        43.000
        28.5004
 -24396388.205 7  20403008.609 7 -18850019.25749  20403004.09049        51.000
        45.0004
  -2856515.042 1  24690722.797 1  -2112692.93746  24690720.24646        33.500
        21.2504
 -22564889.928 7  20940418.031 7 -17570660.08249  20940412.96549        51.750
        44.0004
 -18470451.163 7  21792236.648 7 -14379363.85548  21792232.52048        49.000
        40.7504
   2842016.509 1  24959177.922 1   -482386.52045  24959175.73845        33.750
        17.7504
 -13036976.869 7  22805379.016 7 -10151122.28148  22805373.03148        48.000
        35.0004
 11  3 11  0  8 30.0000000  0  9G 2G 4G 5G10G12G13G17G20G23
 -18246698.053 7  21939309.453 7 -14141534.21148  21939302.51648        48.500
        39.0004
 -24828529.521 8  20291189.453 8 -19332753.72749  20291185.20349        52.750
        46.5004
  -8076155.359 6  23650722.680 6  -6285442.86847  23650719.37947        44.750
        29.2504
 -24420640.379 7  20398393.727 7 -18868917.03149  20398389.26249        52.000
        45.0004
  -2824616.194 1  24696792.086 1  -2087836.68946  24696791.09046        31.500
        22.5004
 -22559526.982 7  20941438.648 7 -17566481.14549  20941433.84449        52.250
        43.7504
 -18379959.191 7  21809457.094 7 -14308850.64948  21809452.82448        49.250
        40.7504
   2935590.243 3  24976986.367 3   -409471.99145  24976983.75045        36.000
        16.7504
 -12967719.357 7  22818558.141 7 -10097155.41848  22818552.77048        48.000
        34.5004
 11  3 11  0  9  0.0000000  0  9G 2G 4G 5G10G12G13G17G20G23
 -18321884.859 7  21925002.008 7 -14200121.29648  21924995.63348        48.500
        39.0004
 -24837022.453 8  20289573.570 8 -19339371.59649  20289569.50449        54.000
        46.5004
  -8156991.692 5  23635339.867 5  -6348432.18047  23635336.29347        42.250
        29.2504
 -24444504.322 8  20393852.297 8 -18887512.29449  20393848.00449        52.500
        45.2504
  -2792297.638 3  24702944.484 3  -2062653.47146  24702942.64146        35.750
        22.5004
 -22553530.535 8  20942579.508 8 -17561808.56949  20942574.69949        52.750
        43.5004
 -18289114.656 7  21826744.141 7 -14238062.72549  21826740.15249        49.500
        41.2504
   3029121.859 3  24994785.398 3   -336590.11145  24994782.71545        37.000
        16.7504
 -12898045.692 7  22831816.789 7 -10042864.28248  22831811.63348        48.000
        34.7504
 11  3 11  0  9 30.0000000  0 10G 2G 4G 5G 7G10G12G13G17G20G23
 -18396956.132 7  21910716.336 7 -14258618.37448  21910709.53548        47.750
        39.0004
 -24845195.078 8  20288018.258 8 -19345739.87949  20288013.63349        53.250
        46.5004
  -8237641.301 6  23619992.820 6  -6411275.91447  23619989.60947        42.500
        30.7504
    441836.20713  25318869.070 3

 -24467982.113 7  20389384.430 7 -18905806.63549  20389380.28149        51.250
        45.5004
  -2759562.592 3  24709174.328 3  -2037145.72046  24709171.22346        37.000
        22.7504
 -22546902.176 8  20943840.867 8 -17556643.59049  20943836.43849        52.500
        43.5004
 -18197921.576 7  21844097.438 7 -14167003.22748  21844093.19548        49.500
        40.5004
   3122609.275 3  25012575.766 3   -263742.77045  25012572.25845        36.750
        16.7504
 -12827959.864 6  22845153.711 6  -9988251.99048  22845148.40248        46.000
        34.2504
 11  3 11  0 10  0.0000000  0 10G 2G 4G 5G 7G10G12G13G17G20G23
 -18471909.274 6  21896453.273 6 -14317023.39348  21896446.12148        47.000
        39.2504
 -24853045.690 8  20286524.273 8 -19351857.23449  20286519.77349        53.500
        46.5004
  -8318102.721 5  23604681.023 5  -6473973.07047  23604678.02047        42.250
        30.7504
    363254.641 3  25303914.609 3    287422.38956  25303914.64546        35.750
        20.0005
 -24491073.619 7  20384990.289 7 -18923799.98149  20384985.71149        51.000
        45.2504
  -2726412.224 3  24715483.203 3  -2011314.29346  24715479.44146        37.000
        22.7504
 -22539641.315 7  20945222.398 7 -17550985.76449  20945217.73849        51.500
        43.7504
 -18106381.385 7  21861517.375 7 -14095673.25348  21861513.21548        49.750
        41.0004
   3216052.517 3  25030356.258 3   -190929.76645  25030353.77045        37.000
        16.7504
 -12757463.113 6  22858568.828 6  -9933319.50348  22858562.88748        47.000
        34.7504
 11  3 11  0 10 30.0000000  0 10G 2G 4G 5G 7G10G12G13G17G20G23
 -18546742.728 6  21882212.992 6 -14375335.14948  21882206.36748        47.250
        40.7504
 -24860573.042 8  20285091.875 8 -19357722.69149  20285087.52749        53.750
        46.5004
  -8398375.198 6  23589406.023 6  -6536522.96747  23589403.18047        43.000
        31.7504
    284620.447 2  25288951.336 2    226148.98346  25288951.20746        35.500
        20.2504
 -24513778.787 7  20380669.898 7 -18941492.29349  20380665.38349        50.250
        45.0004
  -2692848.625 5  24721870.742 5  -1985160.84846  24721867.13346        39.250
        23.2504
 -22531747.935 7  20946724.508 7 -17544835.04649  20946719.67249        50.750
        44.0004
 -18014496.521 7  21879002.148 7 -14024074.70348  21878997.65648        49.250
        40.7504
   3309451.415 3  25048129.469 3   -118151.36245  25048127.44145        36.000
        17.2504
 -12686557.275 6  22872062.203 6  -9878068.22948  22872056.41048        46.250
        34.0004
 11  3 11  0 11  0.0000000  0 10G 2G 4G 5G 7G10G12G13G17G20G23
 -18621454.892 6  21867995.609 6 -14433552.39948  21867988.71948        47.250
        40.2504
 -24867776.442 8  20283721.125 8 -19363335.72549  20283716.67649        54.250
        46.5004
  -8478458.659 5  23574165.602 5  -6598925.56847  23574163.70347        41.500
        30.5004
    205936.269 2  25273978.031 2    164836.73446  25273977.43846        34.750
        19.5004
 -24536098.518 7  20376422.625 7 -18958884.26849  20376418.00049        50.000
        44.7504
  -2658873.916 4  24728335.430 4  -1958687.05046  24728331.97346        38.750
        24.5004
 -22523222.632 7  20948346.484 7 -17538191.93549  20948342.05149        50.500
        44.0004
 -17922269.520 7  21896552.734 7 -13952209.58548  21896548.23048        49.500
        40.0004
   3402805.037 4  25065895.586 4    -45408.24845  25065892.17245        37.750
        16.2504
 -12615245.054 7  22885632.477 7  -9822500.29348  22885626.18448        47.500
        34.0004
 11  3 11  0 11 30.0000000  0 10G 2G 4G 5G 7G10G12G13G17G20G23
 -18696043.614 6  21853801.898 6 -14491673.46848  21853794.98048        47.250
        39.5004
 -24874654.641 8  20282412.422 8 -19368695.37249  20282407.82449        53.250
        46.7504
  -8558352.002 6  23558963.656 6  -6661180.05247  23558960.61747        43.000
        30.7504
    127205.401 3  25258996.141 3    103488.10846  25258994.80146        36.250
        19.2504
 -24558032.970 7  20372248.602 7 -18975976.02749  20372243.96949        50.000
        44.7504
  -2624489.538 5  24734879.312 5  -1931894.06046  24734875.12546        40.500
        25.0004
 -22514065.242 7  20950089.094 7 -17531056.26949  20950084.30949        50.500
        43.7504
 -17829702.421 6  21914167.055 6 -13880079.45048  21914163.50448        47.250
        39.0004
   3496112.976 3  25083649.844 3     27299.32345  25083647.99245        36.000
        16.7504
 -12543528.144 6  22899279.469 6  -9766617.02848  22899273.44148        46.500
        34.0004
 11  3 11  0 12  0.0000000  0 10G 2G 4G 5G 7G10G12G13G17G20G23
 -18770509.060 7  21839631.289 7 -14549698.47748  21839625.00848        47.750
        40.0004
 -24881208.096 8  20281165.062 8 -19373801.95749  20281160.76249        53.500
        46.5004
  -8638056.093 5  23543795.180 5  -6723287.04547  23543793.22347        40.250
        30.2504
     48428.989 2  25244004.328 2     42103.89446  25244004.69146        35.500
        19.5004
 -24579583.795 7  20368147.453 7 -18992768.85849  20368143.04349        49.750
        44.7504
  -2589698.876 5  24741499.125 5  -1904784.49346  24741495.75446        41.500
        25.0004
 -22504277.638 7  20951951.742 7 -17523429.52649  20951947.24649        50.500
        44.0004
 -17736798.889 7  21931846.758 7 -13807687.18048  21931842.14848        48.750
        39.5004
   3589373.184 2  25101397.914 2     99969.47945  25101394.53945        35.250
        15.5004
 -12471410.080 6  22913003.344 6  -9710421.17948  22912997.77348        46.250
        34.2504
 11  3 11  0 12 30.0000000  0 10G 2G 4G 5G 7G10G12G13G17G20G23
 -18844849.089 6  21825484.953 6 -14607625.74048  21825478.73848        47.000
        39.5004
 -24887435.278 7  20279980.094 7 -19378654.29049  20279975.95349        51.750
        46.7504
  -8717569.993 6  23528665.031 6  -6785245.83647  23528661.59047        42.750
        28.7504
    -30389.210 4  25229006.328 4    -19312.82546  25229006.68846        37.500
        20.7504
 -24600751.113 7  20364119.680 7 -19009262.83549  20364115.06249        50.250
        44.7504
  -2554503.598 5  24748196.547 5  -1877359.66947  24748193.74647        40.750
        26.7504
 -22493859.704 7  20953934.430 7 -17515311.61249  20953929.74649        50.750
        43.5004
 -17643561.198 7  21949589.133 7 -13735034.45848  21949584.75848        50.000
        40.2504
   3682585.433 3  25119134.656 3

 -12398892.775 6  22926803.062 6  -9653914.22648  22926796.89148        46.250
        34.0004
 11  3 11  0 13  0.0000000  0 10G 2G 4G 5G 7G10G12G13G17G20G23
 -18919061.276 6  21811362.766 6 -14665453.39748  21811356.25848        47.250
        40.5004
 -24893334.474 8  20278857.508 8 -19383251.05949  20278853.10949        54.000
        46.7504
  -8796892.543 6  23513570.328 6  -6847055.53547  23513567.06247        42.500
        29.0004
   -109245.332 4  25214001.195 4    -80759.17546  25214000.44146        37.750
        21.5004
 -24621534.628 7  20360164.531 7 -19025457.76349  20360159.95749        50.500
        44.7504
  -2518904.639 5  24754970.609 5  -1849620.26246  24754967.62546        39.500
        26.0004
 -22482810.831 7  20956036.859 7 -17506702.08049  20956031.98049        51.250
        43.7504
 -17549991.033 7  21967395.148 7 -13662122.68448  21967391.03148        50.250
        39.7504
   3775750.133 1  25136863.367 1

 -12325977.569 6  22940678.141 6  -9597097.25148  22940672.08648        46.500
        34.5004
 11  3 11  0 13 30.0000000  0 10G 2G 4G 5G 7G10G12G13G17G20G23
 -18993144.997 7  21797265.195 7 -14723180.94748  21797258.64148        48.250
        40.0004
 -24898906.141 8  20277797.234 8 -19387592.63249  20277793.02749        52.750
        46.5004
  -8876024.468 6  23498511.883 6  -6908716.71947  23498508.81647        42.750
        30.5004
   -188137.903 3  25198987.391 3   -142233.85246  25198989.12946        36.500
        20.5004
 -24641935.916 7  20356282.359 7 -19041354.84349  20356277.61349        51.000
        45.2504
  -2482905.698 4  24761821.102 4  -1821569.19446  24761818.32046        38.250
        25.2504
 -22471132.808 7  20958258.891 7 -17497602.30549  20958254.49649        50.750
        43.5004
 -17456091.859 7  21985263.367 7 -13588954.55348  21985259.66448        50.000
        39.7504
   3868865.014 1  25154582.539 1

 -12252668.046 6  22954628.922 6  -9539972.97548  22954623.21148        47.000
        34.2504
 11  3 11  0 14  0.0000000  0 10G 2G 4G 5G 7G10G12G13G17G20G23
 -19067098.064 7  21783192.719 7 -14780806.70648  21783186.04748        48.000
        40.0004
 -24904148.487 8  20276799.867 8 -19391677.56649  20276795.15249        54.750
        47.0004
  -8954964.848 5  23483489.805 5  -6970228.61447  23483486.37147        42.000
        29.5004
   -267063.542 2  25183968.102 2   -203734.24246  25183968.63746        34.250
        19.7504
 -24661955.179 7  20352472.789 7 -19056954.25749  20352467.98449        51.250
        45.2504
  -2446508.475 4  24768747.617 4  -1793207.75346  24768744.40246        38.000
        24.2504
 -22458825.792 7  20960600.875 7 -17488012.40349  20960596.84049        51.000
        44.0004
 -17361865.742 7  22003194.500 7 -13515531.67848  22003190.72348        49.750
        39.5004
   3961930.448 1  25172293.164 1

 -12178965.830 6  22968653.758 6  -9482542.71348  22968647.77748        46.000
        34.5004
 11  3 11  0 14 30.0000000  0  9G 2G 4G 5G 7G10G12G13G17G23
 -19140918.133 7  21769145.188 7 -14838328.82048  21769138.07848        47.500
        40.0004
 -24909060.045 8  20275865.156 8 -19395504.74549  20275860.66449        54.000
        46.5004
  -9033711.936 5  23468504.688 5  -7031589.88847  23468500.82047        42.000
        30.5004
   -346018.179 3  25168944.773 3   -265257.24546  25168944.23046        36.500
        20.0004
 -24681591.779 8  20348735.930 8 -19072255.47949  20348731.07449        52.500
        45.2504
  -2409713.311 5  24775749.258 5  -1764536.22546  24775746.60946        40.000
        25.7504
 -22445888.976 7  20963062.625 7 -17477931.74749  20963058.24249        51.000
        44.0004
 -17267314.291 7  22021186.656 7 -13441855.26048  22021182.85248        49.500
        39.7504
 -12104872.073 6  22982753.164 6  -9424807.35648  22982746.93448        46.500
        34.0004
 11  3 11  0 15  0.0000000  0  9G 2G 4G 5G 7G10G12G13G17G23
 -19214606.815 7  21755122.469 7 -14895748.54848  21755115.75848        47.750
        40.0004
 -24913642.654 8  20274993.148 8 -19399075.61349  20274988.50049        54.000
        46.5004
  -9112268.985 6  23453555.930 6  -7092803.10547  23453552.81647        43.000
        31.0004
   -425002.237 5  25153914.242 5   -326803.16346  25153912.92646        40.000
        21.2504
 -24700849.699 7  20345071.297 7 -19087261.63549  20345066.62149        51.250
        45.0004
  -2372526.241 5  24782825.961 5  -1735559.34346  24782822.34846        41.000
        25.0004
 -22432326.140 7  20965643.695 7 -17467363.28649  20965638.89549        50.500
        43.7504
 -17172442.792 7  22039240.516 7 -13367929.46848  22039237.11348        49.500
        41.0004
 -12030392.331 6  22996926.180 6  -9366771.21548  22996920.10248        45.500
        34.0004
 11  3 11  0 15 30.0000000  0  9G 2G 4G 5G 7G10G12G13G17G23
 -19288160.501 6  21741125.195 6 -14953063.09648  21741118.60548        47.250
        40.2504
 -24917894.056 8  20274184.203 8 -19402388.37649  20274179.61749        53.000
        46.7504
  -9190633.628 6  23438643.328 6  -7153866.39247  23438639.87147        42.500
        31.2504
   -504010.909 5  25138879.516 5   -388368.26046  25138878.60546        40.500
        22.7504
 -24719727.733 7  20341479.031 7 -19101971.77249  20341474.40649        51.250
        45.0004
  -2334947.488 5  24789976.906 5  -1706277.25446  24789973.12546        39.750
        22.0004
 -22418136.274 7  20968344.156 7 -17456306.22549  20968338.93049        50.750
        43.7504
 -17077252.544 7  22057354.586 7 -13293755.30548  22057351.31648        49.500
        39.0004
 -11955527.288 6  23011172.461 6  -9308434.84847  23011166.75847        45.250
        33.5004
 11  3 11  0 16  0.0000000  0  9G 2G 4G 5G 7G10G12G13G17G23
 -19361577.049 6  21727154.828 6 -15010270.77448  21727148.21948        47.250
        40.2504
 -24921812.556 8  20273438.297 8 -19405441.74949  20273434.41849        53.500
        46.5004
  -9268804.892 5  23423767.609 5  -7214778.98047  23423765.32447        41.500
        31.7504
   -583040.639 3  25123840.508 3   -449949.66346  25123840.33646        37.000
        22.5004
 -24738225.869 7  20337958.828 7 -19116385.89049  20337954.13749        51.750
        45.0004
  -2296978.258 4  24797201.594 4  -1676690.90046  24797198.35246        38.750
        22.7504
 -22403319.271 7  20971163.336 7 -17444760.48849  20971158.68849        51.000
        43.5004
 -16981745.401 7  22075528.883 7 -13219334.24848  22075525.77748        49.500
        39.5004
 -11880279.078 6  23025492.109 6  -9249799.90747  23025486.23047        44.500
        33.5004
 11  3 11  0 16 30.0000000  0  9G 2G 4G 5G 7G10G12G13G17G23
 -19434855.846 6  21713209.906 6 -15067371.12048  21713204.08248        47.250
        40.2504
 -24925398.639 8  20272756.094 8 -19408236.09449  20272751.26649        52.500
        46.7504
  -9346783.443 6  23408929.414 6  -7275541.40047  23408926.19547        43.250
        31.7504
   -662089.926 2  25108796.219 2   -511546.32446  25108797.03546        35.250
        21.2504
 -24756346.005 7  20334510.680 7 -19130505.47349  20334505.91449        50.500
        45.2504
  -2258622.409 4  24804500.523 4  -1646803.26946  24804498.73046        38.250
        24.0004
 -22387876.832 7  20974101.758 7 -17432727.39249  20974097.39149        50.500
        43.2504
 -16885924.936 7  22093763.016 7 -13144668.99548  22093758.73048        50.250
        39.2504
 -11804650.732 6  23039883.406 6  -9190868.76347  23039877.37547        45.000
        32.5004
 11  3 11  0 17  0.0000000  0  9G 2G 4G 5G 7G10G12G13G17G23
 -19507994.691 7  21699292.195 7 -15124362.39248  21699285.98448        47.500
        40.5004
 -24928650.489 8  20272137.078 8 -19410769.98249  20272133.03149        53.750
        46.7504
  -9424568.284 5  23394126.547 5  -7336152.86047  23394123.30547        42.000
        31.2504
   -741155.007 3  25093751.141 3   -573155.24646  25093751.80946        35.750
        20.5004
 -24774087.753 7  20331134.383 7 -19144330.20049  20331129.84449        52.000
        45.0004
  -2219881.178 5  24811872.750 5  -1616615.34146  24811869.70346        39.500
        22.5004
 -22371809.082 7  20977159.422 7 -17420207.03949  20977154.72749        51.000
        44.0004
 -16789792.905 7  22112055.805 7 -13069760.96248  22112052.88748        49.500
        39.5004
 -11728643.923 6  23054347.289 6  -9131642.71647  23054340.61747        45.000
        32.5004
 11  3 11  0 17 30.0000000  0  9G 2G 4G 5G 7G10G12G13G17G23
 -19580992.415 7  21685401.445 7 -15181243.73248  21685394.03948        47.500
        41.0004
 -24931567.687 8  20271582.156 8 -19413043.11549  20271577.38349        52.750
        46.7504
  -9502159.449 6  23379361.602 6  -7396613.40747  23379358.44147        42.500
        30.7504
   -820233.134 2  25078703.047 2   -634774.34646  25078702.60546        35.500
        20.5004
 -24791452.435 7  20327829.922 7 -19157861.10249  20327825.88749        50.250
        45.0004
  -2180757.420 4  24819318.180 4  -1586129.35246  24819315.34846        38.500
        22.7504
 -22355117.227 7  20980336.156 7 -17407200.38749  20980331.83649        51.250
        43.5004
 -16693352.645 7  22130408.727 7 -12994612.75148  22130404.83248        50.500
        39.7504
 -11652261.403 6  23068882.359 6  -9072123.90647  23068875.78547        45.250
        32.2504
 11  3 11  0 18  0.0000000  0  9G 2G 4G 5G 7G10G12G13G17G23
 -19653846.640 7  21671537.531 7 -15238013.22448  21671531.64148        47.500
        40.7504
 -24934149.008 8  20271090.844 8 -19415054.53249  20271086.19149        54.000
        46.5004
  -9579556.018 6  23364633.562 6  -7456922.34847  23364629.88747        42.500
        31.0004
   -899321.337 3  25063652.484 3   -696401.28546  25063652.55146        37.000
        20.2504
 -24808439.887 7  20324597.648 7 -19171098.07649  20324593.01649        51.500
        45.2504
  -2141252.780 5  24826835.273 5  -1555346.58146  24826832.68846        39.750
        22.2504
 -22337801.251 7  20983631.008 7 -17393707.41349  20983626.40249        50.500
        43.7504
 -16596605.893 7  22148818.742 7 -12919225.73348  22148814.83648        49.500
        38.7504
 -11575505.095 6  23083488.680 6  -9012313.83447  23083481.85247        44.250
        31.5004
 11  3 11  0 18 30.0000000  0  9G 2G 4G 5G 7G10G12G13G17G23
 -19726556.955 7  21657701.719 7 -15294670.60048  21657695.01248        48.000
        40.7504
 -24936394.652 8  20270663.328 8 -19416804.38049  20270658.77049        54.000
        46.5004
  -9656758.673 6  23349942.680 6  -7517080.16547  23349939.18447        43.000
        31.7504
   -978417.556 4  25048601.297 4   -758034.43646  25048601.64146        38.500
        22.0004
 -24825052.050 7  20321436.203 7 -19184042.59949  20321431.86349        51.000
        45.0004
  -2101370.123 4  24834424.719 4  -1524269.22246  24834422.09046        38.000
        21.0004
 -22319863.175 7  20987044.445 7 -17379729.69549  20987039.48849        51.000
        43.5004
 -16499556.559 7  22167286.883 7 -12843602.95748  22167282.75448        50.000
        40.2504
 -11498378.405 6  23098165.062 6  -8952215.12647  23098158.93447        44.750
        32.0004
 11  3 11  0 19  0.0000000  0  9G 2G 4G 5G 7G10G12G13G17G23
 -19799121.009 7  21643892.898 7 -15351214.00848  21643886.39548        48.000
        41.0004
 -24938302.892 8  20270300.258 8 -19418291.30849  20270295.89149        54.250
        46.7504
  -9733766.481 6  23335287.711 6  -7577086.16847  23335284.39547        43.500
        31.0004
  -1057518.108 5  25033548.258 5   -819671.01146  25033548.14146        40.500
        24.2504
 -24841288.636 7  20318346.484 7 -19196694.47549  20318341.77749        51.000
        45.0004
  -2061111.388 4  24842086.758 4  -1492898.83346  24842082.32046        38.250
        20.2504
 -22301302.982 7  20990576.406 7 -17365267.20949  20990571.71949        50.500
        43.0004
 -16402206.460 7  22185811.836 7 -12767745.79848  22185808.25048        49.500
        40.0004
 -11420882.805 6  23112912.133 6  -8891828.98647  23112905.90647        45.500
        32.0004
 11  3 11  0 19 30.0000000  0  9G 2G 4G 5G 7G10G12G13G17G23
 -19871537.349 7  21630112.336 7 -15407642.31448  21630105.84848        48.000
        40.5004
 -24939873.546 8  20270001.445 8 -19419515.19949  20269997.27349        54.500
        46.7504
  -9810579.567 6  23320671.273 6  -7636940.40747  23320667.64147        43.000
        30.2504
  -1136620.477 5  25018496.539 5   -881308.98346  25018496.55946        39.500
        22.5004
 -24857150.723 7  20315327.906 7 -19209054.54649  20315323.52749        51.250
        45.5004
  -2020479.321 4  24849817.359 4  -1461237.52546  24849814.51646        38.500
        21.7504
 -22282121.337 7  20994226.406 7 -17350320.47249  20994221.92649        50.000
        43.2504
 -16304558.379 7  22204393.547 7 -12691656.44748  22204390.39848        50.500
        40.5004
 -11343021.077 6  23127728.969 6  -8831157.54847  23127723.16047        45.000
        32.5004
 11  3 11  0 20  0.0000000  0  9G 2G 4G 5G 7G10G12G13G17G23
 -19943804.510 6  21616360.289 6 -15463954.37548  21616353.79748        47.250
        41.0004
 -24941105.596 8  20269766.977 8 -19420475.22449  20269762.71949        54.500
        46.5004
  -9887197.353 6  23306090.984 6  -7696642.51147  23306087.39547        44.000
        30.5004
  -1215721.784 4  25003442.875 4   -942946.13546  25003442.83246        38.000
        21.2504
 -24872639.197 7  20312380.703 7 -19221123.48849  20312375.80549        52.000
        45.2504
  -1979475.919 4  24857621.305 4  -1429286.90246  24857617.23446        37.500
        20.7504
 -22262319.924 7  20997994.578 7 -17334890.79449  20997989.49249        51.250
        43.2504
 -16206615.024 7  22223031.242 7 -12615337.02748  22223028.61748        49.750
        40.2504
 -11264795.823 6  23142614.555 6  -8770202.85447  23142608.91047        45.000
        32.2504
 11  3 11  0 20 30.0000000  0  9G 2G 4G 5G 7G10G12G13G17G23
 -20015919.904 7  21602637.406 7 -15520148.16948  21602630.39548        48.500
        41.0004
 -24941997.581 8  20269597.180 8 -19421170.28049  20269592.85949        53.500
        47.0004
  -9963619.122 6  23291548.562 6  -7756191.86047  23291544.11347        43.000
        30.7504
  -1294818.300 3  24988390.094 3  -1004579.53446  24988391.04346        36.250
        20.0004
 -24887753.947 7  20309504.320 7 -19232901.21549  20309499.78549        52.000
        45.2504
  -1938102.983 3  24865493.891 3  -1397048.28646  24865490.53946        36.000
        19.2504
 -22241898.555 7  21001880.539 7 -17318978.03049  21001875.80949        51.500
        43.2504
 -16108378.601 7  22241725.211 7 -12538789.23148  22241721.80548        49.750
        39.2504
 -11186208.860 6  23157569.055 6  -8708966.30747  23157563.37947        45.500
        33.0004
 11  3 11  0 21  0.0000000  0  9G 2G 4G 5G 7G10G12G13G17G23
 -20087882.522 7  21588943.633 7 -15576222.91948  21588936.90648        48.000
        41.0004
 -24942549.354 8  20269492.266 8 -19421600.23749  20269488.05149        53.500
        46.7504
 -10039845.038 6  23277042.828 6  -7815588.60647  23277039.87547        43.250
        32.2504
  -1373907.779 4  24973341.422 4  -1066207.57146  24973338.92246        39.000
        20.7504
 -24902496.160 7  20306698.875 7 -19244388.64749  20306694.56249        52.250
        45.2504
  -1896363.991 3  24873436.258 3  -1364524.45346  24873432.69946        37.000
        19.0004
 -22220858.732 7  21005884.320 7 -17302583.37449  21005879.78549        52.250
        43.0004
 -16009852.294 7  22260474.250 7 -12462015.55548  22260470.12948        49.750
        38.2504
 -11107263.204 6  23172592.320 6  -8647450.25147  23172586.41047        45.750
        33.0004
 11  3 11  0 21 30.0000000  0  9G 2G 4G 5G 7G10G12G13G17G23
 -20159691.293 7  21575278.641 7 -15632177.78449  21575271.64549        48.250
        41.2504
 -24942760.478 8  20269451.812 8 -19421764.76549  20269447.64149        53.500
        46.5004
 -10115875.019 6  23262575.430 6  -7874832.67747  23262571.34047        42.750
        32.5004
  -1452987.637 5  24958292.500 5  -1127828.10946  24958292.24246        39.500
        22.5004
 -24916867.049 7  20303964.430 7 -19255586.75749  20303960.04749        51.500
        45.5004
  -1854261.003 4  24881449.570 4  -1331717.02446  24881445.82046        39.000
        21.7504
 -22199201.858 7  21010005.734 7 -17285707.89549  21010000.68449        52.000
        43.7504
 -15911039.338 7  22279277.953 7 -12385018.52448  22279273.96548        48.750
        38.0004
 -11027961.614 6  23187682.922 6  -8585656.85647  23187676.89847        45.250
        33.0004
 11  3 11  0 22  0.0000000  0  9G 2G 4G 5G 7G10G12G13G17G23
 -20231343.920 7  21561643.531 7 -15688010.98648  21561637.34848        48.750
        41.0004
 -24942629.889 8  20269476.742 8 -19421663.03149  20269472.37549        53.750
        46.7504
 -10191708.740 5  23248144.062 5  -7933923.83047  23248141.43447        42.250
        32.0004
  -1532054.540 5  24943247.000 5  -1189438.56046  24943246.40646        40.000
        25.0004
 -24930866.978 7  20301300.156 7 -19266495.78349  20301295.76249        52.000
        45.2504
  -1811796.110 4  24889529.812 4  -1298627.57846  24889525.69546        38.750
        21.5004
 -22176928.485 8  21014243.938 8 -17268352.00849  21014239.22749        52.500
        43.5004
 -15811941.634 7  22298135.523 7 -12307799.60248  22298131.82848        49.250
        38.5004
 -10948306.170 6  23202840.867 6  -8523587.71847  23202834.65647        46.000
        32.0004
 11  3 11  0 22 30.0000000  0  9G 2G 4G 5G 7G10G12G13G17G23
 -20302838.429 7  21548038.805 7 -15743720.97349  21548031.92649        48.500
        41.7504
 -24942156.166 8  20269566.992 8 -19421293.90449  20269562.39549        54.250
        46.5004
 -10267345.128 6  23233751.188 6  -7992861.18747  23233747.93447        43.500
        31.7504
  -1611105.495 4  24928203.359 4  -1251036.55246  24928203.17246        38.750
        24.5004
 -24944496.394 7  20298706.789 7 -19277116.12449  20298702.26249        50.000
        45.5004
  -1768971.329 3  24897678.930 3  -1265257.67846  24897676.12146        36.750
        21.5004
 -22154039.244 7  21018599.992 7 -17250516.22649  21018595.00849        52.000
        43.5004
 -15712561.662 7  22317047.227 7 -12230360.73748  22317043.61748        49.250
        38.5004
 -10868298.850 6  23218065.961 6  -8461244.40647  23218059.20747        45.750
        31.7504
 11  3 11  0 23  0.0000000  0  9G 2G 4G 5G 7G10G12G13G17G23
 -20374173.137 7  21534464.141 7 -15799306.45049  21534457.62549        48.000
        41.5004
 -24941338.571 8  20269722.625 8 -19420656.81449  20269718.25449        53.500
        46.5004
 -10342784.402 6  23219395.500 6  -8051644.97347  23219391.60247        43.500
        32.5004
  -1690137.232 5  24913164.953 5  -1312619.57846  24913165.07446        39.500
        25.0004
 -24957756.021 7  20296183.562 7 -19287448.31949  20296178.94549        50.000
        45.2504
  -1725789.184 3  24905896.656 3  -1231609.32346  24905892.12146        36.000
        21.0004
 -22130535.269 7  21023072.609 7 -17232201.42649  21023067.50849        52.000
        43.0004
 -15612902.022 7  22336011.664 7 -12152703.94448  22336008.06648        49.000
        38.7504
 -10787942.306 6  23233357.242 6  -8398628.96047  23233350.64547        46.250
        31.0004
 11  3 11  0 23 30.0000000  0  9G 2G 4G 5G 7G10G12G13G17G23
 -20445347.072 7  21520919.930 7 -15854766.65349  21520913.19949        48.250
        41.5004
 -24940177.215 8  20269943.602 8 -19419751.85349  20269938.89549        54.000
        46.5004
 -10418026.701 6  23205077.539 6  -8110275.25447  23205074.09847        44.000
        32.0004
  -1769147.457 5  24898129.539 5  -1374185.85346  24898128.71946        40.750
        25.0004
 -24970647.246 7  20293730.469 7 -19297493.43949  20293725.58249        51.500
        45.5004
  -1682252.879 3  24914181.992 3  -1197684.94746  24914178.71146        37.250
        21.2504
 -22106418.161 7  21027662.023 7 -17213408.86849  21027656.90649        52.000
        43.7504
 -15512966.215 7  22355029.016 7 -12074831.98348  22355026.03548        48.250
        38.7504
 -10707239.650 6  23248714.469 6  -8335743.81847  23248707.86347        44.500
        31.5004
 11  3 11  0 24  0.0000000  0  9G 2G 4G 5G 7G10G12G13G17G23
 -20516357.822 7  21507407.047 7 -15910099.70148  21507400.41848        48.000
        41.0004
 -24938670.846 8  20270230.297 8 -19418578.06249  20270225.91049        54.000
        46.7504
 -10493071.525 6  23190796.602 6  -8168751.67747  23190793.14547        43.000
        32.2504
  -1848132.955 4  24883098.828 4  -1435732.88046  24883098.28946        39.000
        24.5004
 -24983170.391 7  20291347.398 7 -19307251.72049  20291342.69949        50.000
        45.2504
  -1638364.304 3  24922532.367 3  -1163486.15246  24922529.34446        36.750
        22.0004
 -22081688.790 8  21032367.867 8 -17194139.21449  21032362.75049        52.500
        43.5004
 -15412756.474 7  22374098.547 7 -11996746.55448  22374095.18848        48.000
        38.5004
 -10626192.810 6  23264137.125 6  -8272590.49447  23264130.39847        46.250
        32.2504
 11  3 11  0 24 30.0000000  0  9G 2G 4G 5G 7G10G12G13G17G23
 -20587203.689 7  21493925.508 7 -15965304.25949  21493919.13349        48.250
        42.0004
 -24936818.325 8  20270582.852 8 -19417134.51849  20270578.65249        53.500
        46.7504
 -10567918.052 6  23176553.781 6  -8227073.60647  23176550.65247        44.500
        32.5004
  -1927090.338 5  24868073.180 5  -1497258.03746  24868071.68446        39.500
        22.5004
 -24995326.064 7  20289034.070 7 -19316723.66849  20289029.87949        51.500
        45.5004
  -1594125.705 3  24930950.961 3  -1129014.61546  24930948.14846        37.250
        22.7504
 -22056347.911 7  21037189.766 7 -17174393.08149  21037185.15649        52.000
        43.2504
 -15312275.325 6  22393219.516 6 -11918449.64748  22393216.24248        46.750
        38.5004
 -10544804.117 6  23279624.984 6  -8209170.79347  23279618.55947        45.750
        32.2504
 11  3 11  0 25  0.0000000  0  9G 2G 4G 5G 7G10G12G13G17G23
 -20657883.399 7  21480475.547 7 -16020379.34349  21480469.06649        48.000
        41.2504
 -24934619.291 7  20271001.250 7 -19415421.00449  20270996.85549        52.250
        46.7504
 -10642566.469 6  23162348.500 6  -8285241.13947  23162345.63347        44.000
        32.2504
  -2006017.065 4  24853053.539 4  -1558759.24846  24853052.91046        37.500
        21.5004
 -25007115.361 7  20286790.789 7 -19325910.14549  20286786.06649        51.000
        45.5004
  -1549539.547 3  24939435.383 3  -1094272.23846  24939432.14146        36.500
        21.0004
 -22030396.657 7  21042128.164 7 -17154171.32949  21042123.30149        51.750
        43.2504
 -15211525.641 7  22412391.734 7 -11839943.50048  22412388.97748        47.750
        38.2504
 -10463076.178 6  23295177.391 6  -8145486.72747  23295171.64847        46.500
        32.2504
 11  3 11  0 25 30.0000000  0  9G 2G 4G 5G 7G10G12G13G17G23
 -20728395.371 7  21467058.070 7 -16075323.74448  21467051.32848        48.500
        41.0004
 -24932073.266 8  20271485.445 8 -19413437.08549  20271481.11349        53.000
        46.5004
 -10717016.930 6  23148181.461 6  -8343254.43547  23148177.47747        43.250
        33.0004
  -2084910.484 5  24838040.414 5  -1620234.49546  24838040.55546        39.750
        24.5004
 -25018539.171 7  20284616.836 7 -19334811.81949  20284612.36349        52.250
        45.5004
  -1504608.831 3  24947984.766 3  -1059261.33446  24947982.68046        36.000
        21.2504
 -22003836.751 7  21047182.188 7 -17133475.30649  21047177.46149        52.000
        43.0004
 -15110510.391 6  22431614.094 6 -11761230.41748  22431610.97348        47.000
        38.0004
 -10381012.059 6  23310793.531 6  -8081540.72147  23310787.64147        45.500
        30.5004
 11  3 11  0 26  0.0000000  0  9G 2G 4G 5G 7G10G12G13G17G23
 -20798737.556 7  21453671.961 7 -16130135.81549  21453665.39149        48.750
        42.0004
 -24929179.472 8  20272036.375 8 -19411182.16849  20272032.17249        53.500
        46.7504
 -10791269.102 6  23134051.562 6  -8401113.24447  23134047.47747        43.000
        32.7504
  -2163767.373 4  24823035.406 4  -1681681.29046  24823034.50846        39.000
        22.5004
 -25029598.165 7  20282512.406 7 -19343429.21749  20282507.70349        51.000
        45.5004
  -1459336.206 3  24956602.016 3  -1023984.06946  24956598.03546        36.750
        22.5004
 -21976669.358 8  21052351.992 8 -17112305.91349  21052347.18449        52.750
        42.2504
 -15009232.298 6  22450886.758 6 -11682312.51848  22450883.73848        47.250
        37.5004
 -10298613.833 6  23326473.602 6  -8017334.36547  23326468.72747        46.500
        31.5004
 11  3 11  0 26 30.0000000  0  9G 2G 4G 5G 7G10G12G13G17G23
 -20868908.048 7  21440319.109 7 -16184814.11649  21440312.12949        49.000
        41.7504
 -24925936.745 8  20272653.438 8 -19408655.37249  20272648.97749        53.000
        46.5004
 -10865322.443 6  23119959.555 6  -8458817.10047  23119955.79747        43.750
        31.7504
  -2242584.605 5  24808036.250 5  -1743097.21446  24808036.32446        39.750
        22.5004
 -25040293.006 7  20280477.430 7 -19351762.86149  20280472.86749        50.250
        45.5004
  -1413723.245 4  24965281.609 4   -988441.57346  24965278.71946        37.500
        23.7504
 -21948895.137 7  21057637.445 7 -17090663.66449  21057632.44549        51.500
        42.5004
 -14907693.924 6  22470208.977 6 -11603191.81248  22470205.72348        47.000
        37.2504
 -10215883.825 6  23342216.992 6  -7952869.47047  23342211.07447        47.000
        30.7504
 11  3 11  0 27  0.0000000  0  9G 2G 4G 5G 7G10G12G13G17G23
 -20938905.086 7  21426999.211 7 -16239357.25049  21426992.61349        49.500
        42.0004
 -24922344.129 8  20273337.188 8 -19405855.94049  20273332.54349        53.250
        46.5004
 -10939176.578 6  23105905.414 6  -8516365.72647  23105901.74247        43.000
        32.0004
  -2321358.875 4  24793045.312 4  -1804479.66646  24793044.85946        38.000
        22.5004
 -25050624.217 7  20278511.484 7 -19359813.16349  20278506.89849        51.000
        45.7504
  -1367772.602 4  24974025.703 4   -952635.99246  24974022.43046        37.750
        23.7504
 -21920515.265 7  21063038.008 7 -17068549.46849  21063033.13349        51.500
        42.7504
 -14805897.466 7  22489579.844 7 -11523869.98148  22489576.66048        48.000
        36.7504
 -10132824.069 6  23358022.445 6  -7888147.64247  23358016.96147        46.500
        31.5004
 11  3 11  0 27 30.0000000  0  9G 2G 4G 5G 7G10G12G13G17G23
 -21008727.378 7  21413712.523 7 -16293764.22649  21413705.94949        50.000
        41.7504
 -24918401.431 8  20274087.227 8 -19402783.69349  20274082.85949        52.750
        46.7504
 -11012831.733 6  23091889.312 6  -8573759.31547  23091885.93847        43.000
        33.5004
  -2400087.863 4  24778064.094 4  -1865826.73446  24778064.23046        39.000
        24.5004
 -25060593.218 7  20276614.547 7 -19367581.20849  20276609.89149        50.750
        45.2504
  -1321487.140 3  24982832.656 3   -916569.49146  24982830.50446        36.000
        23.7504
 -21891531.386 7  21068553.352 7 -17045964.62849  21068548.69549        50.750
        43.0004
 -14703846.505 6  22508999.617 6 -11444349.83948  22508996.66848        46.750
        37.0004
 -10049438.165 6  23373890.305 6  -7823171.65647  23373884.61347        46.750
        31.7504
 11  3 11  0 28  0.0000000  0  9G 2G 4G 5G 7G10G12G13G17G23
 -21078373.204 7  21400459.133 7 -16348033.68249  21400452.37949        50.000
        42.0004
 -24914108.065 8  20274904.289 8 -19399438.22849  20274899.82449        53.750
        46.5004
 -11086287.309 6  23077911.180 6  -8630997.36547  23077908.00447        44.250
        33.5004
  -2478768.401 5  24763092.195 5  -1927136.07846  24763090.93846        40.250
        25.5004
 -25070200.697 8  20274785.977 8 -19375067.56249  20274781.69549        52.500
        45.2504
  -1274869.692 3  24991703.602 3   -880244.29546  24991701.36346        36.000
        23.7504
 -21861944.818 8  21074183.625 8 -17022910.16449  21074178.65249        52.750
        43.0004
 -14601543.760 7  22528467.648 7 -11364633.53448  22528464.20748        48.000
        37.5004
  -9965728.220 6  23389819.727 6  -7757943.19047  23389814.14547        47.000
        31.0004
 11  3 11  0 28 30.0000000  0  9G 2G 4G 5G 7G10G12G13G17G23
 -21147840.172 7  21387240.016 7 -16402163.78849  21387233.17649        49.750
        42.0004
 -24909462.973 8  20275788.141 8 -19395818.70549  20275783.99649        53.250
        46.5004
 -11159543.441 6  23063970.844 6  -8688080.02148  23063967.91048        44.000
        33.7504
  -2557397.765 5  24748129.047 5  -1988405.54947  24748129.59447        40.500
        27.2504
 -25079447.139 7  20273026.375 7 -19382272.59749  20273022.26249        52.250
        45.2504
  -1227922.369 3  25000638.000 3   -843662.03446  25000635.51646        37.250
        24.2504
 -21831756.713 7  21079928.141 7 -16999386.96249  21079923.03149        51.500
        43.0004
 -14498991.533 6  22547982.867 6 -11284722.81548  22547979.20348        47.000
        36.2504
  -9881696.449 6  23405810.422 6  -7692463.94747  23405805.27747        46.250
        31.2504
 11  3 11  0 29  0.0000000  0  9G 2G 4G 5G 7G10G12G13G17G23
 -21217126.354 7  21374054.930 7 -16456153.01249  21374048.39149        50.000
        42.2504
 -24904465.365 8  20276739.367 8 -19391924.46549  20276734.93849        53.500
        46.5004
 -11232599.763 6  23050068.609 6  -8745006.98348  23050065.71148        45.500
        33.7504
  -2635972.155 5  24733176.688 5  -2049632.15446  24733175.83646        39.750
        25.7504
 -25088333.529 7  20271335.578 7 -19389197.05449  20271330.77749        51.750
        45.5004
  -1180647.656 4  25009634.641 4   -806824.64846  25009631.23046        38.500
        23.5004
 -21800968.584 7  21085786.594 7 -16975396.20349  21085781.80949        52.250
        43.0004
 -14396192.907 6  22567544.594 6 -11204620.09048  22567540.93048        46.250
        36.2504
  -9797345.799 6  23421862.133 6  -7626736.23647  23421856.41047        46.250
        31.2504
 11  3 11  0 29 30.0000000  0  9G 2G 4G 5G 7G10G12G13G17G23
 -21286230.423 7  21360904.984 7 -16510000.33249  21360898.12149        48.750
        42.0004
 -24899114.249 8  20277757.617 8 -19387754.77749  20277753.35949        53.250
        46.5004
 -11305455.813 6  23036204.969 6  -8801777.88947  23036201.31647        44.500
        33.0004
  -2714488.804 4  24718234.492 4  -2110813.85446  24718234.82046        39.000
        24.0004
 -25096860.350 7  20269712.859 7 -19395841.33849  20269708.97349        50.250
        45.5004
  -1133047.885 4  25018692.102 4   -769734.05346  25018689.45746        38.250
        23.5004
 -21769581.233 7  21091759.672 7 -16950938.54449  21091754.92649        51.000
        42.7504
 -14293149.965 6  22587153.266 6 -11124326.99548  22587150.15248        45.750
        36.5004
  -9712678.149 6  23437974.039 6  -7560761.51647  23437968.16047        46.500
        31.7504
 11  3 11  0 30  0.0000000  0  9G 2G 4G 5G 7G10G12G13G17G23
 -21355150.759 7  21347790.500 7 -16563704.48249  21347783.22349        49.250
        42.2504
 -24893409.611 8  20278843.156 8 -19383309.60449  20278839.10949        52.750
        46.7504
 -11378111.781 6  23022378.953 6  -8858392.87948  23022375.55548        44.250
        34.0004
  -2792945.472 4  24703305.375 4  -2171948.76946  24703304.54746        38.750
        24.5004
 -25105029.034 7  20268158.156 7 -19402206.56349  20268154.01649        51.000
        45.5004
  -1085126.021 4  25027811.375 4   -732392.42746  25027808.18446        37.500
        22.7504
 -21737596.480 7  21097846.406 7 -16926015.35649  21097841.36749        51.250
        42.7504
 -14189866.168 6  22606807.883 6 -11043846.24048  22606804.59448        47.000
        36.0004
  -9627696.620 6  23454145.031 6  -7494542.22547  23454139.77347        45.500
        31.7504
 11  3 11  0 30 30.0000000  0  9G 2G 4G 5G 7G10G12G13G17G23
 -21423885.287 7  21334710.422 7 -16617263.84049  21334703.75849        49.000
        42.7504
 -24887350.310 8  20279996.070 8 -19378588.05249  20279992.02749        53.000
        46.5004
 -11450567.083 6  23008590.711 6  -8914851.51048  23008587.53948        46.000
        34.5004
  -2871338.475 5  24688387.594 5  -2233034.07746  24688387.20346        39.500
        26.0004
 -25112839.619 7  20266672.016 7 -19408292.74349  20266667.37149        51.000
        45.7504
  -1036884.592 5  25036991.773 5   -694801.77646  25036988.94546        39.500
        22.5004
 -21705015.479 8  21104046.148 8 -16900627.57149  21104041.17649        52.500
        42.2504
 -14086343.803 6  22626507.398 6 -10963179.57848  22626504.43448        45.500
        35.7504
  -9542403.395 6  23470375.672 6  -7428080.05447  23470370.18847        45.500
        30.5004
 11  3 11  0 31  0.0000000  0  9G 2G 4G 5G 7G10G12G13G17G23
 -21492432.539 7  21321666.305 7 -16670677.27449  21321659.38349        49.500
        42.5004
 -24880936.163 8  20281216.773 8 -19373590.01549  20281212.76649        53.500
        46.7504
 -11522822.174 6  22994840.898 6  -8971154.15147  22994837.83647        46.000
        33.2504
  -2949665.013 6  24673483.234 6  -2294067.59147  24673482.61747        42.500
        27.2504
 -25120293.645 7  20265253.828 7 -19414101.08849  20265249.15249        51.000
        45.5004
   -988326.206 4  25046231.352 4   -656964.16846  25046229.00446        37.500
        22.5004
 -21671839.810 7  21110359.430 7 -16874776.40649  21110354.35949        52.250
        42.0004
 -13982585.985 6  22646251.805 6 -10882329.45048  22646249.27748        45.500
        36.5004
  -9456801.263 6  23486665.797 6  -7361377.19947  23486660.16847        46.500
        30.0004
 11  3 11  0 31 30.0000000  0  9G 2G 4G 5G 7G10G12G13G17G23
 -21560790.179 7  21308658.562 7 -16723942.96449  21308652.01249        49.750
        42.2504
 -24874165.872 8  20282505.266 8 -19368314.49749  20282501.00449        53.500
        47.0004
 -11594876.220 6  22981129.820 6  -9027300.10647  22981126.24247        45.250
        33.0004
  -3027921.661 5  24658590.281 5  -2355046.65346  24658589.36746        40.250
        25.0004
 -25127391.607 7  20263903.055 7 -19419631.98749  20263898.66049        51.000
        45.7504
   -939453.290 4  25055532.766 4   -618881.45846  25055530.26646        38.000
        22.5004
 -21638071.139 7  21116785.336 7 -16848463.16749  21116780.25049        51.500
        42.7504
 -13878595.121 6  22666040.617 6 -10801297.71348  22666038.25048        45.750
        35.2504
  -9370892.386 6  23503013.164 6  -7294435.28947  23503007.77747        45.750
        30.5004
 11  3 11  0 32  0.0000000  0  9G 2G 4G 5G 7G10G12G13G17G23
 -21628956.432 7  21295686.469 7 -16777059.52149  21295680.00449        49.000
        42.7504
 -24867038.472 8  20283861.422 8 -19362760.72049  20283857.56649        53.000
        46.7504
 -11666728.938 6  22967456.594 6  -9083289.18347  22967451.86747        46.500
        33.2504
  -3106105.767 5  24643712.727 5  -2415969.15446  24643711.65646        42.000
        25.5004
 -25134134.342 7  20262619.664 7 -19424886.08349  20262615.46549        51.500
        45.5004
   -890268.117 5  25064892.016 5   -580555.46546  25064888.90246        39.250
        21.7504
 -21603710.491 7  21123323.844 7 -16821688.65249  21123319.27349        51.500
        42.7504
 -13774374.113 6  22685873.445 6 -10720086.63448  22685870.24248        44.500
        34.2504
  -9284679.354 6  23519419.742 6  -7227256.38947  23519413.12147        45.500
        29.2504
 11  3 11  0 32 30.0000000  0  9G 2G 4G 5G 7G10G12G13G17G23
 -21696929.920 7  21282751.414 7 -16830025.86749  21282744.93449        48.750
        42.5004
 -24859553.861 7  20285285.656 7 -19356928.55449  20285281.58649        51.500
        46.7504
 -11738380.507 6  22953821.320 6  -9139121.53247  22953817.28947        45.000
        33.2504
  -3184214.237 5  24628848.438 5  -2476832.81046  24628847.51246        40.750
        23.5004
 -25140522.750 7  20261404.281 7 -19429864.06549  20261399.94149        51.000
        45.7504
   -840773.975 4  25074310.758 4   -541988.68646  25074306.95346        39.000
        22.5004
 -21568759.743 7  21129974.836 7 -16794454.30449  21129969.92249        51.500
        42.5004
 -13669926.023 6  22705749.633 6 -10638698.62848  22705745.98048        45.000
        34.2504
  -9198165.033 6  23535882.703 6  -7159842.71147  23535877.17647        45.000
        29.2504
 11  3 11  0 33  0.0000000  0  9G 2G 4G 5G 7G10G12G13G17G23
 -21764708.549 7  21269853.758 7 -16882840.37649  21269847.30549        48.750
        43.0004
 -24851711.384 7  20286778.266 7 -19350817.50649  20286773.73849        51.500
        46.7504
 -11809830.820 6  22940225.297 6  -9194797.06948  22940221.93848        46.500
        34.2504
  -3262243.890 5  24614000.766 5  -2537635.00446  24614000.18046        40.250
        25.5004
 -25146557.833 7  20260255.773 7 -19434566.73849  20260251.43449        50.250
        45.5004
   -790972.924 4  25083787.414 4   -503182.77346  25083784.47746        37.750
        22.0004
 -21533220.085 7  21136737.867 7 -16766761.06549  21136733.17649        50.500
        42.7504
 -13565253.337 6  22725668.227 6 -10557135.59848  22725664.54748        45.250
        34.7504
  -9111351.642 6  23552402.883 6  -7092196.00047  23552396.52347        45.500
        28.2504
 11  3 11  0 33 30.0000000  0  9G 2G 4G 5G 7G10G12G13G17G23
 -21832290.590 7  21256992.984 7 -16935501.69949  21256986.52349        49.500
        42.0004
 -24843510.327 7  20288338.828 7 -19344427.07949  20288334.55149        51.500
        46.7504
 -11881079.974 6  22926666.820 6  -9250315.86048  22926663.04348        46.500
        34.5004
  -3340192.296 5  24599167.750 5  -2598373.91147  24599166.30147        41.250
        26.5004
 -25152240.610 7  20259174.812 7 -19438994.88049  20259170.28149        51.750
        46.0004
   -740868.074 3  25093321.125 3   -464140.07646  25093319.23846        36.750
        20.5004
 -21497093.507 7  21143612.250 7 -16738610.48449  21143607.61749        50.500
        42.0004
 -13460359.163 6  22745628.359 6 -10475399.98748  22745625.03548        45.250
        33.7504
  -9024242.038 6  23568979.148 6  -7024318.47547  23568973.25447        45.000
        29.2504
 11  3 11  0 34  0.0000000  0  9G 2G 4G 5G 7G10G12G13G17G23
 -21899673.783 7  21244170.750 7 -16988008.08049  21244163.89549        50.000
        42.2504
 -24834949.687 7  20289967.758 7 -19337756.48049  20289963.74649        51.500
        46.7504
 -11952127.123 6  22913146.953 6  -9305677.23248  22913143.18048        46.000
        34.0004
  -3418055.748 5  24584350.039 5  -2659046.61447  24584349.20747        42.000
        26.5004
 -25157571.301 8  20258160.086 8 -19443148.66749  20258155.67249        52.500
        45.7504
   -690461.587 4  25102914.148 4   -424862.39846  25102910.94946        37.750
        21.7504
 -21460380.764 7  21150598.695 7 -16710003.16349  21150593.45749        50.250
        42.0004
 -13355245.642 6  22765631.398 6 -10393493.44247  22765627.78547        43.750
        33.5004
  -8936838.098 6  23585612.156 6  -6956211.61247  23585605.98047        45.500
        29.5004
 11  3 11  0 34 30.0000000  0  9G 2G 4G 5G 7G10G12G13G17G23
 -21966856.759 7  21231386.508 7 -17040358.43849  21231379.25849        49.750
        42.2504
 -24826029.171 7  20291665.406 7 -19330805.44149  20291661.12149        51.500
        46.7504
 -12022972.607 6  22899665.398 6  -9360881.48648  22899661.86748        46.250
        33.7504
  -3495831.615 4  24569549.492 4  -2719651.06846  24569549.58246        38.500
        25.0004
 -25162551.341 7  20257212.383 7 -19447029.20549  20257207.96549        51.000
        45.7504
   -639756.601 4  25112562.992 4   -385352.10146  25112560.93046        39.000
        21.5004
 -21423084.176 7  21157696.180 7 -16680940.89549  21157690.94549        50.250
        41.7504
 -13249916.161 6  22785674.797 6 -10311418.60648  22785671.82048        43.750
        34.0004
  -8849143.077 6  23602299.625 6  -6887877.92747  23602294.20747        44.750
        29.0004
 11  3 11  0 35  0.0000000  0  9G 2G 4G 5G 7G10G12G13G17G23
 -22033836.922 7  21218640.242 7 -17092550.77649  21218633.64849        51.000
        42.5004
 -24816747.505 7  20293431.648 7 -19323572.98749  20293427.41849        51.750
        46.7504
 -12093615.687 6  22886222.695 6  -9415928.00248  22886218.85248        46.500
        33.7504
  -3573516.248 4  24554766.164 4  -2780184.40746  24554764.58246        39.000
        22.5004
 -25167181.068 8  20256331.422 8 -19450636.78449  20256326.87549        52.750
        45.5004
   -588755.404 3  25122267.891 3   -345611.00946  25122264.60946        36.500
        19.2504
 -21385204.727 7  21164904.336 7 -16651424.44649  21164899.02049        50.500
        42.2504
 -13144373.082 6  22805759.477 6 -10229177.34548  22805757.28548        44.000
        34.7504
  -8761158.681 6  23619042.664 6  -6819318.76847  23619036.83647        45.500
        29.7504
 11  3 11  0 35 30.0000000  0  9G 2G 4G 5G 7G10G12G13G17G23
 -22100612.993 7  21205933.594 7 -17144584.07549  21205926.77349        50.500
        42.7504
 -24807104.267 7  20295266.797 7 -19316058.78649  20295262.35249        51.500
        46.7504
 -12164056.500 6  22872817.484 6  -9470816.89848  22872814.53148        46.500
        34.5004
  -3651107.058 4  24540001.023 4  -2840644.67646  24540000.74646        38.750
        25.2504
 -25171461.566 7  20255516.992 7 -19453972.23849  20255512.25049        52.250
        45.5004
   -537460.169 3  25132029.344 3   -305640.78446  25132026.57446        36.000
        20.7504
 -21346744.234 7  21172222.898 7 -16621455.24749  21172218.14149        50.250
        42.2504
 -13038619.244 6  22825882.906 6 -10146771.89048  22825881.21548        43.500
        34.2504
  -8672887.978 6  23635840.219 6  -6750536.48847  23635834.37547        44.500
        29.0004
 11  3 11  0 36  0.0000000  0  9G 2G 4G 5G 7G10G12G13G17G23
 -22167183.164 7  21193265.305 7 -17196456.94249  21193258.33649        50.500
        42.7504
 -24797099.227 7  20297170.750 7 -19308262.66649  20297166.23849        51.500
        46.7504
 -12234295.366 6  22859452.078 6  -9525548.44148  22859448.60948        46.000
        33.7504
  -3728601.195 5  24525254.586 5  -2901029.57647  24525254.09847        39.500
        27.0004
 -25175393.942 8  20254768.391 8 -19457036.41349  20254764.03949        53.000
        45.5004
   -485874.094 2  25141845.078 2   -265443.90146  25141842.49246        34.250
        21.0004
 -21307704.685 7  21179651.758 7 -16591034.83849  21179647.10949        50.000
        41.7504
 -12932657.732 6  22846047.141 6 -10064204.61647  22846045.29347        44.250
        33.5004
  -8584333.602 6  23652691.547 6  -6681533.16347  23652685.95747        45.000
        30.0004
 11  3 11  0 36 30.0000000  0  9G 2G 4G 5G 7G10G12G13G17G23
 -22233545.743 7  21180636.938 7 -17248168.05449  21180630.11749        51.250
        42.7504
 -24786731.785 7  20299143.500 7 -19300184.15149  20299139.51249        51.500
        46.7504
 -12304332.166 6  22846124.102 6  -9580122.56048  22846120.91048        46.250
        34.0004
  -3805995.693 5  24510526.875 5  -2961336.84646  24510526.02746        39.750
        25.5004
 -25178979.452 7  20254086.195 7 -19459830.31449  20254082.01249        51.500
        45.7504
   -434000.152 3  25151716.953 3   -225022.79046  25151714.80146        36.250
        20.2504
 -21268087.723 7  21187190.734 7 -16560164.50049  21187185.89549        49.750
        42.0004
 -12826491.525 6  22866250.289 6  -9981477.84247  22866247.96947        44.000
        33.0004
  -8495498.165 6  23669596.242 6  -6612310.84947  23669591.19947        43.750
        29.0004
 11  3 11  0 37  0.0000000  0  9G 2G 4G 5G 7G10G12G13G17G23
 -22299698.267 7  21168048.734 7 -17299715.48049  21168041.72349        50.500
        42.7504
 -24776000.668 7  20301185.414 7 -19291822.23049  20301181.03949        52.000
        46.5004
 -12374165.733 6  22832835.539 6  -9634538.27148  22832831.71148        46.250
        34.2504
  -3883286.968 5  24495819.125 5  -3021563.71947  24495817.41847        40.000
        27.2504
 -25182218.084 8  20253470.141 8 -19462353.92849  20253465.82849        52.750
        45.5004
   -381840.301 2  25161642.914 2   -184378.76346  25161640.48846        34.250
        20.5004
 -21227894.445 7  21194839.094 7 -16528845.09649  21194834.07449        50.000
        42.0004
 -12720122.625 6  22886492.141 6  -9898593.11247  22886489.48047        44.750
        32.2504
  -8406383.642 6  23686553.961 6  -6542871.02447  23686549.50847        44.250
        30.0004
 11  3 11  0 37 30.0000000  0  9G 2G 4G 5G 7G10G12G13G17G23
 -22365639.619 7  21155500.031 7 -17351098.34349  21155493.49649        49.500
        42.5004
 -24764906.457 7  20303296.625 7 -19283177.41449  20303292.28149        51.750
        46.7504
 -12443797.198 6  22819585.469 6  -9688796.52848  22819580.99248        46.500
        34.5004
  -3960472.825 5  24481131.328 5  -3081708.42347  24481129.69147        40.500
        27.2504
 -25185111.620 8  20252919.594 8 -19464608.62249  20252914.71949        53.500
        45.7504
   -329398.468 2  25171622.555 2   -143515.12646  25171619.89846        35.500
        19.5004
 -21187127.643 7  21202596.906 7 -16497078.78649  21202592.03549        50.500
        42.0004
 -12613554.965 6  22906770.680 6  -9815553.49747  22906769.16047        46.250
        32.0004
  -8316993.524 6  23703564.320 6  -6473216.48347  23703559.18447        45.250
        28.7504
 11  3 11  0 38  0.0000000  0  9G 2G 4G 5G 7G10G12G13G17G23
 -22431367.294 7  21142992.594 7 -17402314.71649  21142985.97349        50.500
        42.5004
 -24753447.487 8  20305477.164 8 -19274248.34749  20305473.01249        52.500
        46.7504
 -12513225.891 6  22806373.258 6  -9742896.78448  22806369.10248        45.500
        34.5004
  -4037549.598 5  24466463.289 5  -3141768.11946  24466461.91046        41.250
        24.7504
 -25187660.453 7  20252434.203 7 -19466594.72949  20252429.55149        51.500
        45.5004
   -276676.470 4  25181655.859 4   -102433.16746  25181652.36746        37.500
        21.0004
 -21145788.348 7  21210464.055 7 -16464866.37649  21210458.80949        50.750
        42.5004
 -12506790.351 6  22927088.250 6  -9732360.40247  22927085.96547        45.250
        33.0004
  -8227329.749 6  23720626.602 6  -6403348.66547  23720621.27747        43.500
        27.0004
 11  3 11  0 38 30.0000000  0  9G 2G 4G 5G 7G10G12G13G17G23
 -22496879.598 7  21130526.094 7 -17453363.26149  21130519.36349        50.750
        43.2504
 -24741623.569 7  20307727.672 7 -19265034.91349  20307722.72349        52.000
        46.7504
 -12582451.836 6  22793199.859 6  -9796839.04348  22793196.21948        47.000
        34.5004
  -4114514.194 5  24451818.000 5  -3201740.37646  24451815.45346        40.250
        25.0004
 -25189865.537 8  20252014.766 8 -19468312.99649  20252010.23849        52.750
        45.7504
   -223677.036 3  25191740.750 3    -61135.02846  25191738.55546        36.250
        22.7504
 -21103878.362 7  21218438.797 7 -16432209.27949  21218434.05949        51.000
        42.2504
 -12399831.898 6  22947441.117 6  -9649016.26047  22947439.68447        47.000
        33.2504
  -8137394.964 6  23737741.016 6  -6333269.68247  23737735.83647        43.000
        28.5004
 11  3 11  0 39  0.0000000  0  9G 2G 4G 5G 7G10G12G13G17G23
 -22562174.477 7  21118101.141 7 -17504242.38749  21118094.01649        50.250
        43.2504
 -24729433.868 7  20310046.844 7 -19255536.45049  20310042.52049        51.500
        46.5004
 -12651474.389 6  22780064.938 6  -9850622.82548  22780061.16048        46.000
        35.0004
  -4191363.662 5  24437193.758 5  -3261623.05146  24437191.43846        40.500
        25.2504
 -25191727.749 7  20251660.391 7 -19469764.06849  20251655.75849        52.000
        45.5004
   -170402.808 2  25201878.156 2    -19622.72146  25201876.21546        34.000
        21.0004
 -21061399.293 7  21226522.438 7 -16399108.73249  21226517.70349        50.000
        41.2504
 -12292682.366 6  22967831.039 6  -9565523.24947  22967829.59847        44.500
        32.7504
  -8047191.412 6  23754906.469 6  -6262981.28847  23754900.50047        43.000
        28.0004
 11  3 11  0 39 30.0000000  0  9G 2G 4G 5G 7G10G12G13G17G23
 -22627249.849 7  21105717.812 7 -17554950.46149  21105710.89149        51.500
        43.2504
 -24716877.726 7  20312436.281 7 -19245752.46649  20312431.74249        51.500
        46.5004
 -12720293.804 6  22766969.195 6  -9904248.30048  22766965.81248        46.500
        35.0004
  -4268094.914 5  24422592.367 5  -3321413.52146  24422590.54346        40.250
        26.0004
 -25193248.244 8  20251371.172 8 -19470948.87149  20251366.00849        52.500
        46.0004
   -116856.657 3  25212067.828 3     22101.47146  25212065.78946        36.250
        20.5004
 -21018353.126 7  21234714.125 7 -16365566.28949  21234709.23849        50.500
        42.2504
 -12185344.474 6  22988257.023 6  -9481883.48247  22988254.90647        44.000
        32.0004
  -7956721.897 6  23772122.508 6  -6192485.60747  23772116.33247        43.500
        26.5004
 11  3 11  0 40  0.0000000  0  9G 2G 4G 5G 7G10G12G13G17G23
 -22692104.301 7  21093376.391 7 -17605486.40849  21093369.05949        51.500
        43.0004
 -24703955.044 7  20314895.367 7 -19235682.86749  20314890.46949        51.250
        46.5004
 -12788910.212 6  22753911.508 6  -9957715.59848  22753908.44548        45.250
        34.5004
  -4344705.058 5  24408014.180 5  -3381109.62547  24408011.87947        40.500
        28.2504
 -25194428.146 7  20251146.703 7 -19471868.26749  20251142.35549        50.250
        46.0004
    -63041.783 3  25222309.047 3     64035.05646  25222306.05546        36.500
        21.5004
 -20974741.779 7  21243013.039 7 -16331583.44549  21243008.14549        50.250
        41.7504
 -12077821.422 6  23008718.008 6  -9398099.42147  23008716.06647        45.000
        31.7504
  -7865989.137 6  23789388.266 6  -6121784.83047  23789382.08247        42.500
        28.5004
 11  3 11  0 40 30.0000000  0  9G 2G 4G 5G 7G10G12G13G17G23
 -22756735.910 7  21081077.391 7 -17655848.71049  21081070.41849        51.250
        43.5004
 -24690664.790 7  20317424.383 7 -19225326.87049  20317420.15249        51.250
        46.5004
 -12857323.395 6  22740893.414 6 -10011024.55248  22740889.78548        46.000
        34.7504
  -4421190.934 5  24393459.367 5  -3440708.87047  24393457.41847        42.000
        27.5004
 -25195267.699 7  20250986.711 7 -19472522.45149  20250982.30949        50.500
        46.0004
     -8960.200 4  25232601.000 4    106176.45346  25232597.96546        38.000
        22.2504
 -20930566.888 7  21251419.172 7 -16297161.47349  21251414.15649        50.000
        41.2504
 -11970115.824 6  23029213.414 6  -9314173.12947  23029211.26647        43.500
        31.0004
  -7774995.453 6  23806703.805 6  -6050880.71347  23806697.87947        43.000
        27.0004
 11  3 11  0 41  0.0000000  0  9G 2G 4G 5G 7G10G12G13G17G23
 -22821141.711 7  21068821.047 7 -17706035.06249  21068814.68849        50.500
        43.2504
 -24677005.892 7  20320023.648 7 -19214683.58749  20320019.32449        51.250
        46.5004
 -12925532.621 6  22727913.633 6 -10064174.57248  22727909.78148        46.000
        34.5004
  -4497548.951 5  24378927.992 5  -3500208.49047  24378926.53147        41.000
        28.5004
 -25195767.673 7  20250891.523 7 -19472912.03749  20250886.80149        51.500
        45.7504
     45385.449 2  25242942.297 2    148523.66446  25242939.77346        35.500
        21.5004
 -20885829.891 7  21259932.062 7 -16262301.48849  21259927.37149        49.750
        41.2504
 -11862229.844 6  23049743.938 6  -9230106.27447  23049740.98047        44.000
        30.5004
  -7683742.703 5  23824068.492 5  -5979774.74147  23824062.78147        41.750
        27.2504
 11  3 11  0 41 30.0000000  0  9G 2G 4G 5G 7G10G12G13G17G23
 -22885321.318 7  21056608.258 7 -17756045.14749  21056601.49249        50.750
        43.2504
 -24662979.065 7  20322693.078 7 -19203753.61149  20322688.80949        51.500
        46.5004
 -12993538.825 6  22714972.188 6 -10117166.39148  22714969.16048        46.500
        35.2504
  -4573777.065 5  24364422.211 5  -3559606.85047  24364421.09047        42.000
        28.2504
 -25195930.216 7  20250860.500 7 -19473038.70049  20250856.00849        52.000
        45.5004
     99991.706 3  25253333.242 3    191073.84146  25253330.76246        36.250
        20.2504
 -20840533.715 7  21268551.750 7 -16227005.78749  21268546.84449        50.000
        41.5004
 -11754167.467 6  23070307.461 6  -9145901.95347  23070304.59447        42.500
        29.2504
  -7592234.852 6  23841482.523 6  -5908469.99347  23841476.55947        43.750
        28.0004
 11  3 11  0 42  0.0000000  0  9G 2G 4G 5G 7G10G12G13G17G23
 -22949271.596 7  21044439.000 7 -17805876.53249  21044431.55549        50.750
        43.0004
 -24648582.780 7  20325432.312 7 -19192535.73349  20325428.24249        51.500
        46.7504
 -13061340.977 6  22702070.523 6 -10169999.21548  22702066.18448        46.500
        35.5004
  -4649871.196 5  24349942.242 5  -3618900.94347  24349941.26647        40.500
        27.2504
 -25195755.216 7  20250894.016 7 -19472902.32049  20250889.75049        51.500
        45.7504
    154856.292 3  25263773.289 3    233825.41446  25263772.33646        35.750
        20.0004
 -20794679.319 7  21277277.250 7 -16191275.10749  21277272.85549        50.000
        41.2504
 -11645930.679 5  23090904.367 5  -9061561.69447  23090901.68447        42.000
        29.5004
  -7500473.502 6  23858944.000 6  -5836967.72747  23858938.54347        42.500
        28.2504
 11  3 11  0 42 30.0000000  0  9G 2G 4G 5G 7G10G12G13G17G23
 -23012991.346 7  21032313.672 7 -17855528.30249  21032306.60549        50.750
        43.0004
 -24633816.873 7  20328242.266 7 -19181029.84949  20328238.08249        51.500
        46.5004
 -13128939.395 6  22689206.469 6 -10222673.27048  22689202.60948        45.750
        34.5004
  -4725828.986 5  24335487.703 5  -3678088.65946  24335484.84446        40.000
        25.5004
 -25195243.702 7  20250991.164 7 -19472503.75049  20250986.62949        50.500
        45.5004
    209976.560 3  25274263.492 3    276776.22346  25274260.34846        36.000
        21.0004
 -20748268.905 7  21286109.352 7 -16155111.17249  21286104.43849        50.000
        41.7504
 -11537522.419 6  23111533.898 6  -8977087.86747  23111531.73447        43.000
        30.5004
  -7408461.372 5  23876453.062 5  -5765270.03846  23876447.70346        42.250
        25.7504
 11  3 11  0 43  0.0000000  0  9G 2G 4G 5G 7G10G12G13G17G23
 -23076478.633 7  21020232.586 7 -17904998.93549  21020225.45349        51.250
        43.5004
 -24618680.780 7  20331122.719 7 -19169235.50749  20331118.28949        51.500
        46.5004
 -13196334.334 7  22676381.797 7 -10275188.78548  22676377.30548        48.250
        34.5004
  -4801647.402 5  24321060.133 5  -3737167.81146  24321057.34446        40.000
        25.5004
 -25194396.608 7  20251152.469 7 -19471843.67349  20251147.75049        51.750
        46.0004
    265349.291 1  25284800.391 1    319923.76746  25284797.93446        33.750
        19.2504
 -20701304.762 7  21295046.312 7 -16118515.74549  21295041.39149        50.000
        41.2504
 -11428945.903 6  23132196.148 6  -8892482.90447  23132192.80947        44.500
        31.7504
  -7316201.357 6  23894009.859 6  -5693379.18547  23894004.42247        43.000
        28.5004
 11  3 11  0 43 30.0000000  0  9G 2G 4G 5G 7G10G12G13G17G23
 -23139730.502 7  21008195.930 7 -17954286.12149  21008189.14149        51.500
        43.5004
 -24603173.512 7  20334073.641 7 -19157151.91449  20334069.10549        51.250
        46.5004
 -13263525.293 6  22663595.750 6 -10327545.37048  22663592.04348        47.250
        35.2504
  -4877322.798 5  24306658.977 5  -3796135.53746  24306657.34046        39.500
        23.0004
 -25193214.565 7  20251377.406 7 -19470922.61149  20251373.04349        52.000
        46.0004
    320972.305 3  25295384.383 3    363266.25746  25295381.88746        36.250
        19.7504
 -20653788.023 7  21304088.430 7 -16081489.72749  21304083.77749        50.500
        41.5004
 -11320203.240 6  23152889.125 6  -8807748.50247  23152886.96947        43.750
        32.2504
  -7223695.389 6  23911613.039 6  -5621296.72647  23911607.82047        42.750
        26.2504
 11  3 11  0 44  0.0000000  0  9G 2G 4G 5G 7G10G12G13G17G23
 -23202745.193 7  20996204.328 7 -18003388.48049  20996197.72749        50.000
        43.2504
 -24587294.456 7  20337095.258 7 -19144778.60349  20337091.16849        51.250
        46.2504
 -13330511.964 6  22650848.875 6 -10379742.72948  22650844.59848        45.500
        35.0004
  -4952852.094 5  24292285.820 5  -3854989.40746  24292283.33646        40.000
        24.2504
 -25191698.594 8  20251665.945 8 -19469741.34649  20251661.48449        52.500
        46.2504
    376842.554 3  25306017.211 3    406801.40646  25306013.26646        36.750
        20.7504
 -20605720.976 7  21313235.594 7 -16044034.89349  21313230.71549        50.000
        41.5004
 -11211297.554 6  23173612.438 6  -8722887.05447  23173610.47747        43.000
        30.7504
  -7130946.071 6  23929262.844 6  -5549024.60847  23929257.39147        43.000
        27.5004
 11  3 11  0 44 30.0000000  0  9G 2G 4G 5G 7G10G12G13G17G23
 -23265521.697 7  20984258.766 7 -18052305.24849  20984251.83249        51.750
        43.5004
 -24571044.027 7  20340187.555 7 -19132115.95449  20340183.57849        52.250
        46.2504
 -13397295.098 7  22638140.383 7 -10431781.51348  22638135.68448        47.500
        35.5004
  -5028232.868 5  24277941.328 5  -3913727.56947  24277939.20747        42.000
        27.5004
 -25189850.535 8  20252017.688 8 -19468301.29049  20252012.90249        52.500
        45.5004
    432956.921 3  25316693.844 3    450526.81546  25316693.10546        36.250
        19.5004
 -20557106.008 7  21322486.570 7 -16006153.10949  21322481.56649        50.500
        41.2504
 -11102231.803 6  23194367.125 6  -8637900.86247  23194365.12547        44.000
        31.0004
  -7037956.399 5  23946957.859 5  -5476565.23047  23946953.41047        41.000
        28.5004
 11  3 11  0 45  0.0000000  0  9G 2G 4G 5G 7G10G12G13G17G23
 -23328057.545 7  20972358.703 7 -18101034.49149  20972351.75849        51.750
        43.5004
 -24554421.304 7  20343350.875 7 -19119163.22749  20343346.62949        52.250
        46.5004
 -13463873.863 6  22625470.641 6 -10483661.02648  22625466.80148        46.750
        35.5004
  -5103461.669 5  24263625.859 5  -3972347.29347  24263624.77047        42.000
        28.5004
 -25187670.873 7  20252432.148 7 -19466602.86649  20252427.48849        52.000
        45.5004
    489313.071 3  25327419.836 3    494440.60746  25327416.32046        35.750
        19.0004
 -20507945.115 7  21331841.500 7 -15967845.93349  21331836.83649        50.000
        41.7504
 -10993008.360 6  23215152.180 6  -8552791.87747  23215149.66847        44.500
        31.7504
  -6944728.684 5  23964698.641 5  -5403920.38647  23964694.20347        42.000
        29.5004
 11  3 11  0 45 30.0000000  0  9G 2G 4G 5G 7G10G12G13G17G23
 -23390351.040 7  20960504.539 7 -18149574.87149  20960497.65249        50.750
        43.5004
 -24537425.565 8  20346585.289 8 -19105919.82449  20346580.71949        52.500
        46.5004
 -13530248.347 6  22612839.875 6 -10535381.38648  22612836.28548        47.250
        36.0004
  -5178535.629 5  24249339.773 5  -4030846.36847  24249337.88747        40.750
        29.0004
 -25185160.207 8  20252910.125 8 -19464646.52549  20252905.42649        52.500
        45.7504
    545907.788 3  25338189.117 3    538540.31746  25338186.88346        36.500
        20.2504
 -20458239.932 7  21341300.102 7 -15929114.62848  21341295.07848        50.500
        40.7504
 -10883630.605 6  23235966.500 6  -8467562.61447  23235964.03147        43.750
        30.7504
  -6851265.335 5  23982484.164 5  -5331091.91447  23982480.05547        41.750
        27.2504
 11  3 11  0 46  0.0000000  0  9G 2G 4G 5G 7G10G12G13G17G23
 -23452399.495 7  20948697.141 7 -18197924.32149  20948690.00049        51.500
        44.0004
 -24520056.090 8  20349890.422 8 -19092385.14749  20349885.69949        52.500
        46.5004
 -13596418.462 6  22600248.094 6 -10586942.48848  22600244.35248        46.500
        36.0004
  -5253451.302 4  24235082.922 4  -4089222.06047  24235082.80547        39.000
        27.0004
 -25182319.598 7  20253450.766 7 -19462433.06249  20253446.18449        52.000
        45.7504
    602738.869 2  25349003.836 2    582824.24346  25349001.46546        34.750
        19.5004
 -20407992.415 7  21350861.805 7 -15889960.74249  21350857.23049        51.500
        41.2504
 -10774101.004 6  23256809.062 6  -8382215.02747  23256807.86347        43.000
        31.5004
  -6757568.938 5  24000314.602 5  -5258081.85947  24000309.87947        41.250
        26.2504
 11  3 11  0 46 30.0000000  0  8G 2G 4G 5G 7G10G13G17G23
 -23514199.396 7  20936936.711 7 -18246080.09849  20936930.05549        50.750
        43.5004
 -24502310.764 8  20353267.125 8 -19078557.62549  20353262.69949        52.750
        46.2504
 -13662382.472 6  22587695.406 6 -10638342.99648  22587692.24248        47.000
        36.2504
  -5328203.824 4  24220857.992 4  -4147470.64247  24220856.74647        38.750
        26.7504
 -25179148.240 7  20254054.273 7 -19459961.88049  20254049.86349        51.000
        46.0004
 -20357202.415 7  21360526.820 7 -15850384.12848  21360521.67248        50.750
        40.7504
 -10664420.556 5  23277680.641 5  -8296749.84947  23277679.78947        42.000
        31.5004
  -6663640.077 5  24018188.617 5  -5184890.64447  24018183.59847        42.250
        28.7504
 11  3 11  0 47  0.0000000  0  8G 2G 4G 5G 7G10G13G17G23
 -23575753.109 7  20925223.398 7 -18294044.04449  20925216.55149        51.000
        43.5004
 -24484193.439 7  20356714.797 7 -19064440.26549  20356710.48049        52.250
        46.5004
 -13728144.233 7  22575181.961 7 -10689585.89548  22575178.09448        47.500
        36.2504
  -5402794.650 5  24206663.625 5  -4205593.20147  24206663.37147        40.000
        27.7504
 -25175651.183 7  20254719.570 7 -19457236.89349  20254715.05149        52.250
        45.5004
 -20305876.978 7  21370293.750 7 -15810390.28848  21370288.91848        51.000
        40.0004
 -10554596.293 5  23298579.922 5  -8211172.61747  23298577.79747        42.000
        29.7504
  -6569485.677 6  24036105.508 6  -5111523.68347  24036100.25447        42.500
        27.0004
 11  3 11  0 47 30.0000000  0  8G 2G 4G 5G 7G10G13G17G23
 -23637056.061 7  20913557.742 7 -18341812.58849  20913551.21949        51.000
        43.5004
 -24465700.964 7  20360233.688 7 -19050030.57749  20360229.44949        52.000
        46.5004
 -13793701.442 6  22562706.203 6 -10740669.40148  22562702.46148        46.000
        35.5004
  -5477218.078 5  24192502.039 5  -4263585.33147  24192499.64547        41.750
        27.0004
 -25171827.118 8  20255447.234 8 -19454257.10749  20255442.78549        52.750
        45.7504
 -20254015.872 7  21380162.711 7 -15769979.05149  21380157.78149        50.500
        41.5004
 -10444628.806 6  23319506.375 6  -8125483.81247  23319503.19547        42.500
        28.7504
  -6475105.644 5  24054065.656 5  -5037980.91147  24054060.57047        42.000
        27.2504
 11  3 11  0 48  0.0000000  0  8G 2G 4G 5G 7G10G13G17G23
 -23698107.135 7  20901940.555 7 -18389384.85549  20901933.77749        51.000
        44.0004
 -24446833.715 7  20363823.969 7 -19035328.81149  20363819.84849        52.000
        46.2504
 -13859054.560 6  22550270.148 6 -10791593.87948  22550266.69948        45.750
        35.7504
  -5551471.812 6  24178372.375 6  -4321445.27747  24178369.95347        43.500
        28.5004
 -25167677.719 8  20256237.008 8 -19451023.82549  20256232.59449        53.000
        46.0004
 -20201621.472 7  21390132.961 7 -15729152.26348  21390127.85548        50.500
        40.7504
 -10334521.302 5  23340458.672 5  -8039685.89447  23340455.48847        41.500
        28.2504
  -6380503.203 5  24072068.164 5  -4964264.81046  24072063.25046        41.500
        26.0004
 11  3 11  0 48 30.0000000  0  9G 2G 4G 5G 7G 8G10G13G17G23
 -23758903.205 7  20890371.250 7 -18436758.41749  20890364.43449        51.000
        43.7504
 -24427590.445 8  20367485.914 8 -19020334.04349  20367481.60549        52.750
        46.5004
 -13924203.313 6  22537872.367 6 -10842359.10148  22537869.01248        45.750
        36.0004
  -5625552.127 6  24164275.633 6  -4379170.08847  24164271.60247        44.500
        28.0004
   -738032.55313  25470365.383 3

 -25163203.006 7  20257088.422 7 -19447537.04849  20257083.54749        52.000
        45.7504
 -20148695.052 7  21400204.625 7 -15687910.91848  21400199.44948        50.000
        40.5004
 -10224275.964 5  23361437.359 5  -7953780.57547  23361435.62147        42.000
        29.5004
  -6285680.004 5  24090112.703 5  -4890376.70746  24090107.00846        41.750
        24.0004
 11  3 11  0 49  0.0000000  0  9G 2G 4G 5G 7G 8G10G13G17G23
 -23819445.730 7  20878850.453 7 -18483934.41849  20878843.63349        50.500
        44.0004
 -24407973.857 8  20371219.016 8 -19005048.41849  20371214.44949        52.750
        46.2504
 -13989150.437 6  22525513.531 6 -10892967.21248  22525510.09048        46.250
        36.2504
  -5699458.852 6  24150211.000 6  -4436759.64447  24150207.95347        43.500
        28.0004
   -821473.375 2  25454486.117 2   -627140.27255  25454489.13745        35.000
        17.7505
 -25158407.215 7  20258001.156 7 -19443800.06749  20257996.44949        52.000
        45.7504
 -20095241.955 7  21410376.109 7 -15646259.18948  21410371.69948        50.000
        41.0004
 -10113898.294 5  23382441.703 5  -7867772.11847  23382439.40247        41.000
        29.0004
  -6190642.139 6  24108197.867 6  -4816321.30747  24108191.55147        43.250
        26.5004
 11  3 11  0 49 30.0000000  0  9G 2G 4G 5G 7G 8G10G13G17G23
 -23879726.055 7  20867379.438 7 -18530906.10649  20867372.91449        51.500
        43.7504
 -24387976.898 8  20375024.266 8 -18989466.41049  20375019.98049        52.500
        46.2504
 -14053889.360 6  22513194.148 6 -10943413.11148  22513190.21548        45.500
        36.5004
  -5773182.508 5  24136180.930 5  -4494206.51147  24136178.72747        42.000
        27.7504
   -905035.374 2  25438585.062 2   -692253.29845  25438587.10945        34.750
        18.2504
 -25153284.391 8  20258975.727 8 -19439808.25349  20258971.22349        52.750
        45.7504
 -20041257.970 7  21420649.078 7 -15604193.78448  21420644.42648        50.000
        40.0004
 -10003385.295 5  23403471.531 5  -7781658.22647  23403470.23447        41.000
        28.7504
  -6095385.359 6  24126323.758 6  -4742095.32347  24126318.86747        42.500
        26.5004
 11  3 11  0 50  0.0000000  0  9G 2G 4G 5G 7G 8G10G13G17G23
 -23939746.001 7  20855958.023 7 -18577674.90249  20855951.10249        51.000
        44.0004
 -24367602.961 7  20378901.086 7 -18973590.64149  20378896.99249        51.500
        46.2504
 -14118423.704 6  22500913.750 6 -10993699.55548  22500910.24248        46.000
        36.7504
  -5846723.578 6  24122186.773 6  -4551511.10047  24122184.43047        43.500
        28.7504
   -988719.827 3  25422661.047 3   -757461.75646  25422662.32846        36.000
        19.0004
 -25147839.434 8  20260011.969 8 -19435565.43749  20260007.41849        53.000
        45.7504
 -19986748.922 7  21431021.836 7 -15561719.22848  21431016.98448        49.500
        40.0004
  -9892743.280 6  23424526.742 6  -7695443.84947  23424524.98847        43.000
        29.2504
  -5999916.024 6  24144491.055 6  -4667703.72446  24144485.78146        43.500
        23.2504
 11  3 11  0 50 30.0000000  0  9G 2G 4G 5G 7G 8G10G13G17G23
 -23999503.196 7  20844586.703 7 -18624238.94849  20844579.74649        51.250
        44.0004
 -24346851.090 8  20382850.109 8 -18957420.35849  20382846.18049        52.500
        46.2504
 -14182753.345 6  22488672.242 6 -11043826.48548  22488668.04348        46.000
        36.0004
  -5920078.843 5  24108227.680 5  -4608670.90747  24108226.48047        41.750
        29.0004
  -1072523.817 3  25406712.680 3   -822763.32446  25406715.53946        36.500
        19.0004
 -25142073.042 8  20261109.391 8 -19431072.14549  20261104.62949        52.500
        45.7504
 -19931716.877 7  21441494.289 7 -15518837.15448  21441489.19148        51.000
        40.2504
  -9781974.572 6  23445605.961 6  -7609130.72947  23445602.66447        42.750
        30.2504
  -5904236.196 5  24162698.547 5  -4593148.06046  24162693.82846        41.250
        25.2504
 11  3 11  0 51  0.0000000  0  9G 2G 4G 5G 7G 8G10G13G17G23
 -24058995.762 7  20833265.422 7 -18670596.80849  20833259.04749        50.500
        44.2504
 -24325720.868 8  20386871.047 8 -18940955.24149  20386866.84849        52.750
        46.2504
 -14246878.208 6  22476468.930 6 -11093793.87648  22476465.67648        46.500
        36.0004
  -5993245.385 6  24094304.695 6  -4665683.66947  24094302.43847        43.000
        29.0004
  -1156444.757 4  25390744.039 4   -888156.01846  25390744.41846        39.000
        19.5004
 -25135986.530 7  20262267.719 7 -19426329.42949  20262262.38349        52.250
        45.7504
 -19876163.712 7  21452065.828 7 -15475549.01448  21452060.84448        51.000
        40.5004
  -9671082.248 5  23466707.969 5  -7522721.20147  23466704.67247        42.250
        29.2504
  -5808348.455 6  24180946.156 6  -4518430.40046  24180941.01646        42.500
        25.5004
 11  3 11  0 51 30.0000000  0  9G 2G 4G 5G 7G 8G10G13G17G23
 -24118222.259 7  20821995.000 7 -18716747.34249  20821988.52749        50.750
        44.2504
 -24304213.006 7  20390964.211 7 -18924195.91449  20390959.78149        52.250
        46.5004
 -14310799.064 6  22464305.672 6 -11143602.31348  22464302.09848        46.500
        36.5004
  -6066220.619 6  24080418.000 6  -4722547.37047  24080415.27747        44.000
        30.0004
  -1240480.802 4  25374752.391 4   -953638.48745  25374753.53945        39.000
        18.5004
 -25129581.491 8  20263486.336 8 -19421338.49249  20263481.71549        52.500
        46.0004
 -19820092.563 7  21462735.648 7 -15431857.25648  21462731.12148        50.250
        40.5004
  -9560069.576 5  23487832.508 5  -7436217.94147  23487830.08647        41.750
        28.7504
  -5712256.112 5  24199231.656 5  -4443553.32146  24199226.96146        41.500
        25.5004
 11  3 11  0 52  0.0000000  0  9G 2G 4G 5G 7G 8G10G13G17G23
 -24177179.438 7  20810775.734 7 -18762688.00249  20810769.16849        50.500
        44.0004
 -24282325.569 8  20395129.023 8 -18907140.78749  20395124.57049        52.750
        46.5004
 -14374514.603 6  22452180.844 6 -11193250.74248  22452177.21148        46.500
        36.0004
  -6139000.614 6  24066568.453 6  -4779258.93947  24066566.65647        44.750
        30.7504
  -1324628.026 2  25358737.641 2  -1019207.48846  25358740.68046        35.500
        20.2504
 -25122857.506 7  20264766.086 7 -19416099.04049  20264761.15649        52.250
        45.7504
 -19763504.507 7  21473503.961 7 -15387762.71748  21473499.42248        50.500
        40.2504
  -9448938.193 5  23508980.508 5  -7349622.22947  23508977.47347        41.250
        27.0004
  -5615960.441 5  24217555.977 5  -4368517.84846  24217552.12946        40.000
        24.0004
 11  3 11  0 52 30.0000000  0  9G 2G 4G 5G 7G 8G10G13G17G23
 -24235866.255 7  20799608.102 7 -18808418.01049  20799601.75849        50.750
        44.2504
 -24260059.441 8  20399366.305 8 -18889790.57649  20399361.66849        52.750
        46.2504
 -14438025.733 6  22440094.617 6 -11242739.91848  22440091.14548        45.000
        36.2504
  -6211583.149 6  24052756.672 6  -4835816.67047  24052753.43447        43.750
        30.0004
  -1408884.510 2  25342704.984 2  -1084861.70546  25342707.88746        35.250
        19.5004
 -25115816.553 7  20266105.648 7 -19410612.58249  20266100.94149        52.250
        46.0004
 -19706402.675 7  21484370.062 7 -15343267.81648  21484365.51248        50.250
        40.0004
  -9337691.838 5  23530149.867 5  -7262936.88847  23530147.33647        41.000
        29.5004
  -5519464.786 5  24235918.492 5  -4293326.51746  24235914.13746        39.750
        22.7504
 11  3 11  0 53  0.0000000  0  9G 2G 4G 5G 7G 8G10G13G17G23
 -24294280.543 7  20788492.242 7 -18853935.65549  20788486.09049        50.500
        44.2504
 -24237413.524 8  20403675.695 8 -18872144.43849  20403671.21949        52.750
        46.5004
 -14501332.061 6  22428048.734 6 -11292069.48148  22428044.88348        45.250
        36.5004
  -6283964.589 6  24038982.430 6  -4892217.68947  24038979.79347        43.500
        29.5004
  -1493247.679 3  25326651.562 3  -1150599.07446  25326653.45346        35.750
        19.7504
 -25108459.061 7  20267505.938 7 -19404879.47149  20267501.25049        52.250
        45.5004
 -19648789.210 7  21495333.688 7 -15298374.24748  21495328.98848        50.000
        40.5004
  -9226333.370 5  23551340.938 5  -7176164.18447  23551339.41047        42.000
        30.7504
  -5422771.517 5  24254318.320 5  -4217981.15146  24254314.20746        39.750
        24.7504
 11  3 11  0 53 30.0000000  0  9G 2G 4G 5G 7G 8G10G13G17G23
 -24352420.174 7  20777428.875 7 -18899239.27349  20777422.10949        51.500
        44.7504
 -24214387.886 8  20408057.180 8 -18854202.42349  20408053.22749        52.500
        46.5004
 -14564433.855 6  22416039.859 6 -11341239.69348  22416036.63748        46.000
        37.0004
  -6356142.480 6  24025247.250 6  -4948460.09147  24025245.08647        43.500
        29.2504
  -1577714.831 3  25310576.961 3  -1216417.42446  25310579.48446        36.000
        19.2504
 -25100786.351 8  20268966.258 8 -19398900.74449  20268961.50849        53.000
        45.7504
 -19590666.317 7  21506394.469 7 -15253083.71048  21506389.39148        49.500
        40.2504
  -9114865.270 5  23572553.125 5  -7089306.08747  23572550.51647        42.000
        30.2504
  -5325883.134 5  24272755.914 5  -4142483.89146  24272751.89146        39.750
        23.2504
 11  3 11  0 54  0.0000000  0 10G 2G 4G 5G 7G 8G10G13G17G23G26
 -24410282.875 7  20766417.703 7 -18944327.11249  20766411.03549        50.750
        44.2504
 -24190981.721 8  20412511.227 8 -18835963.86349  20412507.22749        52.500
        46.5004
 -14627331.022 6  22404071.516 6 -11390250.43248  22404068.02748        47.000
        37.0004
  -6428113.157 6  24011551.688 6  -5004541.00447  24011548.46547        43.000
        27.7504
  -1662283.279 4  25294484.648 4  -1282314.74546  25294486.19546        38.250
        20.2504
 -25092799.353 7  20270485.836 7 -19392677.11749  20270481.48049        52.000
        45.7504
 -19532035.865 7  21517551.336 7 -15207397.67648  21517546.37548        49.500
        39.7504
  -9003290.526 5  23593784.984 5  -7002364.89847  23593782.87147        42.000
        28.0004
  -5228802.137 5  24291230.070 5  -4066836.55546  24291225.43446        40.250
        24.7504
   -672764.02512  25331806.414 2

 11  3 11  0 54 30.0000000  0 10G 2G 4G 5G 7G 8G10G13G17G23G26
 -24467868.190 7  20755459.750 7 -18989198.80549  20755453.41449        51.750
        44.0004
 -24167196.357 8  20417037.672 8 -18817429.82149  20417034.19149        52.750
        46.2504
 -14690024.837 6  22392141.289 6 -11439102.71548  22392137.81648        47.250
        37.2504
  -6499875.272 6  23997896.172 6  -5060459.41547  23997893.02047        45.750
        29.7504
  -1746951.686 4  25278372.312 4  -1348289.91246  25278373.57446        37.500
        20.5004
 -25084500.391 7  20272065.195 7 -19386210.41449  20272060.63749        52.000
        45.7504
 -19472902.083 7  21528803.852 7 -15161319.44548  21528799.35548        50.000
        39.7504
  -8891613.280 6  23615036.297 6  -6915343.83647  23615034.10947        43.000
        28.0004
  -5131532.477 5  24309740.648 5  -3991042.14746  24309735.42246        39.750
        23.2504
   -798901.773 2  25307803.289 2

 11  3 11  0 55  0.0000000  0 10G 2G 4G 5G 7G 8G10G13G17G23G26
 -24525170.805 7  20744555.422 7 -19033850.20849  20744549.10249        51.500
        44.2504
 -24143027.806 8  20421636.633 8 -18798597.20349  20421632.55549        53.250
        46.2504
 -14752511.808 6  22380250.062 6 -11487793.84448  22380246.74648        47.250
        37.0004
  -6571422.038 6  23984281.672 6  -5116210.04447  23984278.41047        45.000
        30.2504
  -1831713.705 4  25262242.875 4  -1414338.03046  25262243.85946        37.500
        20.7504
 -25075887.033 7  20273704.398 7 -19379498.70149  20273699.32849        52.000
        45.5004
 -19413263.776 7  21540152.867 7 -15114848.06048  21540148.27048        50.750
        39.7504
  -8779832.704 6  23636307.617 6  -6828242.25347  23636305.18447        43.250
        29.5004
  -5034072.926 5  24328286.406 5  -3915099.78546  24328281.18446        39.750
        24.0004
   -925051.449 2  25283798.500 2

 11  3 11  0 55 30.0000000  0 10G 2G 4G 5G 7G 8G10G13G17G23G26
 -24582190.947 7  20733704.953 7 -19078281.49849  20733698.21549        51.750
        44.5004
 -24118478.379 8  20426308.281 8 -18779467.78649  20426303.74649        52.500
        46.0004
 -14814794.587 6  22368398.188 6 -11536325.84648  22368394.67648        46.750
        36.7504
  -6642753.324 6  23970706.484 6  -5171792.74347  23970704.18047        46.000
        32.0004
  -1916569.642 4  25246095.195 4  -1480459.37346  25246096.53146        38.500
        20.5004
 -25066962.836 7  20275402.195 7 -19372544.79949  20275397.62949        51.500
        45.5004
 -19353125.615 7  21551596.586 7 -15067987.18848  21551592.00448        50.750
        39.5004
  -8667954.382 5  23657596.867 5  -6741064.46146  23657594.35946        41.750
        26.0004
  -4936428.667 5  24346867.391 5  -3839013.50246  24346862.38746        39.250
        22.7504
  -1051213.246 2  25259790.258 2   -809750.00955  25259792.75845        35.000
        17.2505
 11  3 11  0 56  0.0000000  0 10G 2G 4G 5G 7G 8G10G13G17G23G26
 -24638926.008 7  20722908.430 7 -19122490.64849  20722902.11349        51.250
        44.7504
 -24093546.926 8  20431052.453 8 -18760040.65849  20431048.05549        53.000
        46.0004
 -14876872.508 6  22356584.938 6 -11584698.21148  22356581.54748        47.250
        37.2504
  -6713865.189 6  23957174.469 6  -5227204.47547  23957171.39147        45.250
        29.7504
  -2001516.059 4  25229929.914 4  -1546651.20446  25229931.21546        38.000
        19.5004
 -25057727.843 8  20277159.609 8 -19365348.69849  20277155.05949        52.500
        45.7504
 -19292489.281 7  21563135.523 7 -15020738.12148  21563130.94548        50.750
        39.5004
  -8555980.217 6  23678905.609 6  -6653812.00247  23678903.34447        42.750
        27.7504
  -4838601.351 5  24365483.859 5  -3762784.61446  24365478.37146        40.250
        22.7504
  -1177383.904 1  25235780.734 1   -908064.67545  25235780.78545        33.500
        16.7504
 11  3 11  0 56 30.0000000  0 10G 2G 4G 5G 7G 8G10G13G17G23G26
 -24695374.127 7  20712166.992 7 -19166476.19649  20712160.29749        52.000
        44.5004
 -24068233.414 8  20435869.508 8 -18740315.90549  20435864.93449        53.000
        46.0004
 -14938745.948 6  22344810.992 6 -11632911.24448  22344807.26248        47.000
        37.5004
  -6784754.947 6  23943684.078 6  -5282443.13547  23943681.69947        44.500
        29.7504
  -2086550.481 4  25213748.242 4  -1612911.60446  25213750.17246        39.000
        21.0004
 -25048183.290 7  20278975.789 7 -19357911.40049  20278971.41449        52.250
        45.7504
 -19231357.241 7  21574768.492 7 -14973102.78448  21574763.71548        50.250
        39.0004
  -8443913.329 6  23700231.930 6  -6566487.33847  23700230.12547        42.750
        27.2504
  -4740593.847 5  24384133.688 5  -3686415.29646  24384127.94946        40.750
        23.0004
  -1303561.439 2  25211769.758 2  -1006384.72345  25211770.05945        34.250
        16.7504
 11  3 11  0 57  0.0000000  0 10G 2G 4G 5G 7G 8G10G13G17G23G26
 -24751532.825 7  20701480.320 7 -19210236.23849  20701473.81249        50.750
        44.7504
 -24042537.273 8  20440759.414 8 -18720292.97049  20440754.93849        52.750
        46.0004
 -15000414.260 6  22333075.609 6 -11680964.44248  22333072.36748        46.000
        36.7504
  -6855419.031 6  23930237.250 6  -5337505.91947  23930234.79747        44.500
        30.2504
  -2171669.602 2  25197550.070 2  -1679238.05746  25197551.82046        35.250
        20.0004
 -25038330.106 8  20280851.195 8 -19350233.60949  20280846.58649        52.500
        45.7504
 -19169731.788 7  21586495.336 7 -14925082.97748  21586491.11748        50.000
        39.2504
  -8331756.068 5  23721574.344 5  -6479092.25847  23721573.19547        42.250
        27.2504
  -4642408.372 5  24402818.148 5  -3609907.25346  24402812.39546        41.000
        23.0004
  -1429742.886 2  25187758.156 2  -1104707.76045  25187758.51645        34.750
        16.7504
 11  3 11  0 57 30.0000000  0 10G 2G 4G 5G 7G 8G10G13G17G23G26
 -24807400.514 7  20690849.023 7 -19253769.52049  20690842.01249        50.500
        44.7504
 -24016458.296 8  20445722.188 8 -18699971.71549  20445717.88749        53.000
        46.0004
 -15061877.800 7  22321379.758 7 -11728858.06848  22321376.31248        47.500
        37.2504
  -6925854.891 6  23916833.938 6  -5392390.91447  23916831.38747        44.500
        30.5004
  -2256871.205 2  25181336.812 2  -1745628.75746  25181337.77046        35.500
        19.2504
 -25028169.405 7  20282784.703 7 -19342316.17849  20282780.19549        52.000
        45.7504
 -19107615.701 7  21598316.031 7 -14876680.85848  21598310.92648        49.250
        39.2504
  -8219511.582 6  23742934.242 6  -6391629.20347  23742931.53147        43.250
        27.2504
  -4544047.558 5  24421535.594 5  -3533262.61046  24421530.38746        40.500
        24.7504
  -1555926.198 2  25163745.602 2  -1203032.31545  25163746.55545        34.750
        16.2504
 11  3 11  0 58  0.0000000  0 10G 2G 4G 5G 7G 8G10G13G17G23G26
 -24862975.275 7  20680273.641 7 -19297074.54449  20680267.07049        50.000
        45.0004
 -23989996.434 8  20450757.969 8 -18679352.12249  20450753.78149        52.750
        46.0004
 -15123136.793 6  22309722.547 6 -11776592.32748  22309719.12548        46.250
        37.0004
  -6996059.573 6  23903474.242 6  -5447095.71947  23903471.75047        45.000
        31.0004
  -2342152.893 4  25165109.672 4  -1812081.85346  25165109.19146        37.500
        19.7504
 -25017702.331 7  20284776.461 7 -19334160.02649  20284771.82049        51.000
        45.7504
 -19045011.338 7  21610229.234 7 -14827898.25648  21610224.29348        49.250
        39.0004
  -8107182.774 6  23764309.469 6  -6304100.44247  23764307.71947        43.000
        28.5004
  -4445513.873 5  24440286.461 5  -3456483.29246  24440281.15246        39.750
        24.5004
  -1682109.056 2  25139734.055 2  -1301356.47245  25139734.45345        34.750
        16.7504
 11  3 11  0 58 30.0000000  0 10G 2G 4G 5G 7G 8G10G13G17G23G26
 -24918254.995 7  20669754.375 7 -19340149.65449  20669747.47349        50.250
        45.0004
 -23963151.304 7  20455866.164 7 -18658433.87649  20455862.36349        52.250
        46.0004
 -15184191.278 6  22298104.375 6 -11824167.22248  22298100.71548        46.500
        37.5004
  -7066030.041 6  23890159.922 6  -5501618.07447  23890156.02047        46.500
        30.5004
  -2427511.535 4  25148865.484 4  -1878594.92846  25148866.71946        37.750
        20.5004
 -25006929.739 7  20286826.414 7 -19325765.80649  20286821.86349        51.000
        45.7504
 -18981920.958 7  21622234.773 7 -14778736.93848  21622229.68048        49.000
        39.2504
  -7994772.487 5  23785700.602 5  -6216508.15046  23785698.28146        42.000
        25.2504
  -4346809.880 5  24459068.867 5  -3379571.22046  24459064.12146        41.250
        22.2504
  -1808288.863 3  25115722.156 3  -1399678.22645  25115722.99245        36.000
        16.7504
 11  3 11  0 59  0.0000000  0 10G 2G 4G 5G 7G 8G10G13G17G23G26
 -24973237.363 7  20659291.148 7 -19382993.07649  20659284.96949        50.250
        45.0004
 -23935922.659 7  20461047.609 7 -18637216.78749  20461043.88349        51.500
        46.0004
 -15245041.006 6  22286525.242 6 -11871582.59448  22286521.57848        45.750
        37.5004
  -7135762.885 6  23876889.906 6  -5555955.23747  23876886.29347        46.000
        30.5004
  -2512944.243 4  25132608.305 4  -1945165.69846  25132608.73846        38.000
        19.0004
 -24995852.698 7  20288934.125 7 -19317134.34849  20288929.70349        51.500
        45.7504
 -18918346.906 7  21634332.344 7 -14729198.74248  21634327.82048        49.000
        39.2504
  -7882283.197 6  23807107.055 6  -6128854.31847  23807104.85547        43.750
        28.0004
  -4247937.993 5  24477883.852 5  -3302528.31546  24477878.20746        40.000
        22.2504
  -1934463.269 3  25091713.703 3  -1497995.73745  25091713.35945        36.750
        18.2504
 11  3 11  0 59 30.0000000  0 10G 2G 4G 5G 7G 8G10G13G17G23G26
 -25027920.450 7  20648885.797 7 -19425603.29549  20648878.95749        51.000
        44.7504
 -23908310.216 7  20466302.344 7 -18615700.63949  20466297.94549        51.750
        46.0004
 -15305686.215 6  22274984.852 6 -11918838.57548  22274980.80148        46.500
        37.5004
  -7205255.385 6  23863665.773 6  -5610105.18247  23863662.11347        45.750
        30.5004
  -2598448.261 3  25116337.289 3  -2011792.09745  25116336.83645        37.250
        18.5004
 -24984471.985 7  20291100.164 7 -19308266.28149  20291095.19949        50.500
        46.0004
 -18854291.748 7  21646521.594 7 -14679285.65248  21646517.14548        49.000
        39.2504
  -7769717.957 6  23828527.234 6  -6041141.34947  23828526.19547        43.750
        29.0004
  -4148900.750 5  24496729.992 5  -3225356.54046  24496724.91046        40.500
        22.7504
  -2060629.991 3  25067702.977 3  -1596307.23345  25067704.14545        36.500
        18.5004
                            4  1
RINEX FILE SPLICE; other post-header comments skipped       COMMENT
 11  3 11  1  0  0.0000000  0 10G 2G 4G 5G 7G 8G10G13G17G23G26
 -25082301.927 7  20638536.891 7 -19467978.48149  20638530.38749        50.000
        45.0004
 -23880313.297 8  20471629.844 8 -18593884.89149  20471625.25049        52.500
        46.0004
 -15366126.719 6  22263483.500 6 -11965935.03548  22263479.53948        47.000
        37.7504
  -7274504.415 6  23850488.844 6  -5664065.36347  23850485.23447        46.000
        31.0004
  -2684021.059 2  25100050.375 2  -2078472.00345  25100051.33645        35.500
        17.7504
 -24972788.611 7  20293323.352 7 -19299162.36549  20293318.66449        50.750
        45.5004
 -18789757.825 7  21658802.500 7 -14628999.49348  21658798.01648        49.000
        39.2504
  -7657079.376 6  23849961.688 6  -5953371.25047  23849961.41047        43.500
        30.0004
  -4049700.167 5  24515607.617 5  -3148057.51646  24515602.97746        41.500
        22.7504
  -2186786.047 2  25043696.367 2  -1694610.47745  25043697.36745        35.000
        16.7504
 11  3 11  1  0 30.0000000  0 10G 2G 4G 5G 7G 8G10G13G17G23G26
 -25136379.947 7  20628246.367 7 -19510117.20749  20628239.83649        50.500
        44.5004
 -23851931.885 8  20477030.422 8 -18571769.51949  20477026.11349        52.500
        45.7504
 -15426362.329 6  22252020.586 6 -12012871.85548  22252016.54748        46.250
        37.7504
  -7343506.863 6  23837357.203 6  -5717833.44447  23837353.96547        45.250
        30.5004
  -2769659.626 3  25083755.711 3  -2145203.18645  25083756.66445        37.000
        18.2504
 -24960803.284 7  20295603.758 7 -19289823.16449  20295599.44149        51.000
        45.7504
 -18724747.600 7  21671173.359 7 -14578342.17848  21671168.34448        49.000
        39.0004
  -7544369.976 6  23871410.070 6  -5865545.93747  23871409.63747        43.750
        29.2504
  -3950338.779 5  24534515.398 5  -3070633.20946  24534510.27046        40.500
        23.7504
  -2312929.163 2  25019692.320 2  -1792903.59745  25019692.55945        34.750
        16.7504
 11  3 11  1  1  0.0000000  0 10G 2G 4G 5G 7G 8G10G13G17G23G26
 -25190151.919 7  20618014.172 7 -19552017.45449  20618007.53949        50.750
        44.7504
 -23823165.446 7  20482504.836 7 -18549354.11049  20482500.31649        52.250
        46.0004
 -15486393.107 6  22240597.047 6 -12059649.02848  22240593.31648        46.500
        37.5004
  -7412259.498 6  23824273.734 6  -5771406.83847  23824270.79747        46.500
        32.2504
  -2855361.270 4  25067447.344 4  -2211983.49146  25067448.93046        38.250
        21.2504
 -24948516.836 7  20297942.016 7 -19280249.32049  20297937.41449        52.250
        46.0004
 -18659263.411 7  21683634.078 7 -14527315.56148  21683630.04348        48.500
        38.7504
  -7431592.668 5  23892870.555 5  -5777667.75847  23892870.95747        41.500
        27.7504
  -3850818.828 5  24553452.914 5  -2993085.33246  24553449.37946        39.750
        22.5004
  -2439056.711 1  24995689.180 1  -1891184.60145  24995689.96545        33.500
        15.5004
 11  3 11  1  1 30.0000000  0 10G 2G 4G 5G 7G 8G10G13G17G23G26
 -25243616.352 7  20607840.164 7 -19593678.06949  20607833.71549        51.000
        45.2504
 -23794014.319 8  20488051.758 8 -18526639.02149  20488047.70749        52.500
        46.0004
 -15546219.408 6  22229212.508 6 -12106266.90448  22229207.98848        46.750
        37.2504
  -7480760.063 6  23811238.961 6  -5824783.84247  23811235.37147        45.250
        32.2504
  -2941123.258 5  25051127.922 5  -2278810.86746  25051128.18846        39.250
        22.0004
 -24935930.864 7  20300336.992 7 -19270442.08649  20300332.32449        51.000
        45.7504
 -18593308.011 7  21696185.141 7 -14475921.77648  21696180.68848        49.000
        38.5004
  -7318750.029 5  23914343.844 5  -5689738.66547  23914344.11747        41.000
        28.0004
  -3751143.311 4  24572421.219 4  -2915416.23346  24572416.28546        37.750
        21.5004
  -2565166.497 2  24971692.992 2  -1989451.75745  24971693.57045        35.000
        16.2504
 11  3 11  1  2  0.0000000  0 10G 2G 4G 5G 7G 8G10G13G17G23G26
 -25296771.374 7  20597724.773 7 -19635097.57949  20597717.80149        50.500
        45.0004
 -23764478.081 7  20493672.516 7 -18503623.80149  20493668.54349        52.250
        46.5004
 -15605841.402 7  22217866.961 7 -12152725.58348  22217862.48048        47.500
        37.7504
  -7549005.048 6  23798251.352 6  -5877961.68047  23798249.61747        44.250
        31.7504
  -3026942.959 5  25034796.875 5  -2345683.23746  25034796.83646        40.750
        21.2504
 -24923046.547 7  20302789.344 7 -19260402.37349  20302784.56249        52.250
        46.0004
 -18526883.944 7  21708826.109 7 -14424162.80248  21708820.60548        49.000
        38.7504
  -7205845.450 5  23935828.609 5  -5601761.26146  23935828.55146        39.500
        24.7504
  -3651314.475 4  24591417.398 4  -2837627.69146  24591412.55146        37.500
        20.5004
  -2691256.407 3  24947698.672 3  -2087703.38745  24947698.11345        37.250
        17.2504
 11  3 11  1  2 30.0000000  0 10G 2G 4G 5G 7G 8G10G13G17G23G26
 -25349614.983 7  20587669.188 7 -19676274.42449  20587662.87949        50.000
        45.2504
 -23734556.713 7  20499366.055 7 -18480308.43949  20499362.71949        51.500
        46.0004
 -15665259.102 6  22206560.055 6 -12199025.06148  22206555.59048        46.750
        37.7504
  -7616991.844 6  23785314.383 6  -5930938.32447  23785311.33647        44.750
        31.2504
  -3112817.959 4  25018454.602 4  -2412598.59046  25018456.08246        38.000
        20.5004
 -24909864.665 7  20305297.492 7 -19250130.80349  20305292.66849        52.250
        45.7504
 -18459993.819 7  21721554.305 7 -14372040.66248  21721549.70748        49.000
        38.2504
  -7092881.534 5  23957325.664 5  -5513737.63446  23957324.27346        39.250
        22.5004
  -3551334.897 5  24610443.281 5  -2759721.69846  24610439.01246        39.500
        21.5004
  -2817323.823 3  24923709.023 3  -2185937.57945  24923708.00445        36.750
        17.2504
 11  3 11  1  3  0.0000000  0 10G 2G 4G 5G 7G 8G10G13G17G23G26
 -25402144.705 7  20577672.992 7 -19717206.69049  20577666.88749        50.000
        45.2504
 -23704249.867 7  20505133.609 7 -18456692.74149  20505129.58649        52.000
        46.0004
 -15724472.348 6  22195292.281 6 -12245165.22648  22195288.65648        47.000
        38.2504
  -7684717.107 6  23772426.414 6  -5983711.20647  23772424.18047        44.750
        31.7504
  -3198745.240 4  25002103.195 4  -2479554.68446  25002103.27046        39.000
        20.0004
 -24896385.986 7  20307862.102 7 -19239627.95549  20307857.88749        50.750
        45.7504
 -18392640.082 7  21734371.414 7 -14319557.26748  21734366.81648        49.000
        38.5004
  -6979860.871 5  23978833.047 5  -5425669.87747  23978831.78947        41.250
        27.0004
  -3451207.274 4  24629497.172 4  -2681700.34546  24629492.49646        38.500
        22.0004
  -2943366.190 4  24899723.586 4  -2284152.26645  24899722.16445        38.250
        16.2504
 11  3 11  1  3 30.0000000  0 10G 2G 4G 5G 7G 8G10G13G17G23G26
 -25454358.858 7  20567737.086 7 -19757893.05349  20567730.82849        51.250
        45.2504
 -23673557.409 7  20510974.070 7 -18432776.60149  20510970.26649        52.250
        45.7504
 -15783481.481 6  22184063.070 6 -12291146.35948  22184059.18848        46.750
        38.0004
  -7752177.954 6  23759588.977 6  -6036278.06547  23759585.97347        45.000
        30.5004
  -3284721.630 5  24985742.383 5  -2546549.07446  24985742.24246        40.250
        21.2504
 -24882611.597 7  20310483.484 7 -19228894.69349  20310478.98049        51.250
        45.5004
 -18324825.023 7  21747275.938 7 -14266714.40848  21747271.26648        48.750
        38.2504
  -6866786.362 5  24000350.422 5  -5337560.09947  24000348.97347        41.750
        27.0004
  -3350933.637 4  24648578.945 4  -2603565.24946  24648573.73046        39.000
        23.0004
  -3069381.091 4  24875744.180 4  -2382345.52246  24875743.24246        39.000
        19.7504
 11  3 11  1  4  0.0000000  0 10G 2G 4G 5G 7G 8G10G13G17G23G26
 -25506255.185 7  20557861.500 7 -19798331.77349  20557855.03949        50.500
        45.0004
 -23642478.945 7  20516888.141 7 -18408559.66449  20516884.60949        52.250
        45.7504
 -15842286.195 6  22172872.008 6 -12336968.19248  22172868.21148        47.000
        37.2504
  -7819371.478 6  23746802.469 6  -6088636.61547  23746799.98447        45.500
        30.0004
  -3370744.456 5  24969372.945 5  -2613579.68446  24969373.16446        40.000
        20.7504
 -24868542.507 7  20313160.703 7 -19217931.79149  20313156.50849        51.250
        46.0004
 -18256551.435 7  21760268.062 7 -14213514.25248  21760263.92248        48.750
        38.5004
  -6753660.624 5  24021877.633 5  -5249410.37747  24021876.46547        41.250
        27.0004
  -3250516.372 4  24667688.211 4  -2525318.19346  24667683.31246        39.000
        22.0004
  -3195365.766 5  24851769.961 5  -2480515.20946  24851769.02346        39.500
        20.2504
 11  3 11  1  4 30.0000000  0 10G 2G 4G 5G 7G 8G10G13G17G23G26
 -25557831.233 7  20548046.703 7 -19838520.91249  20548040.34849        50.750
        45.2504
 -23611014.488 7  20522875.742 7 -18384041.94849  20522871.30949        52.000
        46.0004
 -15900886.638 6  22161721.961 6 -12382630.86348  22161718.19148        47.250
        38.7504
  -7886294.388 6  23734067.641 6  -6140784.32047  23734063.78947        46.000
        29.7504
  -3456811.109 5  24952994.242 5  -2680644.47946  24952994.27746        40.250
        20.5004
 -24854179.568 7  20315893.984 7 -19206739.91449  20315889.29349        50.750
        45.7504
 -18187821.567 7  21773347.016 7 -14159958.57848  21773342.44548        48.750
        38.5004
  -6640486.404 5  24043414.789 5  -5161222.93947  24043413.18447        41.250
        27.2504
  -3149958.040 5  24686823.594 5  -2446961.24846  24686818.96146        39.250
        24.5004
  -3321317.865 4  24827801.672 4  -2578659.52346  24827800.90246        37.500
        21.2504
 11  3 11  1  5  0.0000000  0 10G 2G 4G 5G 7G 8G10G13G17G23G26
 -25609084.963 7  20538293.500 7 -19878458.89449  20538287.05149        50.500
        45.2504
 -23579163.342 7  20528937.164 7 -18359222.91549  20528933.15649        52.000
        45.7504
 -15959282.533 6  22150609.234 6 -12428134.13348  22150605.33648        46.000
        38.5004
  -7952943.718 6  23721384.180 6  -6192718.81147  23721381.10547        45.500
        31.2504
  -3542918.159 5  24936609.688 5  -2747740.74146  24936609.82846        39.500
        22.5004
 -24839523.433 7  20318682.789 7 -19195319.57049  20318678.40249        51.750
        45.7504
 -18118637.789 7  21786512.195 7 -14106049.19648  21786507.82048        48.250
        38.2504
  -6527266.074 5  24064960.242 5  -5072999.60846  24064959.09046        41.250
        26.0004
  -3049260.176 4  24705985.680 4  -2368495.54446  24705981.53946        38.500
        23.0004
  -3447234.815 4  24803840.359 4  -2676776.45646  24803839.08246        38.250
        19.7504
 11  3 11  1  5 30.0000000  0 10G 2G 4G 5G 7G 8G10G13G17G23G26
 -25660015.046 7  20528602.086 7 -19918144.69149  20528595.36349        51.250
        45.0004
 -23546926.272 8  20535071.297 8 -18334103.12749  20535067.52349        52.500
        45.7504
 -16017474.725 7  22139535.430 7 -12473478.68148  22139531.21948        47.750
        38.5004
  -8019316.862 6  23708754.000 6  -6244438.06947  23708751.92247        45.750
        31.2504
  -3629063.749 5  24920216.008 5  -2814866.97546  24920216.41046        39.250
        22.7504
 -24824575.815 7  20321527.391 7 -19183672.09449  20321522.66449        51.500
        45.5004
 -18049003.571 7  21799763.422 7 -14051788.83048  21799758.47748        48.750
        38.2504
  -6414003.253 5  24086512.750 5  -4984743.13646  24086512.25046        40.000
        23.5004
  -2948426.122 5  24725174.156 5  -2289923.74246  24725170.15246        40.000
        22.5004
  -3573114.641 4  24779885.625 4  -2774864.48246  24779884.11746        38.750
        19.0004
 11  3 11  1  6  0.0000000  0 10G 2G 4G 5G 7G 8G10G13G17G23G26
 -25710618.750 7  20518972.492 7 -19957576.15849  20518965.66449        51.000
        45.5004
 -23514302.111 7  20541279.547 7 -18308681.72649  20541276.02749        52.000
        46.0004
 -16075462.456 6  22128501.070 6 -12518663.89848  22128497.03948        46.500
        38.2504
  -8085410.306 6  23696176.602 6  -6295939.34247  23696174.31647        45.500
        33.5004
  -3715244.166 4  24903816.125 4  -2882020.29646  24903816.95346        37.750
        22.5004
 -24809337.129 8  20324427.391 8 -19171797.81449  20324422.74249        52.500
        45.5004
 -17978920.595 7  21813099.312 7 -13997178.76548  21813095.14848        48.500
        38.2504
  -6300699.837 5  24108074.758 5  -4896455.03246  24108073.18446        41.500
        25.5004
  -2847458.047 5  24744388.219 5  -2211247.47246  24744384.11346        40.250
        24.5004
  -3698954.138 4  24755939.656 4  -2872921.13846  24755938.69146        38.750
        19.7504
 11  3 11  1  6 30.0000000  0 10G 2G 4G 5G 7G 8G10G13G17G23G26
 -25760894.043 7  20509405.359 7 -19996751.72649  20509398.75849        50.250
        45.2504
 -23481291.321 7  20547561.211 7 -18282959.05749  20547557.57849        51.750
        46.0004
 -16133245.882 6  22117504.305 6 -12563689.92348  22117501.16448        46.000
        38.2504
  -8151221.519 6  23683653.234 6  -6347220.70647  23683651.43047        46.000
        32.5004
  -3801457.161 3  24887409.406 3  -2949199.01646  24887410.02046        36.000
        20.7504
 -24793808.306 8  20327382.500 8 -19159697.45949  20327378.05549        52.750
        45.5004
 -17908391.711 7  21826520.797 7 -13942221.23948  21826516.67648        47.750
        38.0004
  -6187358.706 5  24129642.586 5  -4808137.53046  24129642.36346        41.000
        25.0004
  -2746358.253 5  24763626.961 5  -2132468.55446  24763622.69946        40.250
        22.5004
  -3824751.080 4  24731999.617 4  -2970944.57146  24731999.81646        37.500
        19.2504
 11  3 11  1  7  0.0000000  0 10G 2G 4G 5G 7G 8G10G13G17G23G26
 -25810838.659 7  20499901.180 7 -20035669.62449  20499894.61749        50.250
        46.0004
 -23447893.530 7  20553916.812 7 -18256934.84649  20553913.14149        51.250
        45.7504
 -16190825.077 6  22106547.859 6 -12608556.78748  22106544.19148        46.750
        39.0004
  -8216747.412 6  23671184.352 6  -6398279.72847  23671181.69547        45.500
        32.5004
  -3887699.843 4  24870998.320 4  -3016400.89846  24870997.79346        39.000
        20.0004
 -24777990.381 8  20330392.336 8 -19147371.83049  20330387.81249        52.750
        45.7504
 -17837419.449 7  21840026.500 7 -13886918.23648  21840022.51248        47.750
        37.7504
  -6073982.891 5  24151217.359 5  -4719792.98046  24151217.76646        41.250
        25.2504
  -2645128.943 5  24782890.180 5  -2053588.74046  24782886.02046        40.000
        22.2504
  -3950502.799 5  24708071.023 5  -3068932.82046  24708070.21146        39.250
        20.5004
 11  3 11  1  7 30.0000000  0 10G 2G 4G 5G 7G 8G10G13G17G23G26
 -25860451.216 7  20490460.148 7 -20074328.75649  20490453.80549        50.250
        45.5004
 -23414109.059 7  20560345.891 7 -18230609.32649  20560342.15649        52.250
        45.5004
 -16248200.677 6  22095629.859 6 -12653265.02448  22095626.04748        46.250
        39.0004
  -8281985.334 6  23658769.531 6  -6449114.35447  23658767.25047        45.000
        32.0004
  -3973969.390 5  24854581.969 5  -3083623.79346  24854581.64146        39.750
        20.2504
 -24761884.850 8  20333457.125 8 -19134822.08249  20333452.32449        52.500
        46.0004
 -17766006.786 7  21853615.844 7 -13831272.06348  21853611.60948        47.500
        37.5004
  -5960575.199 5  24172798.719 5  -4631423.62746  24172797.41046        40.500
        25.7504
  -2543773.084 5  24802177.516 5  -1974610.29146  24802173.92246        39.250
        23.5004
  -4076207.426 5  24684149.938 5  -3166884.39446  24684149.23446        40.000
        21.2504
 11  3 11  1  8  0.0000000  0 10G 2G 4G 5G 7G 8G10G13G17G23G26
 -25909729.140 7  20481083.133 7 -20112727.13949  20481076.24649        50.500
        45.5004
 -23379937.177 7  20566848.531 7 -18203981.88649  20566844.75449        52.000
        45.5004
 -16305371.824 6  22084750.406 6 -12697813.96648  22084746.40648        46.500
        38.5004
  -8346931.834 6  23646410.516 6  -6499721.91247  23646407.51647        45.750
        32.7504
  -4060262.250 5  24838160.812 5  -3150864.84746  24838159.77346        39.500
        21.7504
 -24745492.053 7  20336576.750 7 -19122048.49649  20336572.36349        52.250
        45.7504
 -17694155.945 7  21867289.117 7 -13775284.44648  21867284.93848        47.750
        38.2504
  -5847137.770 5  24194385.305 5  -4543031.11246  24194385.21546        41.500
        26.0004
  -2442292.345 5  24821489.312 5  -1895534.61046  24821485.17246        39.250
        22.0004
  -4201861.706 5  24660239.086 5  -3264796.76846  24660238.17246        39.250
        21.0004
 11  3 11  1  8 30.0000000  0 10G 2G 4G 5G 7G 8G10G13G17G23G26
 -25958671.037 7  20471769.695 7 -20150863.69349  20471762.75849        50.000
        45.5004
 -23345378.538 7  20573424.875 7 -18177053.10549  20573420.69949        51.750
        45.5004
 -16362339.503 6  22073909.883 6 -12742204.31048  22073905.60948        47.000
        39.0004
  -8411584.823 6  23634107.758 6  -6550100.75447  23634105.00447        46.500
        33.2504
  -4146576.509 3  24821735.242 3  -3218122.53046  24821734.34046        37.000
        19.7504
 -24728813.725 8  20339750.578 8 -19109052.40949  20339746.09449        52.500
        46.0004
 -17621869.756 6  21881044.555 6 -13718957.60348  21881040.31248        47.250
        36.7504
  -5733674.247 5  24215976.797 5  -4454618.26846  24215977.12946        41.000
        24.7504
  -2340690.003 4  24840823.094 4  -1816364.11246  24840819.33646        38.500
        22.2504
  -4327464.009 4  24636337.523 4  -3362668.63346  24636337.21546        38.500
        20.7504
 11  3 11  1  9  0.0000000  0 10G 2G 4G 5G 7G 8G10G13G17G23G26
 -26007273.936 7  20462520.875 7 -20188736.09049  20462513.96149        50.500
        45.5004
 -23310432.417 7  20580074.711 7 -18149822.38249  20580070.66449        51.000
        45.7504
 -16419103.527 6  22063107.922 6 -12786436.00048  22063103.94948        47.250
        38.7504
  -8475940.432 6  23621860.914 6  -6600247.87347  23621858.00047        46.500
        33.2504
  -4232908.953 3  24805306.555 3  -3285394.31646  24805306.23446        37.000
        20.5004
 -24711850.220 8  20342978.680 8 -19095834.11549  20342973.98449        52.750
        45.5004
 -17549150.761 6  21894882.133 6 -13662293.50148  21894877.94948        47.000
        37.2504
  -5620186.574 5  24237572.789 5  -4366186.63446  24237572.96546        40.250
        25.5004
  -2238967.530 5  24860181.492 5  -1737100.02346  24860176.89546        39.250
        22.7504
  -4453011.068 4  24612447.016 4  -3460497.44546  24612446.62146        38.750
        22.5004
 11  3 11  1  9 30.0000000  0 10G 2G 4G 5G 7G 8G10G13G17G23G26
 -26055535.476 7  20453337.062 7 -20226342.49049  20453330.25049        49.750
        45.5004
 -23275098.460 7  20586798.742 7 -18122289.45949  20586794.50849        52.000
        45.5004
 -16475663.239 7  22052344.922 7 -12830508.48248  22052340.77348        47.750
        38.5004
  -8539995.719 6  23609671.797 6  -6650160.97847  23609668.62947        47.000
        33.5004
  -4319256.190 4  24788875.531 4  -3352677.63346  24788875.71546        37.500
        22.7504
 -24694602.269 8  20346260.695 8 -19082394.17149  20346256.40649        53.500
        46.0004
 -17476001.156 7  21908802.484 7 -13605293.86748  21908797.91048        47.750
        37.5004
  -5506677.080 5  24259172.320 5  -4277737.96846  24259174.10246        39.500
        25.0004
  -2137127.108 4  24879560.242 4  -1657744.01946  24879556.54346        38.500
        22.5004
  -4578500.284 5  24588567.508 5  -3558281.20346  24588567.05946        40.500
        22.7504
 11  3 11  1 10  0.0000000  0 10G 2G 4G 5G 7G 8G10G13G17G23G26
 -26103455.017 7  20444218.266 7 -20263682.41749  20444211.39849        50.500
        45.5004
 -23239377.598 7  20593596.086 7 -18094455.04249  20593592.15649        51.500
        45.5004
 -16532019.690 6  22041620.625 6 -12874422.58448  22041616.60548        47.000
        38.7504
  -8603748.880 6  23597540.375 6  -6699838.68148  23597536.88748        47.250
        33.7504
  -4405616.272 5  24772441.891 5  -3419970.99546  24772441.57446        39.500
        24.0004
 -24677071.589 7  20349596.555 7 -19068733.90949  20349592.09449        52.250
        45.5004
 -17402424.541 7  21922803.633 7 -13547961.48148  21922799.10948        48.000
        37.2504
  -5393149.650 5  24280777.148 5  -4189275.36846  24280777.80546        40.250
        24.7504
  -2035172.035 4  24898962.242 4  -1578298.66746  24898958.12946        38.750
        22.2504
  -4703929.859 5  24564698.727 5  -3656018.51446  24564697.77346        40.250
        22.7504
 11  3 11  1 10 30.0000000  0 10G 2G 4G 5G 7G 8G10G13G17G23G26
 -26151029.739 7  20435164.969 7 -20300753.63249  20435158.25449        50.250
        45.5004
 -23203269.246 8  20600467.352 8 -18066318.69649  20600463.41049        52.500
        45.5004
 -16588172.397 7  22030935.305 7 -12918177.93248  22030931.54748        47.500
        39.0004
  -8667196.241 6  23585465.961 6  -6749278.09047  23585463.37147        46.000
        32.0004
  -4491985.446 5  24756006.125 5  -3487271.41946  24756005.96946        40.000
        24.5004
 -24659258.806 8  20352986.305 8 -19054853.84349  20352981.88349        52.750
        46.0004
 -17328422.936 7  21936885.719 7 -13490297.94348  21936880.96548        47.500
        37.0004
  -5279606.188 5  24302384.102 5  -4100800.30646  24302384.26646        40.500
        23.0004
  -1933104.082 4  24918385.211 4  -1498765.36046  24918380.84846        38.750
        21.0004
  -4829296.664 5  24540842.305 5  -3753706.90246  24540841.70746        40.000
        22.0004
 11  3 11  1 11  0.0000000  0 10G 2G 4G 5G 7G 8G10G13G17G23G26
 -26198257.556 7  20426177.781 7 -20337554.52349  20426171.36749        50.500
        45.7504
 -23166773.347 7  20607412.891 7 -18037880.38149  20607409.44149        51.500
        45.7504
 -16644121.698 6  22020288.414 6 -12961774.76148  22020284.39848        47.000
        39.2504
  -8730335.064 6  23573450.742 6  -6798477.10047  23573447.88347        46.500
        33.0004
  -4578361.545 5  24739568.906 5  -3554577.25046  24739569.22746        40.000
        24.0004
 -24641164.816 8  20356429.602 8 -19040754.65549  20356425.21149        52.750
        45.7504
 -17253998.925 7  21951048.234 7 -13432305.25748  21951043.84448        47.500
        37.0004
  -5166049.795 5  24323993.438 5  -4012315.10746  24323994.42246        39.750
        21.5004
  -1830925.480 4  24937828.594 4  -1419145.80446  24937825.30546        38.500
        21.0004
  -4954598.409 5  24516997.734 5  -3851344.57546  24516997.04746        41.000
        21.5004
 11  3 11  1 11 30.0000000  0 10G 2G 4G 5G 7G 8G10G13G17G23G26
 -26245136.120 7  20417257.039 7 -20374083.27749  20417250.94949        50.000
        45.7504
 -23129889.645 7  20614430.797 7 -18009139.85849  20614427.27349        52.000
        45.5004
 -16699867.246 7  22009680.141 7 -13005212.82748  22009675.87948        47.500
        39.0004
  -8793162.102 7  23561495.273 7  -6847433.15447  23561492.64847        47.500
        33.5004
  -4664741.329 5  24723131.344 5  -3621886.01446  24723130.43446        40.500
        21.2504
 -24622790.526 8  20359925.922 8 -19026437.03849  20359921.52049        52.500
        46.0004
 -17179155.252 7  21965290.977 7 -13373985.55548  21965286.00848        48.500
        37.2504
  -5052482.724 4  24345603.961 4  -3923821.57246  24345604.84846        38.250
        21.5004
  -1728638.785 4  24957293.219 4  -1339442.02946  24957290.33646        38.250
        19.7504
  -5079832.402 5  24493166.609 5  -3948929.50646  24493165.75046        41.750
        20.5004
 11  3 11  1 12  0.0000000  0 10G 2G 4G 5G 7G 8G10G13G17G23G26
 -26291663.664 7  20408403.070 7 -20410338.51549  20408396.74249        50.250
        46.0004
 -23092618.291 7  20621523.594 7 -17980097.26949  20621519.71149        52.250
        45.5004
 -16755409.170 7  21999110.852 7 -13048492.22248  21999106.53148        48.000
        39.2504
  -8855674.641 6  23549599.820 6  -6896144.14048  23549596.76248        47.250
        33.7504
  -4751122.055 4  24706693.070 4  -3689195.53946  24706691.16846        37.750
        19.2504
 -24604136.944 7  20363475.812 7 -19011901.80049  20363471.29349        52.250
        45.5004
 -17103894.688 7  21979612.367 7 -13315341.01348  21979608.07848        47.750
        37.2504
  -4938907.966 5  24367217.375 5  -3835322.08446  24367216.80946        39.750
        22.2504
  -1626246.048 4  24976777.992 4  -1259655.61746  24976775.08246        37.500
        19.2504
  -5204996.009 5  24469348.648 5  -4046459.53546  24469348.15246        40.750
        20.7504
 11  3 11  1 12 30.0000000  0 10G 2G 4G 5G 7G 8G10G13G17G23G26
 -26337838.268 7  20399616.586 7 -20446318.74349  20399609.84449        51.000
        46.0004
 -23054959.789 7  20628689.930 7 -17950753.02649  20628686.06649        52.000
        45.2504
 -16810748.047 7  21988580.281 7 -13091613.39948  21988576.60248        48.500
        40.2504
  -8917870.098 6  23537764.656 6  -6944608.07048  23537761.42648        47.250
        34.0004
  -4837500.430 5  24690255.617 5  -3756503.18346  24690254.26646        39.750
        22.7504
 -24585205.651 8  20367078.492 8 -18997150.13749  20367073.71149        52.500
        45.5004
 -17028220.175 7  21994012.102 7 -13256373.92248  21994008.71548        47.500
        36.7504
  -4825328.201 4  24388831.500 4  -3746818.69946  24388830.79346        37.750
        21.0004
  -1523749.964 3  24996280.445 3  -1179788.71545  24996277.37145        36.500
        17.2504
  -5330087.249 5  24445544.031 5  -4143933.18246  24445543.69546        40.500
        19.7504
 11  3 11  1 13  0.0000000  0 10G 2G 4G 5G 7G 8G10G13G17G23G26
 -26383657.590 7  20390897.594 7 -20482022.11149  20390890.80549        51.250
        46.0004
 -23016913.142 7  20635929.617 7 -17921106.30549  20635925.76649        52.000
        45.0004
 -16865883.310 7  21978088.516 7 -13134575.91948  21978084.77748        48.000
        39.5004
  -8979745.246 6  23525989.672 6  -6992822.40547  23525986.68847        46.250
        33.5004
  -4923873.475 5  24673819.102 5  -3823806.64346  24673819.51246        40.000
        22.5004
 -24565996.431 8  20370733.367 8 -18982181.93049  20370729.04749        52.500
        45.5004
 -16952133.861 7  22008491.195 7 -13197085.93548  22008487.10248        48.250
        36.5004
  -4711745.841 3  24410445.008 3  -3658313.31346  24410444.60246        37.000
        19.5004
  -1421152.481 3  25015806.711 3  -1099842.75345  25015802.61345        36.000
        17.2504
  -5455102.854 5  24421754.539 5  -4241347.84846  24421753.49246        41.000
        21.0004
 11  3 11  1 13 30.0000000  0 10G 2G 4G 5G 7G 8G10G13G17G23G26
 -26429120.211 7  20382246.219 7 -20517447.53649  20382239.59849        52.000
        46.0004
 -22978479.364 7  20643243.438 7 -17891157.91049  20643239.55549        52.250
        45.5004
 -16920815.642 7  21967634.969 7 -13177380.31748  21967630.98048        48.500
        39.0004
  -9041297.697 6  23514276.242 6  -7040785.28948  23514273.99248        45.250
        33.7504
  -5010239.046 5  24657383.938 5  -3891104.29946  24657384.92646        40.500
        25.7504
 -24546511.171 8  20374441.320 8 -18966998.64049  20374437.15249        52.500
        45.5004
 -16875638.967 7  22023047.969 7 -13137479.56948  22023042.94148        47.500
        36.5004
  -4598164.124 4  24432060.305 4  -3569808.46146  24432059.89546        38.500
        21.5004
  -1318456.250 2  25035348.719 2  -1019819.92645  25035344.95345        34.750
        14.7504
  -5580041.115 5  24397979.531 5  -4338702.24646  24397979.31246        40.500
        21.7504
 11  3 11  1 14  0.0000000  0 10G 2G 4G 5G 7G 8G10G13G17G23G26
 -26474223.376 7  20373663.312 7 -20552592.85549  20373656.50849        50.750
        46.2504
 -22939657.779 7  20650631.211 7 -17860907.35249  20650627.31249        52.000
        45.0004
 -16975544.667 7  21957220.281 7 -13220026.28048  21957216.32448        47.500
        39.2504
  -9102524.149 6  23502625.273 6  -7088494.15747  23502622.46547        45.000
        33.0004
  -5096593.603 5  24640951.898 5  -3958393.40946  24640951.63746        41.750
        24.5004
 -24526750.038 7  20378201.805 7 -18951600.36949  20378197.73449        52.000
        45.7504
 -16798737.779 7  22037681.766 7 -13077556.61248  22037676.98448        47.500
        37.0004
  -4484585.221 4  24453673.055 4  -3481305.76546  24453673.09446        38.000
        22.0004
  -1215663.149 1  25054909.367 1   -939721.50545  25054906.03945        33.750
        16.2504
  -5704899.017 4  24374219.289 4  -4435993.98446  24374220.07446        38.750
        22.2504
 11  3 11  1 14 30.0000000  0 10G 2G 4G 5G 7G 8G10G13G17G23G26
 -26518965.324 7  20365149.258 7 -20587456.71849  20365142.70749        51.250
        46.2504
 -22900448.833 7  20658092.117 7 -17830354.94749  20658087.90249        52.000
        45.5004
 -17030070.705 7  21946844.227 7 -13262514.08148  21946840.57048        48.000
        39.0004
  -9163422.123 7  23491037.211 7  -7135947.07047  23491033.85547        47.750
        33.5004
  -5182934.549 5  24624521.656 5  -4025671.87646  24624521.89146        42.000
        25.5004
 -24506714.645 7  20382014.367 7 -18935988.38149  20382010.16049        51.750
        45.5004
 -16721433.298 7  22052392.297 7 -13017319.40348  22052388.02048        48.000
        37.0004
  -4371012.194 5  24475286.367 5  -3392807.66846  24475284.44546        39.500
        21.7504
  -1112775.683 1  25074489.234 1   -859549.62545  25074485.11345        33.500
        13.7504
  -5829674.281 5  24350475.484 5  -4533221.31746  24350475.50846        40.250
        22.5004
 11  3 11  1 15  0.0000000  0 10G 2G 4G 5G 7G 8G10G13G17G23G26
 -26563344.298 7  20356704.445 7 -20622037.73049  20356697.78949        51.000
        46.2504
 -22860852.534 7  20665627.414 7 -17799500.71849  20665623.35949        51.250
        45.0004
 -17084393.944 7  21936506.789 7 -13304843.85948  21936503.10548        48.250
        40.5004
  -9223988.697 6  23479511.375 6  -7183141.75347  23479507.70347        46.000
        32.2504
  -5269259.145 5  24608094.461 5  -4092937.60046  24608093.89546        41.750
        22.5004
 -24486406.176 8  20385879.062 8 -18920163.61249  20385874.76649        53.500
        45.5004
 -16643728.309 7  22067178.977 7 -12956770.09648  22067175.13748        48.000
        36.7504
  -4257447.503 4  24496896.344 4  -3304316.05146  24496896.11746        39.000
        22.2504
  -1009796.383 1  25094085.445 1   -779306.10145  25094080.34445        33.000
        14.7504
  -5954364.297 5  24326748.312 5  -4630382.27146  24326747.41446        40.250
        22.0004
 11  3 11  1 15 30.0000000  0  9G 2G 4G 5G 7G 8G10G13G17G26
 -26607358.149 7  20348328.539 7 -20656334.23249  20348321.93449        51.000
        46.0004
 -22820869.006 7  20673235.945 7 -17768344.74549  20673231.81649        51.750
        45.2504
 -17138514.428 7  21926208.156 7 -13347015.64248  21926204.62548        48.500
        40.0004
  -9284221.299 6  23468049.406 6  -7230076.23347  23468045.55147        46.000
        32.2504
  -5355564.516 5  24591670.984 5  -4160188.36946  24591670.62146        41.000
        22.2504
 -24465825.400 7  20389795.602 7 -18904126.66849  20389791.31249        52.250
        45.5004
 -16565625.486 7  22082041.789 7 -12895910.79948  22082037.78148        47.500
        35.7504
  -4143894.180 4  24518505.344 4  -3215833.26446  24518505.02046        38.250
        21.2504
  -6078966.931 4  24303036.859 4  -4727475.09046  24303035.41046        39.000
        21.2504
 11  3 11  1 16  0.0000000  0  9G 2G 4G 5G 7G 8G10G13G17G26
 -26651004.242 7  20340023.000 7 -20690344.17849  20340016.37549        51.000
        46.2504
 -22780497.407 7  20680918.422 7 -17736886.36149  20680914.43449        51.000
        45.5004
 -17192431.528 7  21915948.266 7 -13389028.93648  21915944.50048        49.000
        39.5004
  -9344116.069 6  23456652.023 6  -7276747.45147  23456648.94547        46.250
        32.2504
  -5441846.776 6  24575251.852 6  -4227421.13346  24575250.46146        42.500
        22.0004
 -24444972.291 7  20393763.828 7 -18887877.51349  20393759.19149        51.750
        45.5004
 -16487126.775 7  22096979.469 7 -12834743.02048  22096974.73848        47.500
        35.5004
  -4030353.867 5  24540112.562 5  -3127360.72646  24540112.03946        40.000
        23.5004
  -6203478.624 5  24279342.969 5  -4824497.00946  24279341.74246        40.250
        19.7504
 11  3 11  1 16 30.0000000  0  9G 2G 4G 5G 7G 8G10G13G17G26
 -26694280.446 7  20331787.797 7 -20724065.90549  20331780.90649        50.500
        46.2504
 -22739738.107 7  20688674.688 7 -17705125.89749  20688670.55149        50.750
        45.0004
 -17246145.728 7  21905726.539 7 -13430884.13448  21905722.96948        48.000
        40.2504
  -9403670.580 6  23445319.055 6  -7323153.53247  23445315.55147        45.500
        32.5004
  -5528103.500 6  24558837.188 6  -4294633.99746  24558837.04746        43.250
        25.7504
 -24423848.314 7  20397783.516 7 -18871417.28249  20397779.08249        52.250
        46.0004
 -16408235.254 6  22111991.961 6 -12773269.14648  22111987.04748        47.250
        35.5004
  -3916829.339 4  24561715.000 4  -3038900.42146  24561715.85246        39.000
        22.0004
  -6327896.963 4  24255666.672 4  -4921446.26446  24255664.78546        38.500
        20.0004
 11  3 11  1 17  0.0000000  0  9G 2G 4G 5G 7G 8G10G13G17G26
 -26737185.482 7  20323623.539 7 -20757498.40549  20323616.79749        51.250
        46.2504
 -22698591.788 7  20696504.648 7 -17673063.87149  20696500.53949        51.750
        45.2504
 -17299657.163 7  21895544.203 7 -13472581.33748  21895540.11348        49.000
        39.5004
  -9462882.540 6  23434051.305 6  -7369292.68247  23434047.51647        45.500
        32.2504
  -5614331.971 6  24542428.562 6  -4361824.80346  24542429.01646        42.750
        26.0004
 -24402454.950 7  20401854.906 7 -18854747.15749  20401850.32849        52.000
        45.7504
 -16328954.042 6  22127078.633 6 -12711491.62548  22127074.26248        47.250
        35.5004
  -3803323.979 4  24583314.680 4  -2950455.08246  24583314.27346        38.500
        20.0004
  -6452220.099 5  24232008.609 5  -5018321.26446  24232007.09046        39.250
        20.0004
 11  3 11  1 17 30.0000000  0 10G 2G 4G 5G 7G 8G10G13G17G26G29
 -26779717.130 7  20315529.602 7 -20790639.95449  20315523.09049        52.250
        46.5004
 -22657058.624 7  20704408.031 7 -17640700.37149  20704404.12549        52.250
        44.7504
 -17352966.142 7  21885399.211 7 -13514120.77748  21885395.50448        48.500
        40.2504
  -9521748.881 6  23422849.461 6  -7415162.51947  23422845.65247        46.250
        32.0004
  -5700528.943 6  24526025.969 6  -4428991.10746  24526025.39546        43.000
        25.5004
 -24380792.967 7  20405976.875 7 -18837867.71449  20405972.35549        51.000
        45.5004
 -16249285.794 6  22142239.508 6 -12649412.51948  22142234.57048        47.000
        35.7504
  -3689840.254 4  24604910.414 4  -2862026.57646  24604908.97346        37.750
        20.5004
  -6576445.362 5  24208369.555 5  -5115120.02046  24208367.88346        41.000
        23.7504
   -418417.31411  25084184.844 1

 11  3 11  1 18  0.0000000  0 10G 2G 4G 5G 7G 8G10G13G17G26G29
 -26821872.145 7  20307507.875 7 -20823488.02449  20307501.52349        51.500
        46.5004
 -22615137.334 7  20712385.523 7 -17608034.47349  20712381.09449        51.500
        44.7504
 -17406071.602 7  21875293.797 7 -13555501.62448  21875289.61748        48.000
        40.0004
  -9580265.960 6  23411713.734 6  -7460760.20847  23411710.69947        46.500
        33.0004
  -5786690.708 5  24509628.953 5  -4496129.93946  24509629.01646        40.750
        25.2504
 -24358862.062 7  20410150.008 7 -18820778.72549  20410145.87949        52.000
        45.5004
 -16169232.349 7  22157473.023 7 -12587033.25548  22157468.72748        47.500
        36.2504
  -3576379.664 3  24626501.117 3  -2773616.04446  24626501.68846        37.000
        20.2504
  -6700569.090 5  24184749.633 5  -5211839.62946  24184748.30146        42.000
        24.2504
   -506510.92711  25067420.758 1

 11  3 11  1 18 30.0000000  0 10G 2G 4G 5G 7G 8G10G13G17G26G29
 -26863648.824 7  20299558.219 7 -20856041.28949  20299551.39849        52.000
        46.7504
 -22572828.280 7  20720436.609 7 -17575066.40849  20720432.85549        50.500
        44.7504
 -17458973.738 7  21865226.688 7 -13596724.04148  21865222.87948        48.500
        40.5004
  -9638431.001 6  23400645.812 6  -7506083.59648  23400642.21148        47.000
        34.0004
  -5872814.290 5  24493239.719 5  -4563239.02646  24493240.08646        40.500
        22.7504
 -24336663.291 7  20414374.273 7 -18803480.98649  20414370.05149        50.500
        45.7504
 -16088796.281 6  22172779.297 6 -12524355.83848  22172775.50848        46.500
        35.5004
  -3462945.178 3  24648087.953 3  -2685225.91946  24648089.47746        37.250
        22.5004
  -6824588.998 5  24161149.367 5  -5308478.34446  24161148.84446        41.750
        22.7504
   -594315.79311  25050712.320 1

 11  3 11  1 19  0.0000000  0 10G 2G 4G 5G 7G 8G10G13G17G26G29
 -26905047.756 8  20291680.367 8 -20888300.19549  20291673.93449        52.500
        46.7504
 -22530134.032 7  20728560.852 7 -17541798.17949  20728557.18449        51.000
        45.5004
 -17511675.462 7  21855197.891 7 -13637790.28648  21855194.21148        49.000
        40.5004
  -9696243.981 6  23389644.203 6  -7551132.63048  23389640.52348        46.000
        34.5004
  -5958899.737 5  24476858.430 5  -4630318.41346  24476857.27346        40.000
        22.5004
 -24314200.420 8  20418648.789 8 -18785977.47449  20418644.44549        52.500
        45.2504
 -16007982.870 6  22188157.859 6 -12461384.41848  22188153.42648        46.250
        34.7504
  -3349541.775 3  24669668.328 3  -2596860.03246  24669670.25046        36.750
        22.2504
  -6948505.197 5  24137567.984 5  -5405036.26646  24137567.89846        40.250
        21.5004
   -681831.726 1  25034058.539 1

 11  3 11  1 19 30.0000000  0 10G 2G 4G 5G 7G 8G10G13G17G26G29
 -26946064.895 7  20283875.195 7 -20920261.61949  20283868.54749        52.000
        47.0004
 -22487052.781 7  20736759.070 7 -17508228.41349  20736755.47349        51.000
        45.5004
 -17564174.195 7  21845208.047 7 -13678698.35548  21845203.66848        48.250
        41.0004
  -9753700.192 6  23378710.555 6  -7595903.66948  23378707.43048        46.250
        33.7504
  -6044941.423 5  24460485.789 5  -4697363.71346  24460484.49246        40.750
        21.7504
 -24291472.280 8  20422974.180 8 -18768267.25449  20422969.38749        52.500
        45.5004
 -15926793.332 6  22203607.734 6 -12398119.88448  22203603.19548        46.250
        35.2504
  -3236170.209 3  24691241.281 3  -2508518.99146  24691241.47746        35.750
        19.5004
  -7072312.854 5  24114008.188 5  -5501509.61646  24114007.59846        39.500
        21.5004
   -769054.965 2  25017458.664 2

 11  3 11  1 20  0.0000000  0 10G 2G 4G 5G 7G 8G10G13G17G26G29
 -26986698.093 8  20276142.773 8 -20951923.85949  20276136.10249        52.500
        46.7504
 -22443584.565 7  20745031.117 7 -17474357.12049  20745026.91049        52.000
        45.0004
 -17616470.490 7  21835256.094 7 -13719448.67748  21835251.90648        48.250
        40.5004
  -9810796.520 6  23367845.383 6  -7640394.25547  23367842.37147        45.000
        33.0004
  -6130936.546 5  24444120.906 5  -4764372.75046  24444119.05946        42.000
        24.0004
 -24268479.656 7  20427349.164 7 -18750350.93949  20427345.11749        51.750
        45.5004
 -15845229.954 6  22219128.734 6 -12334564.05648  22219124.62148        47.250
        35.2504
  -3122832.627 3  24712810.516 3  -2420204.40746  24712812.30546        37.250
        22.7504
  -7196009.244 5  24090469.883 5  -5597896.24646  24090468.90246        41.000
        22.2504
   -855982.11312  25000919.062 2

 11  3 11  1 20 30.0000000  0 10G 2G 4G 5G 7G 8G10G13G17G26G29
 -27026946.837 7  20268483.578 7 -20983286.50649  20268477.22749        52.000
        47.2504
 -22399731.048 7  20753376.328 7 -17440185.57749  20753372.42249        52.000
        45.0004
 -17668565.636 7  21825342.898 7 -13760042.27248  21825338.85248        48.750
        40.0004
  -9867531.825 6  23357048.867 6  -7684603.54547  23357045.43847        46.500
        32.7504
  -6216883.457 5  24427765.992 5  -4831344.23046  24427765.43446        41.250
        24.5004
 -24245225.086 7  20431774.711 7 -18732230.50849  20431770.38349        52.250
        45.5004
 -15763297.313 6  22234719.867 6 -12270720.49048  22234715.37548        47.250
        35.0004
  -3009533.599 2  24734370.125 2  -2331919.84746  24734372.62946        35.500
        21.5004
  -7319593.650 5  24066952.500 5  -5694195.63546  24066950.80946        41.750
        22.7504
   -942612.293 3  24984434.461 3   -714922.55755  24984435.94145        37.250
        16.7505
 11  3 11  1 21  0.0000000  0 10G 2G 4G 5G 7G 8G10G13G17G26G29
 -27066807.788 8  20260898.070 8 -21014346.99349  20260891.98049        52.500
        47.0004
 -22355491.234 8  20761794.508 8 -17405713.05049  20761790.96949        52.500
        45.5004
 -17720458.395 7  21815468.000 7 -13800478.16948  21815463.63748        49.000
        40.2504
  -9923901.961 6  23346321.828 6  -7728528.28047  23346318.46947        46.250
        32.7504
  -6302778.353 5  24411419.867 5  -4898275.17046  24411420.42246        41.500
        25.5004
 -24221707.766 7  20436249.789 7 -18713905.33949  20436245.65649        51.500
        45.5004
 -15680996.532 6  22250380.906 6 -12206590.07348  22250376.51648        46.000
        33.7504
  -2896273.947 2  24755922.961 2  -2243666.04946  24755922.88346        35.000
        21.0004
  -7443062.110 5  24043456.422 5  -5790404.70046  24043455.93046        41.000
        26.0004
  -1028942.172 3  24968005.625 3   -782192.62146  24968002.75846        36.500
        19.0004
 11  3 11  1 21 30.0000000  0 10G 2G 4G 5G 7G 8G10G13G17G26G29
 -27106278.706 7  20253387.250 7 -21045103.55649  20253380.65249        52.000
        47.2504
 -22310864.679 8  20770286.773 8 -17370939.10749  20770282.76649        52.750
        44.7504
 -17772148.933 7  21805631.422 7 -13840756.47848  21805627.20748        49.000
        40.5004
  -9979904.279 6  23335665.352 6  -7772166.42047  23335661.22747        46.000
        32.7504
  -6388617.657 5  24395084.945 5  -4965162.76546  24395085.61346        40.750
        24.5004
 -24197928.744 7  20440774.891 7 -18695376.25749  20440770.35249        52.000
        45.5004
 -15598330.167 6  22266112.195 6 -12142174.77548  22266108.23448        46.250
        34.7504
  -2783056.260 2  24777466.766 2  -2155444.94446  24777470.54746        34.500
        21.2504
  -7566411.654 5  24019984.227 5  -5886521.07546  24019982.70746        41.500
        23.5004
  -1114968.575 4  24951634.867 4   -849226.17946  24951632.24246        37.500
        19.2504
 11  3 11  1 22  0.0000000  0 10G 2G 4G 5G 7G 8G10G13G17G26G29
 -27145358.283 7  20245950.703 7 -21075555.16749  20245944.34049        52.000
        47.0004
 -22265852.507 7  20778852.562 7 -17335864.70849  20778848.80149        52.000
        45.0004
 -17823638.014 7  21795833.031 7 -13880877.81448  21795829.12148        48.500
        40.2504
 -10035536.573 6  23325078.250 6  -7815516.19647  23325075.13347        45.750
        32.7504
  -6474398.780 5  24378761.734 5  -5032005.04347  24378761.41847        42.000
        26.7504
 -24173889.550 7  20445349.070 7 -18676644.41449  20445344.56249        52.000
        45.5004
 -15515301.723 6  22281912.453 6 -12077477.36048  22281908.12548        47.000
        35.0004
  -2669883.823 2  24799004.422 2  -2067259.14446  24799006.82446        35.250
        20.7504
  -7689640.685 5  23996534.742 5  -5982543.58446  23996532.98846        42.000
        22.0004
  -1200689.974 4  24935322.156 4   -916022.11746  24935320.84446        37.500
        19.0004
 11  3 11  1 22 30.0000000  0 10G 2G 4G 5G 7G 8G10G13G17G26G29
 -27184043.836 8  20238588.984 8 -21105699.76049  20238582.33649        52.500
        47.0004
 -22220454.373 8  20787491.461 8 -17300489.63549  20787486.97749        52.500
        44.5004
 -17874924.902 7  21786073.695 7 -13920841.60648  21786069.71148        48.250
        40.5004
 -10090795.526 6  23314563.188 6  -7858575.08147  23314559.82047        44.500
        33.5004
  -6560118.668 5  24362449.422 5  -5098799.59046  24362448.66046        41.000
        26.0004
 -24149590.386 7  20449973.297 7 -18657710.01249  20449968.87949        50.500
        45.5004
 -15431913.192 6  22297780.438 6 -12012499.35048  22297777.06248        46.500
        35.5004
  -2556758.705 1  24820531.375 1  -1979110.17146  24820533.87546        33.000
        21.5004
  -7812745.915 5  23973108.023 5  -6078469.57546  23973107.73046        41.500
        25.7504
  -1286103.274 3  24919069.672 3   -982577.95946  24919066.52346        36.750
        19.7504
 11  3 11  1 23  0.0000000  0 10G 2G 4G 5G 7G 8G10G13G17G26G29
 -27222334.396 7  20231302.781 7 -21135536.58449  20231296.28949        52.250
        47.0004
 -22174671.082 7  20796203.883 7 -17264814.37849  20796200.37149        52.000
        44.7504
 -17926009.891 7  21776352.578 7 -13960648.06648  21776348.35948        47.500
        40.5004
 -10145679.130 6  23304119.188 6  -7901341.47347  23304115.19147        46.000
        33.2504
  -6645774.844 5  24346150.359 5  -5165544.53946  24346149.32446        41.750
        26.0004
 -24125033.034 8  20454646.633 8 -18638574.45249  20454642.28549        52.500
        45.5004
 -15348168.142 6  22313716.414 6 -11947243.54848  22313712.81248        46.500
        34.7504
  -2443683.954 1  24842048.750 1  -1891000.51046  24842051.96946        33.750
        21.5004
  -7935725.386 5  23949706.211 5  -6174297.55846  23949704.97346        41.750
        25.5004
  -1371206.520 4  24902875.102 4  -1048892.19246  24902871.49646        38.750
        21.5004
 11  3 11  1 23 30.0000000  0 10G 2G 4G 5G 7G 8G10G13G17G26G29
 -27260227.451 7  20224091.680 7 -21165063.64449  20224085.48049        51.500
        47.0004
 -22128502.446 7  20804989.641 7 -17228838.87449  20804985.82049        52.000
        44.7504
 -17976893.199 7  21766669.945 7 -14000297.37649  21766666.03149        47.500
        41.2504
 -10200184.546 6  23293746.828 6  -7943813.20047  23293743.23047        44.750
        33.0004
  -6731363.737 5  24329862.859 5  -5232237.07246  24329861.26246        41.000
        22.7504
 -24100218.091 8  20459368.875 8 -18619238.16149  20459364.09049        52.500
        45.5004
 -15264069.054 6  22329720.469 6 -11881711.87248  22329716.37548        46.250
        34.2504
  -2330661.846 2  24863557.375 2  -1802931.90646  24863560.07846        34.750
        22.0004
  -8058576.399 5  23926328.266 5  -6270025.50146  23926326.94546        41.250
        24.5004
  -1455996.931 4  24886740.484 4  -1114962.66546  24886736.62946        38.250
        21.5004
 11  3 11  1 24  0.0000000  0 10G 2G 4G 5G 7G 8G10G13G17G26G29
 -27297721.082 7  20216957.055 7 -21194279.47149  20216950.52349        51.750
        47.2504
 -22081948.976 8  20813848.359 8 -17192563.49649  20813844.64849        52.500
        45.2504
 -18027575.164 7  21757025.461 7 -14039789.78848  21757021.41048        48.250
        41.0004
 -10254309.011 6  23283447.266 6  -7985988.06047  23283444.11347        46.250
        33.5004
  -6816882.359 5  24313588.852 5  -5298874.87546  24313586.86346        41.250
        23.5004
 -24075146.763 7  20464139.500 7 -18599702.08249  20464135.24249        52.250
        45.5004
 -15179618.930 6  22345790.398 6 -11815906.65848  22345786.22348        45.750
        34.0004
  -2217695.142 2  24885053.633 2  -1714906.42346  24885058.32846        35.000
        22.0004
  -8181296.425 5  23902975.180 5  -6365651.31946  23902974.04346        41.500
        25.7504
  -1540472.189 4  24870664.836 4  -1180787.59346  24870661.29746        38.250
        22.0004
 11  3 11  1 24 30.0000000  0 10G 2G 4G 5G 7G 8G10G13G17G26G29
 -27334813.407 7  20209898.703 7 -21223182.59849  20209892.16849        52.000
        47.5004
 -22035010.735 8  20822780.477 8 -17155988.25049  20822776.67249        52.500
        44.5004
 -18078055.918 7  21747419.242 7 -14079125.41548  21747415.06248        48.000
        40.2504
 -10308049.993 6  23273220.953 6  -8027864.11947  23273217.75047        45.500
        33.5004
  -6902328.210 5  24297327.734 5  -5365455.92046  24297328.21946        40.000
        23.5004
 -24049819.614 7  20468958.930 7 -18579966.67049  20468954.80549        52.000
        45.2504
 -15094820.367 6  22361927.266 6 -11749829.91748  22361923.10948        46.500
        34.5004
  -2104786.190 2  24906538.883 2  -1626925.98446  24906542.83246        35.000
        21.7504
  -8303882.723 5  23879647.508 5  -6461172.98446  23879645.46146        40.000
        22.5004
  -1624629.882 4  24854650.117 4  -1246365.02046  24854647.28946        39.000
        22.5004
 11  3 11  1 25  0.0000000  0 10G 2G 4G 5G 7G 8G10G13G17G26G29
 -27371501.876 7  20202917.023 7 -21251771.03549  20202910.69149        51.250
        47.7504
 -21987687.709 8  20831785.523 8 -17119113.18949  20831781.52749        53.000
        44.7504
 -18128334.758 6  21737851.609 6 -14118303.69048  21737847.19148        47.000
        41.0004
 -10361404.671 6  23263067.484 6  -8069439.17547  23263064.09447        45.500
        32.5004
  -6987697.826 5  24281083.062 5  -5431977.55546  24281082.19546        39.500
        23.5004
 -24024237.159 7  20473827.359 7 -18560032.31049  20473822.75849        51.000
        45.5004
 -15009675.991 6  22378129.867 6 -11683483.72748  22378125.69948        46.250
        34.5004
  -1991937.684 2  24928015.469 2  -1538992.70146  24928020.09446        35.000
        22.0004
  -8426332.575 4  23856345.219 4  -6556588.27546  23856343.85546        39.000
        22.7504
  -1708467.278 4  24838695.898 4  -1311692.86146  24838693.59046        38.500
        24.5004
 11  3 11  1 25 30.0000000  0 10G 2G 4G 5G 7G 8G10G13G17G26G29
 -27407785.167 7  20196012.703 7 -21280043.73949  20196006.11749        51.000
        47.5004
 -21939980.610 8  20840863.570 8 -17081938.86449  20840860.08649        53.000
        44.5004
 -18178412.563 7  21728321.938 7 -14157325.33549  21728317.73849        47.750
        41.5004
 -10414370.619 6  23252989.531 6  -8110711.30747  23252985.40647        46.500
        33.2504
  -7072988.205 5  24264853.688 5  -5498437.49446  24264852.07446        41.750
        25.7504
 -23998400.956 7  20478743.883 7 -18539900.23349  20478739.37949        51.000
        45.5004
 -14924188.823 6  22394397.094 6 -11616870.42648  22394393.50048        45.500
        33.7504
  -1879152.073 3  24949478.430 3  -1451108.41746  24949482.00046        36.500
        21.2504
  -8548643.890 4  23833070.523 4  -6651895.60046  23833068.54346        38.750
        23.0004
  -1791982.202 4  24822804.055 4  -1376769.48246  24822800.97746        39.000
        22.5004
 11  3 11  1 26  0.0000000  0 10G 2G 4G 5G 7G 8G10G13G17G26G29
 -27443661.513 7  20189185.414 7 -21307999.33249  20189178.91049        51.000
        47.5004
 -21891889.949 8  20850015.352 8 -17044465.66249  20850011.47749        53.250
        44.5004
 -18228289.306 7  21718830.734 7 -14196190.29549  21718826.46949        48.000
        41.2504
 -10466945.479 6  23242983.977 6  -8151678.69147  23242981.02347        45.250
        33.5004
  -7158196.924 6  24248638.805 6  -5564833.76247  24248637.89847        43.000
        27.0004
 -23972311.789 7  20483708.625 7 -18519571.03649  20483704.17249        51.000
        45.5004
 -14838361.660 6  22410729.938 6 -11549992.20147  22410725.96547        45.250
        33.5004
  -1766432.088 4  24970928.758 4  -1363275.36446  24970932.57846        37.750
        22.0004
  -8670814.072 5  23809821.945 5  -6747093.00446  23809821.57846        40.000
        24.5004
  -1875172.531 5  24806973.344 5  -1441593.07046  24806970.24246        40.500
        23.2504
 11  3 11  1 26 30.0000000  0 10G 2G 4G 5G 7G 8G10G13G17G26G29
 -27479128.855 7  20182436.359 7 -21335636.24649  20182430.06649        51.250
        47.5004
 -21843415.984 8  20859239.492 8 -17006693.78849  20859235.75849        52.500
        44.2504
 -18277965.238 7  21709377.898 7 -14234898.77848  21709373.93848        47.750
        40.5004
 -10519126.339 6  23233054.250 6  -8192339.08747  23233051.38747        46.250
        33.5004
  -7243320.894 6  24232440.156 6  -5631164.01147  24232438.96547        43.250
        28.0004
 -23945970.598 7  20488720.836 7 -18499045.43449  20488716.40249        51.000
        45.2504
 -14752197.217 6  22427126.375 6 -11482851.15747  22427122.69947        45.750
        33.5004
  -1653780.717 4  24992366.102 4  -1275495.75046  24992371.49646        37.500
        22.0004
  -8792840.943 5  23786601.773 5  -6842178.71747  23786600.82447        40.500
        26.7504
  -1958035.633 5  24791204.953 5  -1506161.77246  24791201.78146        39.500
        22.7504
 11  3 11  1 27  0.0000000  0  9G 2G 4G 5G 7G 8G10G13G26G29
 -27514180.978 7  20175766.266 7 -21362949.59849  20175759.68049        51.250
        47.5004
 -21794554.385 7  20868537.625 7 -16968619.87749  20868534.28549        52.000
        44.2504
 -18327436.148 7  21699963.586 7 -14273447.50849  21699959.48049        47.500
        41.2504
 -10570906.615 6  23223200.930 6  -8232687.32147  23223197.36747        45.000
        33.5004
  -7328352.327 6  24216258.641 6  -5697422.13246  24216257.25846        42.500
        25.2504
 -23919373.695 7  20493782.273 7 -18478320.59549  20493777.64849        51.000
        45.5004
 -14665694.768 6  22443587.508 6 -11415446.73148  22443583.56648        46.250
        34.0004
  -8914717.167 5  23763409.766 5  -6937147.06946  23763407.23846        40.250
        24.7504
  -2040564.842 5  24775499.461 5  -1570470.26046  24775497.52346        39.250
        25.7504
 11  3 11  1 27 30.0000000  0  9G 2G 4G 5G 7G 8G10G13G26G29
 -27548823.899 7  20169173.812 7 -21389944.08749  20169167.48049        50.750
        47.5004
 -21745313.452 7  20877907.922 7 -16930250.33749  20877904.46549        51.250
        44.0004
 -18376709.623 7  21690587.406 7 -14311842.38749  21690583.06249        48.000
        41.5004
 -10622291.386 6  23213422.859 6  -8272727.39848  23213419.26648        45.250
        34.0004
  -7413296.320 6  24200094.648 6  -5763612.10946  24200093.52746        43.000
        25.5004
 -23892530.123 7  20498890.219 7 -18457403.53749  20498886.32849        50.750
        45.2504
 -14578864.290 6  22460110.836 6 -11347786.67247  22460106.54347        46.250
        33.5004
  -9036448.377 5  23740244.336 5  -7032002.40046  23740242.75846        40.750
        24.7504
  -2122765.694 5  24759858.297 5  -1634522.88046  24759854.94146        39.250
        23.0004
 11  3 11  1 28  0.0000000  0  9G 2G 4G 5G 7G 8G10G13G26G29
 -27583051.643 7  20162660.438 7 -21416615.07149  20162654.07449        51.000
        47.5004
 -21695689.751 7  20887350.867 7 -16891582.52549  20887347.47749        52.250
        44.0004
 -18425782.201 7  21681248.992 7 -14350080.72549  21681244.73049        48.750
        41.5004
 -10673274.400 6  23203721.094 6  -8312454.42648  23203717.25048        45.500
        34.7504
  -7498145.964 6  24183947.539 6  -5829728.64246  24183944.69946        42.500
        23.5004
 -23865436.990 7  20504046.164 7 -18436292.00549  20504041.75849        51.000
        45.2504
 -14491704.400 6  22476696.961 6 -11279869.93147  22476693.26647        45.500
        33.0004
  -9158027.968 5  23717108.359 5  -7126739.59747  23717106.47747        41.500
        26.2504
  -2204631.404 4  24744279.258 4  -1698314.36246  24744276.18046        38.750
        23.0004
 11  3 11  1 28 30.0000000  0  9G 2G 4G 5G 7G 8G10G13G26G29
 -27616862.685 7  20156226.625 7 -21442961.35949  20156219.66449        51.000
        48.0004
 -21645683.704 8  20896866.844 8 -16852616.80049  20896863.23449        52.750
        44.5004
 -18474654.081 7  21671948.609 7 -14388162.68449  21671945.07449        48.250
        41.2504
 -10723853.338 6  23194096.180 6  -8351866.57948  23194092.63348        46.000
        34.0004
  -7582898.526 6  24167820.703 6  -5895769.45647  24167818.44147        44.500
        27.0004
 -23838095.092 7  20509249.078 7 -18414986.64549  20509244.53549        50.750
        45.0004
 -14404218.592 6  22493344.750 6 -11211699.24947  22493341.16847        45.500
        33.2504
  -9279453.706 5  23694002.016 5  -7221356.84847  23694000.05147        40.500
        26.7504
  -2286160.130 4  24728765.562 4  -1761843.23546  24728761.93046        37.750
        22.7504
 11  3 11  1 29  0.0000000  0  9G 2G 4G 5G 7G 8G10G13G26G29
 -27650254.608 7  20149872.375 7 -21468981.06549  20149865.52749        50.750
        47.7504
 -21595295.428 8  20906455.539 8 -16813353.28549  20906452.09449        52.500
        44.0004
 -18523324.796 7  21662686.906 7 -14426087.88849  21662682.91049        47.500
        41.5004
 -10774025.180 6  23184548.742 6  -8390961.52148  23184545.23048        44.500
        34.0004
  -7667550.330 6  24151711.320 6  -5961731.74347  24151711.36347        43.500
        27.5004
 -23810505.048 7  20514499.297 7 -18393487.91249  20514495.05549        50.500
        45.2504
 -14316409.174 6  22510054.188 6 -11143276.40747  22510050.65247        45.250
        33.5004
  -9400722.799 5  23670924.484 5  -7315852.13846  23670922.84446        39.500
        24.0004
  -2367349.039 4  24713315.234 4  -1825107.31446  24713313.30546        37.500
        22.5004
 11  3 11  1 29 30.0000000  0  9G 2G 4G 5G 7G 8G10G13G26G29
 -27683225.733 7  20143598.047 7 -21494672.86049  20143591.24249        51.000
        48.0004
 -21544525.270 8  20916116.773 8 -16773792.12949  20916113.25049        52.500
        44.2504
 -18571794.842 7  21653463.492 7 -14463856.74848  21653459.09848        49.500
        41.0004
 -10823787.893 6  23175079.047 6  -8429737.65448  23175075.56248        45.250
        34.2504
  -7752099.148 6  24135622.008 6  -6027613.79846  24135619.76246        42.500
        25.7504
 -23782668.160 7  20519796.539 7 -18371796.85649  20519791.92249        50.750
        45.2504
 -14228279.275 6  22526825.328 6 -11074603.84147  22526821.72347        46.000
        33.5004
  -9521832.502 5  23647877.828 5  -7410223.22146  23647875.91046        40.000
        26.0004
  -2448195.989 4  24697930.203 4  -1888104.92446  24697927.54746        38.000
        22.2504
 11  3 11  1 30  0.0000000  0  9G 2G 4G 5G 7G 8G10G13G26G29
 -27715774.044 7  20137404.109 7 -21520035.19149  20137398.04749        51.000
        48.0004
 -21493373.628 8  20925850.477 8 -16733933.74449  20925846.80549        53.000
        44.0004
 -18620064.092 7  21644278.359 7 -14501469.13048  21644274.04748        47.750
        41.0004
 -10873138.565 6  23165688.336 6  -8468192.70748  23165684.52048        45.000
        34.5004
  -7836541.386 6  24119552.812 6  -6093412.81247  24119550.89147        43.000
        26.5004
 -23754585.199 7  20525140.539 7 -18349914.05049  20525136.62149        50.500
        45.2504
 -14139831.487 6  22543655.992 6 -11005683.54647  22543652.45347        45.250
        33.0004
  -9642780.438 4  23624861.922 4  -7504468.25446  23624859.83246        38.750
        22.7504
  -2528698.777 3  24682611.922 3  -1950834.38746  24682608.45346        37.000
        21.5004
 11  3 11  1 30 30.0000000  0  9G 2G 4G 5G 7G 8G10G13G26G29
 -27747898.265 7  20131291.367 7 -21545067.06149  20131284.84449        51.000
        48.0004
 -21441841.511 7  20935657.039 7 -16693778.88149  20935653.24649        52.000
        44.5004
 -18668133.371 7  21635130.523 7 -14538925.69749  21635126.98049        49.000
        41.2504
 -10922075.448 6  23156375.750 6  -8506325.33248  23156371.72348        44.500
        33.7504
  -7920874.112 6  24103504.844 6  -6159126.45847  24103504.69147        43.750
        28.0004
 -23726257.313 7  20530530.992 7 -18327840.40049  20530526.77749        50.750
        45.5004
 -14051069.060 6  22560547.125 6 -10936518.08747  22560543.43447        45.000
        32.0004
  -9763564.760 5  23601877.805 5  -7598585.80146  23601875.70746        40.000
        25.5004
  -2608855.398 4  24667358.453 4  -2013294.08046  24667355.19146        39.000
        22.0004
 11  3 11  1 31  0.0000000  0  9G 2G 4G 5G 7G 8G10G13G26G29
 -27779595.812 7  20125259.539 7 -21569766.44449  20125253.16449        51.000
        48.0004
 -21389928.683 7  20945535.555 7 -16653327.38849  20945532.23849        52.000
        44.0004
 -18716002.021 7  21626021.781 7 -14576225.93148  21626017.73848        48.000
        41.0004
 -10970595.230 6  23147142.383 6  -8544132.94848  23147139.01248        45.250
        34.0004
  -8005094.480 6  24087478.156 6  -6224752.57547  24087476.37147        42.750
        26.2504
 -23697684.592 7  20535968.352 7 -18305575.94449  20535963.91049        50.500
        45.2504
 -13961994.168 6  22577497.930 6 -10867109.14147  22577493.68447        44.750
        32.5004
  -9884181.994 5  23578924.891 5  -7692573.14846  23578922.83246        40.750
        25.7504
  -2688662.473 3  24652172.211 3  -2075481.43446  24652167.91846        37.250
        22.0004
 11  3 11  1 31 30.0000000  0  9G 2G 4G 5G 7G 8G10G13G26G29
 -27810865.254 7  20119309.047 7 -21594132.25349  20119302.72749        51.500
        48.2504
 -21337635.705 8  20955486.508 8 -16612579.66849  20955483.12549        52.750
        44.0004
 -18763670.087 6  21616950.695 6 -14613369.86848  21616946.37948        46.500
        40.7504
 -11018695.853 6  23137988.945 6  -8581613.93948  23137986.13748        44.500
        34.0004
  -8089199.646 6  24071473.961 6  -6290288.96847  24071472.60947        43.000
        26.2504
 -23668868.536 7  20541451.578 7 -18283121.90549  20541448.00049        51.500
        45.0004
 -13872609.894 6  22594506.711 6 -10797459.12947  22594503.42647        45.000
        32.5004
 -10004630.029 5  23556004.633 5  -7786428.68947  23556002.27747        41.000
        27.5004
  -2768118.463 3  24637051.039 3  -2137395.17946  24637048.09446        37.250
        21.5004
 11  3 11  1 32  0.0000000  0  9G 2G 4G 5G 7G 8G10G13G26G29
 -27841704.485 7  20113440.484 7 -21618162.83049  20113433.97349        51.000
        48.2504
 -21284962.663 7  20965510.148 7 -16571535.77449  20965506.07449        52.250
        44.5004
 -18811137.937 7  21607918.359 7 -14650357.80349  21607914.15649        48.000
        41.7504
 -11066374.753 6  23128916.320 6  -8618766.32648  23128912.86748        44.500
        35.0004
  -8173186.096 6  24055491.398 6  -6355732.80547  24055490.95347        43.000
        27.0004
 -23639809.780 7  20546981.664 7 -18260478.74749  20546977.39149        50.500
        45.0004
 -13782918.834 6  22611574.320 6 -10727570.07947  22611570.90647        44.500
        32.5004
 -10124906.110 5  23533117.273 5  -7880150.20247  23533115.57047        41.750
        28.0004
  -2847220.425 4  24621999.516 4  -2199033.09846  24621996.56646        38.000
        22.5004
 11  3 11  1 32 30.0000000  0  9G 2G 4G 5G 7G 8G10G13G26G29
 -27872111.787 7  20107654.312 7 -21641856.83649  20107647.67649        51.500
        48.5004
 -21231910.505 8  20975605.789 8 -16530196.51649  20975601.80149        52.750
        43.5004
 -18858405.718 7  21598923.102 7 -14687189.83849  21598918.93449        48.250
        41.5004
 -11113629.741 6  23119923.500 6  -8655588.37748  23119920.35948        44.500
        34.2504
  -8257051.137 6  24039532.398 6  -6421082.04747  24039530.00447        42.750
        26.5004
 -23610509.174 7  20552557.289 7 -18237647.14249  20552552.93449        50.500
        44.7504
 -13692924.230 6  22628700.125 6 -10657444.48647  22628696.60947        44.500
        33.0004
 -10245007.931 5  23510262.508 5  -7973735.97047  23510260.50447        41.000
        28.0004
  -2925966.419 4  24607013.383 4  -2260393.59446  24607011.44146        37.500
        22.7504
 11  3 11  1 33  0.0000000  0  9G 2G 4G 5G 7G 8G10G13G26G29
 -27902085.064 7  20101950.648 7 -21665212.64749  20101943.91849        51.250
        48.2504
 -21178479.017 8  20985773.422 8 -16488561.61549  20985769.30549        52.500
        44.0004
 -18905472.945 7  21589966.656 7 -14723865.59349  21589962.52749        47.750
        41.5004
 -11160457.675 6  23111012.836 6  -8692077.66748  23111009.57048        45.500
        34.5004
  -8340791.317 6  24023596.883 6  -6486334.02547  24023595.20747        42.500
        26.7504
 -23580967.011 7  20558178.953 7 -18214627.28949  20558175.19549        50.500
        45.0004
 -13602628.005 6  22645883.359 6 -10587083.88647  22645879.50047        44.500
        31.2504
 -10364932.268 5  23487440.688 5  -8067183.43647  23487439.61747        39.750
        27.7504
  -3004353.341 3  24592097.172 3  -2321474.31446  24592095.49246        37.250
        22.5004
 11  3 11  1 33 30.0000000  0  9G 2G 4G 5G 7G 8G10G13G26G29
 -27931622.475 7  20096329.961 7 -21688228.83549  20096323.06249        51.000
        48.5004
 -21124669.168 8  20996013.141 8 -16446631.88749  20996008.96949        53.250
        44.0004
 -18952340.152 7  21581047.977 7 -14760385.49549  21581043.91449        48.750
        41.5004
 -11206856.881 6  23102183.070 6  -8728232.88048  23102179.90648        47.000
        34.0004
  -8424403.529 6  24007685.133 6  -6551486.27447  24007684.35947        43.000
        26.7504
 -23551184.928 7  20563846.461 7 -18191420.47049  20563842.25049        50.250
        45.0004
 -13512033.560 6  22663122.375 6 -10516490.87447  22663118.21947        44.750
        31.7504
 -10484677.308 5  23464653.789 5  -8160491.18047  23464653.39547        39.500
        27.5004
  -3082379.668 3  24577249.555 3  -2382274.05946  24577247.24646        37.000
        22.2504
 11  3 11  1 34  0.0000000  0  9G 2G 4G 5G 7G 8G10G13G26G29
 -27960722.960 7  20090792.352 7 -21710904.55149  20090785.80549        51.250
        48.5004
 -21070481.658 7  21006324.648 7 -16404407.90649  21006320.82849        52.000
        44.0004
 -18999007.830 7  21572167.547 7 -14796749.92048  21572163.18048        48.750
        41.0004
 -11252824.992 6  23093435.891 6  -8764052.16548  23093432.76248        47.000
        34.2504
  -8507885.636 6  23991799.648 6  -6616537.16047  23991797.04747        42.750
        27.0004
 -23521164.153 7  20569559.414 7 -18168027.68149  20569554.87149        50.500
        45.0004
 -13421144.247 6  22680418.453 6 -10445668.11647  22680413.77047        45.000
        31.7504
 -10604240.686 5  23441901.852 5  -8253657.40246  23441900.53146        39.250
        25.7504
  -3160043.325 3  24562470.297 3  -2442791.15746  24562467.84446        37.250
        24.5004
 11  3 11  1 34 30.0000000  0  9G 2G 4G 5G 7G 8G10G13G26G29
 -27989384.670 7  20085338.039 7 -21733238.37649  20085331.48849        51.500
        48.5004
 -21015916.799 7  21016707.805 7 -16361889.84649  21016703.98849        52.250
        43.5004
 -19045475.667 7  21563325.000 7 -14832958.61849  21563320.93449        49.750
        41.5004
 -11298359.578 6  23084770.938 6  -8799533.65548  23084767.30548        47.000
        34.7504
  -8591234.193 5  23975938.609 5  -6681483.96346  23975937.39146        42.250
        25.7504
 -23490905.313 7  20575317.281 7 -18144449.36949  20575312.80549        50.750
        44.7504
 -13329962.343 6  22697769.875 6 -10374617.35447  22697765.82847        45.250
        31.7504
 -10723619.867 5  23419185.391 5  -8346680.10747  23419182.81647        41.000
        27.0004
  -3237341.688 3  24547760.883 3  -2503023.62846  24547758.80146        37.250
        22.2504
 11  3 11  1 35  0.0000000  0  9G 2G 4G 5G 7G 8G10G13G26G29
 -28017605.392 7  20079967.922 7 -21755228.56849  20079961.23849        51.500
        48.5004
 -20960974.955 8  21027163.164 8 -16319078.04449  21027159.33649        52.500
        43.5004
 -19091743.832 7  21554520.234 7 -14869011.71849  21554516.34049        47.750
        41.7504
 -11343458.243 7  23076189.180 7  -8834675.47448  23076185.99248        48.000
        35.2504
  -8674445.935 5  23960104.094 5  -6746324.17247  23960102.06647        42.250
        28.2504
 -23460408.744 7  20581120.664 7 -18120685.84149  20581116.39149        50.500
        45.2504
 -13238490.763 6  22715176.141 6 -10303340.86847  22715172.23847        44.750
        31.7504
 -10842812.107 5  23396503.641 5  -8439557.15947  23396501.57047        40.750
        28.5004
  -3314272.184 4  24533122.086 4  -2562969.46646  24533118.68846        37.500
        23.7504
 11  3 11  1 35 30.0000000  0  9G 2G 4G 5G 7G 8G10G13G26G29
 -28045383.204 7  20074682.055 7 -21776873.62649  20074675.61749        51.500
        48.5004
 -20905656.734 7  21037689.656 7 -16275973.01449  21037686.16849        51.500
        43.5004
 -19137812.357 7  21545754.094 7 -14904909.26749  21545749.60249        49.250
        41.7504
 -11388118.795 6  23067690.250 6  -8869475.88548  23067686.41048        47.000
        34.5004
  -8757518.021 6  23944295.945 6  -6811055.54847  23944294.50047        43.500
        28.0004
 -23429675.265 7  20586969.047 7 -18096737.71149  20586964.72749        50.500
        44.7504
 -13146732.293 6  22732637.297 6 -10231840.86347  22732633.74247        43.750
        32.0004
 -10961814.750 5  23373858.273 5  -8532286.43347  23373856.23447        40.750
        29.0004
  -3390832.770 4  24518552.852 4  -2622627.04646  24518549.07846        38.500
        24.0004
 11  3 11  1 36  0.0000000  0  9G 2G 4G 5G 7G 8G10G13G26G29
 -28072716.124 7  20069480.617 7 -21798172.01649  20069474.03949        51.000
        48.7504
 -20849962.162 7  21048288.258 7 -16232574.73149  21048284.76649        52.000
        43.2504
 -19183680.985 7  21537025.352 7 -14940651.04949  21537021.25449        49.750
        42.0004
 -11432338.263 7  23059275.711 7  -8903932.58248  23059272.52748        47.500
        35.2504
  -8840446.862 6  23928515.414 6  -6875675.34647  23928512.67647        43.500
        27.5004
 -23398705.631 7  20592862.367 7 -18072605.55049  20592858.03949        51.500
        45.0004
 -13054689.243 6  22750152.664 6 -10160119.10347  22750148.85547        44.250
        31.7504
 -11080624.995 5  23351249.477 5  -8624865.78247  23351247.00047        42.000
        28.2504
  -3467020.686 4  24504054.805 4  -2681994.22346  24504051.17246        39.000
        24.5004
 11  3 11  1 36 30.0000000  0  9G 2G 4G 5G 7G 8G10G13G26G29
 -28099602.613 7  20064364.273 7 -21819122.54449  20064358.03949        51.250
        48.5004
 -20793892.149 7  21058958.062 7 -16188883.84349  21058954.62549        52.250
        43.5004
 -19229350.124 7  21528334.695 7 -14976237.38849  21528330.70749        48.500
        42.0004
 -11476114.969 6  23050945.383 6  -8938044.28048  23050941.62148        45.250
        35.0004
  -8923229.660 6  23912761.648 6  -6940181.31747  23912761.37947        42.500
        28.0004
 -23367501.165 7  20598800.680 7 -18048290.39049  20598795.93449        50.750
        44.7504
 -12962364.728 6  22767721.516 6 -10088178.02147  22767717.45347        44.250
        30.5004
 -11199240.967 5  23328677.516 5  -8717293.78847  23328674.23447        41.250
        27.2504
  -3542833.957 4  24489627.672 4  -2741069.49246  24489625.08246        39.000
        24.2504
 11  3 11  1 37  0.0000000  0  9G 2G 4G 5G 7G 8G10G13G26G29
 -28126040.899 7  20059333.039 7 -21839723.82249  20059326.65249        52.000
        48.7504
 -20737447.029 7  21069699.117 7 -16144900.66749  21069695.73449        51.750
        43.5004
 -19274819.798 7  21519682.180 7 -15011668.28948  21519677.87548        48.750
        41.0004
 -11519446.311 7  23042699.406 7  -8971808.93548  23042696.29348        47.750
        34.5004
  -9005863.473 6  23897037.258 6  -7004571.21047  23897035.19547        43.500
        27.5004
 -23336062.452 7  20604783.016 7 -18023792.72649  20604778.34849        51.000
        44.7504
 -12869761.446 6  22785343.242 6 -10016019.71647  22785340.05547        44.500
        32.0004
 -11317659.462 5  23306142.461 5  -8809567.88747  23306140.94547        41.000
        27.5004
  -3618270.283 5  24475273.219 5  -2799851.03446  24475270.89846        39.500
        25.7504
 11  3 11  1 37 30.0000000  0  9G 2G 4G 5G 7G 8G10G13G26G29
 -28152029.305 7  20054387.867 7 -21859974.55249  20054381.53949        52.000
        49.0004
 -20680627.655 7  21080511.438 7 -16100625.90649  21080507.94949        50.500
        43.5004
 -19320089.845 7  21511067.414 7 -15046943.64149  21511063.55549        48.250
        42.0004
 -11562330.045 6  23034539.055 6  -9005224.80748  23034535.02348        47.000
        34.5004
  -9088345.284 5  23881341.297 5  -7068842.69847  23881338.48447        42.000
        26.7504
 -23304390.371 7  20610809.883 7 -17999113.21649  20610805.55549        50.500
        45.0004
 -12776882.018 6  22803017.695 6  -9943646.21347  22803013.71547        44.750
        31.2504
 -11435878.318 5  23283646.219 5  -8901686.36747  23283645.37947        41.750
        29.0004
  -3693327.677 4  24460989.648 4  -2858337.31246  24460987.71546        38.000
        24.5004
 11  3 11  1 38  0.0000000  0  9G 2G 4G 5G 7G 8G10G13G26G29
 -28177565.775 8  20049528.742 8 -21879873.12349  20049522.38349        53.250
        49.0004
 -20623434.009 8  21091395.445 8 -16056059.46049  21091391.57449        52.500
        43.7504
 -19365160.293 7  21502491.266 7 -15082063.46149  21502486.53149        50.000
        41.7504
 -11604763.966 7  23026463.828 7  -9038290.16948  23026460.38748        48.000
        34.7504
  -9170671.914 6  23865675.328 6  -7132993.23647  23865672.80947        43.250
        28.0004
 -23272485.385 7  20616881.312 7 -17974252.22149  20616876.83649        51.000
        44.7504
 -12683729.495 6  22820744.109 6  -9871059.92047  22820740.61347        44.500
        31.5004
 -11553894.790 5  23261188.523 5  -8993647.22547  23261186.60547        42.250
        28.7504
  -3768003.385 5  24446779.664 5  -2916526.17546  24446777.02746        40.250
        24.7504
 11  3 11  1 38 30.0000000  0  9G 2G 4G 5G 7G 8G10G13G26G29
 -28202648.827 8  20044755.461 8 -21899418.37449  20044748.64549        52.500
        49.0004
 -20565867.109 8  21102349.750 8 -16011202.19749  21102345.81249        52.500
        43.5004
 -19410031.523 7  21493952.383 7 -15117028.04949  21493948.08649        49.500
        41.5004
 -11646745.508 7  23018475.227 7  -9071003.03548  23018471.84448        47.500
        34.5004
  -9252840.384 6  23850038.297 6  -7197020.51247  23850037.69147        42.500
        28.2504
 -23240348.615 7  20622996.453 7 -17949210.60749  20622992.52749        51.000
        44.7504
 -12590306.613 6  22838522.164 6  -9798262.95147  22838518.17647        44.000
        30.7504
 -11671706.614 6  23238769.711 6  -9085448.59047  23238768.06647        42.500
        28.7504
  -3842295.286 4  24432642.414 4  -2974415.99846  24432639.10946        38.750
        22.2504
 11  3 11  1 39  0.0000000  0  9G 2G 4G 5G 7G 8G10G13G26G29
 -28227276.552 8  20040069.133 8 -21918608.82049  20040062.46949        53.000
        49.2504
 -20507927.038 7  21113375.547 7 -15966054.16949  21113372.04749        51.000
        43.5004
 -19454703.007 7  21485451.703 7 -15151837.00149  21485447.28949        48.000
        41.5004
 -11688272.594 6  23010572.680 6  -9103361.79248  23010569.95348        46.000
        35.0004
  -9334847.127 5  23834433.664 5  -7260921.80647  23834431.85547        42.000
        29.0004
 -23207980.435 7  20629156.266 7 -17923988.67749  20629151.60249        51.250
        44.7504
 -12496615.907 6  22856351.102 6  -9725257.31047  22856346.74247        43.750
        31.0004
 -11789310.470 6  23216390.297 6  -9177087.89247  23216388.80947        42.500
        28.7504
  -3916201.273 3  24418578.344 3  -3032005.06746  24418575.54746        37.250
        23.0004
 11  3 11  1 39 30.0000000  0  9G 2G 4G 5G 7G 8G10G13G26G29
 -28251447.427 8  20035469.242 8 -21937443.29249  20035462.92249        53.000
        49.2504
 -20449614.832 7  21124471.742 7 -15920616.12749  21124468.43449        50.750
        43.5004
 -19499175.488 7  21476989.047 7 -15186490.87349  21476984.69149        49.750
        41.7504
 -11729343.395 7  23002757.352 7  -9135364.98848  23002753.94948        48.000
        34.5004
  -9416689.954 5  23818858.953 5  -7324695.34647  23818857.51647        41.250
        28.2504
 -23175381.822 7  20635359.758 7 -17898587.19649  20635355.55149        51.750
        45.0004
 -12402660.261 6  22874230.086 6  -9652045.21847  22874226.33647        43.000
        31.0004
 -11906704.561 5  23194051.047 5  -9268563.75147  23194048.75447        41.250
        28.0004
  -3989718.722 4  24404588.266 4  -3089291.37746  24404585.47346        37.500
        22.5004
 11  3 11  1 40  0.0000000  0  9G 2G 4G 5G 7G 8G10G13G26G29
 -28275159.955 7  20030956.938 7 -21955920.60349  20030950.66049        51.750
        49.2504
 -20390931.193 7  21135639.195 7 -15874888.64049  21135635.85249        50.250
        43.0004
 -19543448.848 7  21468563.805 7 -15220989.58049  21468559.92249        50.000
        42.5004
 -11769955.557 7  22995028.797 7  -9167010.78948  22995025.24248        48.500
        35.0004
  -9498365.641 6  23803317.445 6  -7388338.67747  23803314.64147        43.500
        29.7504
 -23142553.995 7  20641606.375 7 -17873007.09549  20641602.46149        52.000
        44.7504
 -12308442.846 6  22892159.250 6  -9578629.13747  22892155.95347        44.000
        29.7504
 -12023886.859 5  23171752.086 5  -9359874.55947  23171749.45747        42.250
        27.0004
  -4062846.113 4  24390671.930 4  -3146273.71746  24390669.87546        37.500
        23.7504
 11  3 11  1 40 30.0000000  0  9G 2G 4G 5G 7G 8G10G13G26G29
 -28298411.780 8  20026532.336 8 -21974038.92449  20026525.77049        53.000
        49.2504
 -20331876.297 7  21146876.719 7 -15828871.89749  21146873.66049        51.750
        43.5004
 -19587522.944 7  21460176.891 7 -15255333.03249  21460172.74249        49.000
        42.0004
 -11810106.556 6  22987388.016 6  -9198297.23848  22987385.39148        45.500
        35.5004
  -9579870.509 6  23787806.969 6  -7451848.89447  23787805.27747        42.500
        28.7504
 -23109497.279 7  20647897.141 7 -17847248.64349  20647892.72349        51.250
        44.5004
 -12213965.917 6  22910137.531 6  -9505010.83647  22910134.31647        44.500
        30.2504
 -12140853.967 5  23149493.977 5  -9451017.71347  23149491.34047        42.000
        28.0004
  -4135580.381 5  24376832.531 5  -3202949.75946  24376828.70746        39.750
        26.0004
 11  3 11  1 41  0.0000000  0  9G 2G 4G 5G 7G 8G10G13G26G29
 -28321201.875 7  20022195.648 7 -21991797.45349  20022189.31649        51.500
        49.5004
 -20272451.299 7  21158185.055 7 -15782566.75549  21158181.59849        51.250
        43.5004
 -19631398.391 7  21451827.508 7 -15289521.68349  21451823.46549        49.250
        42.0004
 -11849794.808 6  22979836.219 6  -9229223.10048  22979832.85248        47.000
        35.5004
  -9661201.907 6  23772330.062 6  -7515223.96247  23772327.89147        42.500
        28.5004
 -23076213.133 7  20654230.578 7 -17821312.97949  20654226.37549        50.750
        44.5004
 -12119232.631 6  22928164.648 6  -9431192.78547  22928161.87147        43.500
        28.5004
 -12257604.028 5  23127276.648 5  -9541991.69547  23127274.38747        40.500
        29.0004
  -4207919.940 5  24363066.297 5  -3259318.22747  24363063.02747        40.500
        26.2504
 11  3 11  1 41 30.0000000  0  9G 2G 4G 5G 7G 8G10G13G26G29
 -28343528.427 8  20017947.047 8 -22009194.77849  20017940.73449        53.500
        49.2504
 -20212656.536 7  21169563.984 7 -15735973.47449  21169560.37949        51.750
        43.2504
 -19675074.823 7  21443515.992 7 -15323555.24449  21443511.96549        49.750
        42.0004
 -11889018.123 7  22972372.039 7  -9259786.67448  22972368.79748        48.000
        35.5004
  -9742357.188 5  23756886.383 5  -7578461.78547  23756885.08647        41.250
        29.0004
 -23042701.818 7  20660607.836 7 -17795200.29149  20660603.80549        50.500
        44.5004
 -12024245.510 6  22946240.297 6  -9357176.94147  22946237.42647        43.000
        29.2504
 -12374134.253 5  23105101.703 5  -9632794.36547  23105100.04347        41.750
        30.0004
  -4279862.453 5  24349376.289 5  -3315377.30047  24349373.38747        40.500
        27.7504
 11  3 11  1 42  0.0000000  0  9G 2G 4G 5G 7G 8G10G13G26G29
 -28365389.683 8  20013786.891 8 -22026229.54949  20013780.30549        52.750
        49.5004
 -20152492.500 7  21181012.672 7 -15689092.44649  21181009.15249        50.750
        43.0004
 -19718551.994 7  21435242.766 7 -15357433.55149  21435238.46549        50.000
        42.2504
 -11927774.006 7  22964997.125 7  -9289986.02448  22964993.67248        48.000
        34.5004
  -9823332.978 5  23741476.414 5  -7641559.74747  23741475.55147        41.500
        28.7504
 -23008963.740 7  20667027.672 7 -17768910.91649  20667023.52049        52.000
        44.7504
 -11929006.906 6  22964364.031 6  -9282965.17147  22964360.86747        44.000
        30.2504
 -12490441.928 5  23082969.531 5  -9723423.65547  23082966.70347        42.000
        29.0004
  -4351405.651 5  24335762.289 5  -3371125.23247  24335758.51647        41.000
        26.2504
 11  3 11  1 42 30.0000000  0  9G 2G 4G 5G 7G 8G10G13G26G29
 -28386783.904 8  20009715.891 8 -22042900.38549  20009709.29749        53.500
        49.2504
 -20091960.124 7  21192531.367 7 -15641924.39349  21192527.92249        52.000
        43.5004
 -19761830.504 7  21427007.359 7 -15391157.05649  21427003.37549        51.750
        42.5004
 -11966060.345 7  22957711.391 7  -9319819.49548  22957707.77348        47.500
        34.2504
  -9904126.037 5  23726102.914 5  -7704515.30347  23726100.59847        42.000
        28.0004
 -22975000.203 7  20673490.906 7 -17742445.85349  20673486.87549        50.500
        44.7504
 -11833520.281 6  22982533.719 6  -9208560.10347  22982531.21947        43.250
        29.7504
 -12606524.759 6  23060879.844 6  -9813877.71447  23060877.11747        42.500
        29.2504
  -4422547.626 5  24322224.180 5  -3426560.53146  24322221.07446        41.250
        26.0004
 11  3 11  1 43  0.0000000  0  9G 2G 4G 5G 7G 8G10G13G26G29
 -28407709.629 7  20005733.930 7 -22059206.15349  20005727.11749        51.500
        49.2504
 -20031059.830 7  21204120.586 7 -15594469.69849  21204117.12149        51.500
        42.7504
 -19804910.170 7  21418809.344 7 -15424725.62649  21418805.24249        50.750
        42.7504
 -12003875.169 7  22950515.805 7  -9349285.55048  22950512.05548        48.000
        34.2504
  -9984733.510 6  23710764.172 6  -7767326.29047  23710761.87547        42.500
        29.5004
 -22940812.007 7  20679997.000 7 -17715805.71749  20679992.51649        51.750
        44.2504
 -11737788.223 6  23000751.891 6  -9133963.79547  23000747.66447        44.500
        29.7504
 -12722380.367 6  23038833.008 6  -9904154.73647  23038831.37947        42.500
        30.2504
  -4493286.108 5  24308763.406 5  -3481681.43046  24308759.81646        40.750
        24.0004
 11  3 11  1 43 30.0000000  0  9G 2G 4G 5G 7G 8G10G13G26G29
 -28428165.137 7  20001840.859 7 -22075145.51449  20001834.70749        51.500
        49.5004
 -19969792.152 7  21215779.516 7 -15546728.71849  21215775.82049        51.000
        43.0004
 -19847791.245 7  21410649.523 7 -15458139.44549  21410644.77049        50.500
        42.5004
 -12041216.358 7  22943409.461 7  -9378382.54948  22943405.52048        48.500
        35.2504
 -10065151.771 6  23695460.844 6  -7829989.81547  23695459.43447        43.250
        29.7504
 -22906399.598 7  20686545.109 7 -17688990.88549  20686540.76649        51.750
        44.7504
 -11641813.148 6  23019015.320 6  -9059178.11647  23019011.73447        44.500
        29.2504
 -12838006.087 6  23016829.820 6  -9994252.63647  23016827.89547        43.000
        29.5004
  -4563618.812 4  24295378.336 4  -3536486.07746  24295376.48846        37.750
        23.0004
 11  3 11  1 44  0.0000000  0  9G 2G 4G 5G 7G 8G10G13G26G29
 -28448148.842 7  19998038.477 7 -22090717.24649  19998031.67249        51.500
        49.5004
 -19908158.182 7  21227508.203 7 -15498702.27749  21227504.63349        51.000
        43.0004
 -19890473.384 7  21402527.086 7 -15491398.25349  21402522.78949        50.750
        42.5004
 -12078082.240 7  22936394.453 7  -9407109.18648  22936390.76648        48.250
        35.5004
 -10145378.447 6  23680193.930 6  -7892504.04147  23680192.05147        42.500
        29.2504
 -22871764.030 7  20693136.305 7 -17662002.16049  20693132.25049        51.500
        44.5004
 -11545598.242 6  23037324.062 6  -8984205.55047  23037321.07847        43.000
        29.5004
 -12953399.441 6  22994871.062 6 -10084169.44347  22994868.83247        44.250
        31.0004
  -4633543.853 5  24282071.977 5  -3590973.10546  24282070.26646        40.500
        23.2504
 11  3 11  1 44 30.0000000  0  9G 2G 4G 5G 7G 8G10G13G26G29
 -28467658.952 7  19994325.750 7 -22105919.94649  19994319.27049        51.500
        49.5004
 -19846158.102 7  21239306.328 7 -15450390.56449  21239302.73049        51.000
        42.5004
 -19932956.471 7  21394443.258 7 -15524501.95749  21394438.70349        50.500
        42.2504
 -12114470.184 7  22929469.539 7  -9435463.42248  22929465.96948        48.750
        34.7504
 -10225409.934 5  23664964.578 5  -7954866.16647  23664963.34847        42.000
        28.7504
 -22836905.613 7  20699769.914 7 -17634839.80349  20699765.68049        51.000
        44.5004
 -11449145.496 6  23055678.469 6  -8909047.66647  23055675.39847        43.000
        29.0004
 -13068557.767 6  22972957.016 6 -10173903.13447  22972955.47347        43.000
        30.0004
  -4703058.315 5  24268844.086 5  -3645140.20846  24268841.43846        41.250
        23.7504
 11  3 11  1 45  0.0000000  0  9G 2G 4G 5G 7G 8G10G13G26G29
 -28486694.115 7  19990703.391 7 -22120752.54449  19990696.74649        52.000
        49.5004
 -19783793.027 7  21251174.234 7 -15401794.45449  21251170.63349        51.000
        42.2504
 -19975241.095 7  21386396.305 7 -15557451.01049  21386392.30149        51.000
        41.7504
 -12150378.570 7  22922636.750 7  -9463443.96448  22922632.90648        47.500
        36.0004
 -10305243.665 6  23649772.734 6  -8017074.21447  23649770.42647        42.750
        29.0004
 -22801825.441 7  20706445.539 7 -17607504.63149  20706441.32449        51.500
        44.5004
 -11352458.200 5  23074077.750 5  -8833707.02947  23074074.25047        42.250
        28.0004
 -13183478.828 6  22951087.570 6 -10263451.91647  22951086.20747        43.500
        29.5004
  -4772161.157 5  24255694.758 5  -3698986.57046  24255691.11746        41.750
        24.5004
 11  3 11  1 45 30.0000000  0  9G 2G 4G 5G 7G 8G10G13G26G29
 -28505252.567 7  19987171.867 7 -22135213.69249  19987165.38749        51.500
        49.7504
 -19721063.652 7  21263111.430 7 -15352914.49849  21263107.27349        51.250
        42.5004
 -20017327.031 7  21378387.555 7 -15590245.22849  21378383.48449        50.500
        42.0004
 -12185805.144 7  22915895.203 7  -9491049.03948  22915891.41448        48.500
        35.0004
 -10384876.486 5  23634618.992 5  -8079125.72547  23634616.54347        42.000
        28.5004
 -22766524.002 7  20713162.766 7 -17579997.03949  20713159.12549        52.000
        45.0004
 -11255539.162 6  23092520.664 6  -8758185.78047  23092517.63747        42.500
        29.0004
 -13298160.034 6  22929265.844 6 -10352813.82547  22929262.39547        43.500
        29.5004
  -4840849.733 6  24242624.727 6  -3752510.15346  24242620.14146        43.000
        26.0004
 11  3 11  1 46  0.0000000  0  9G 2G 4G 5G 7G 8G10G13G26G29
 -28523332.756 7  19983731.312 7 -22149302.17149  19983724.96549        51.500
        49.5004
 -19657970.705 7  21275117.352 7 -15303751.22549  21275113.67649        51.000
        42.2504
 -20059214.501 7  21370416.758 7 -15622884.81449  21370412.24249        50.250
        42.0004
 -12220747.819 7  22909245.727 7  -9518277.06348  22909241.91848        48.250
        35.2504
 -10464304.946 5  23619504.008 5  -8141017.96647  23619501.81247        42.250
        28.5004
 -22731002.332 7  20719922.484 7 -17552317.83349  20719918.48449        51.000
        44.5004
 -11158390.896 6  23111007.195 6  -8682485.93347  23111004.71147        43.250
        29.0004
 -13412599.063 6  22907487.820 6 -10441987.01547  22907485.75447        42.500
        30.0004
  -4909121.973 6  24229632.227 6  -3805709.32546  24229629.16846        42.500
        25.5004
 11  3 11  1 46 30.0000000  0  9G 2G 4G 5G 7G 8G10G13G26G29
 -28540933.725 7  19980382.070 7 -22163017.22349  19980375.41049        51.500
        49.5004
 -19594514.831 7  21287192.766 7 -15254305.11949  21287188.70349        51.000
        42.7504
 -20100903.610 7  21362483.344 7 -15655369.81549  21362479.19149        51.000
        42.0004
 -12255205.106 7  22902688.766 7  -9545126.87948  22902685.13748        47.750
        35.5004
 -10543526.827 6  23604428.719 6  -8202749.25647  23604425.82047        43.000
        29.2504
 -22695261.719 7  20726723.688 7 -17524468.04349  20726719.39149        51.250
        44.5004
 -11061016.523 6  23129537.633 6  -8606609.86647  23129534.74247        43.250
        29.5004
 -13526793.532 6  22885757.117 6 -10530969.63647  22885755.73447        43.000
        31.0004
  -4976975.754 5  24216719.898 5  -3858582.39046  24216717.49646        41.500
        26.0004
 11  3 11  1 47  0.0000000  0  9G 2G 4G 5G 7G 8G10G13G26G29
 -28558053.029 7  19977124.461 7 -22176356.96549  19977118.15649        51.500
        49.5004
 -19530696.320 7  21299336.852 7 -15204576.43749  21299333.24249        50.000
        42.5004
 -20142394.000 7  21354588.008 7 -15687699.99149  21354584.38349        50.000
        42.2504
 -12289174.708 7  22896224.891 7  -9571596.69348  22896220.73848        48.750
        35.7504
 -10622538.418 6  23589393.211 6  -8264316.68547  23589390.16047        42.500
        29.0004
 -22659301.770 7  20733566.664 7 -17496447.30349  20733562.54349        51.000
        44.2504
 -10963417.880 6  23148110.430 6  -8530559.09447  23148107.02047        43.500
        29.5004
 -13640740.555 6  22864073.977 6 -10619759.41347  22864071.84047        42.750
        31.0004
  -5044408.754 5  24203887.852 5  -3911127.58346  24203884.92646        41.500
        24.5004
 11  3 11  1 47 30.0000000  0  9G 2G 4G 5G 7G 8G10G13G26G29
 -28574690.076 8  19973958.469 8 -22189320.91549  19973951.96149        53.250
        49.5004
 -19466517.087 7  21311550.031 7 -15154566.69849  21311546.27049        50.000
        42.0004
 -20183686.297 7  21346730.656 7 -15719875.79049  21346726.59849        50.000
        42.7504
 -12322655.276 7  22889853.523 7  -9597685.45048  22889849.66048        48.250
        36.5004
 -10701337.431 6  23574397.820 6  -8325718.45547  23574396.33247        43.250
        30.0004
 -22623124.313 7  20740450.891 7 -17468257.09249  20740447.11749        51.250
        44.5004
 -10865598.742 6  23166724.859 6  -8454336.47647  23166720.91047        43.000
        28.5004
 -13754438.211 6  22842437.844 6 -10708354.93747  22842435.50047        42.500
        31.0004
  -5111419.676 5  24191135.875 5  -3963343.87147  24191133.37947        39.750
        26.2504
 11  3 11  1 48  0.0000000  0  9G 2G 4G 5G 7G 8G10G13G26G29
 -28590842.084 8  19970884.984 8 -22201906.91749  19970878.42249        53.250
        49.5004
 -19401976.505 7  21323831.539 7 -15104275.42149  21323828.10949        49.500
        42.0004
 -20224779.475 7  21338910.758 7 -15751896.44149  21338906.69149        50.500
        42.7504
 -12355643.956 7  22883575.719 7  -9623390.93848  22883571.91848        47.750
        36.0004
 -10779919.651 6  23559444.680 6  -8386951.28647  23559442.09847        42.500
        28.7504
 -22586728.793 7  20747376.664 7 -17439896.96349  20747372.69949        50.500
        44.5004
 -10767560.599 6  23185380.719 6  -8377943.21547  23185377.13347        43.750
        28.5004
 -13867883.019 6  22820850.156 6 -10796753.40047  22820848.19147        42.500
        31.5004
  -5178005.319 4  24178464.336 4  -4015228.76146  24178462.84846        38.750
        26.0004
 11  3 11  1 48 30.0000000  0  9G 2G 4G 5G 7G 8G10G13G26G29
 -28606508.331 8  19967903.789 8 -22214114.41249  19967897.21549        53.000
        49.7504
 -19337075.960 7  21336181.812 7 -15053703.67949  21336178.54349        49.500
        42.2504
 -20265674.292 7  21331128.891 7 -15783762.53049  21331124.48849        50.250
        42.5004
 -12388139.185 7  22877391.828 7  -9648711.90848  22877388.96148        48.000
        36.7504
 -10858283.009 6  23544532.727 6  -8448013.58947  23544530.18847        43.750
        30.2504
 -22550116.466 7  20754343.914 7 -17411367.90949  20754340.12949        50.250
        44.5004
 -10669307.055 6  23204077.609 6  -8301382.11447  23204074.28947        42.500
        26.5004
 -13981073.415 5  22799310.172 5 -10884953.62847  22799309.24647        41.500
        29.5004
  -5244164.519 5  24165874.234 5  -4066781.34347  24165872.62147        40.750
        26.5004
 11  3 11  1 49  0.0000000  0  9G 2G 4G 5G 7G 8G10G13G26G29
 -28621687.391 7  19965015.508 7 -22225942.27549  19965008.67649        52.000
        49.7504
 -19271816.521 7  21348600.242 7 -15002852.19249  21348597.15249        48.500
        42.5004
 -20306370.715 7  21323384.734 7 -15815474.01849  21323380.30549        50.250
        42.7504
 -12420139.438 7  22871302.953 7  -9673647.18248  22871299.46548        48.500
        36.5004
 -10936424.144 6  23529662.414 6  -8508902.73647  23529660.41847        43.250
        29.7504
 -22513288.393 7  20761352.180 7 -17382670.73149  20761347.66449        50.000
        44.5004
 -10570840.344 6  23222815.539 6  -8224654.87747  23222812.08247        43.000
        28.2504
 -14094006.795 6  22777821.055 6 -10972953.58047  22777818.24647        43.000
        31.0004
  -5309895.134 5  24153366.797 5  -4118000.00046  24153364.64846        41.750
        25.7504
 11  3 11  1 49 30.0000000  0  9G 2G 4G 5G 7G 8G10G13G26G29
 -28636377.981 8  19962219.539 8 -22237389.51449  19962213.32049        54.250
        49.7504
 -19206199.109 7  21361086.922 7 -14951721.79749  21361083.54349        49.250
        42.0004
 -20346869.359 7  21315677.711 7 -15847031.40249  21315673.45349        50.500
        42.5004
 -12451642.975 7  22865307.648 7  -9698195.40048  22865304.26248        48.250
        36.5004
 -11014340.228 6  23514835.086 6  -8569616.49047  23514833.75847        43.250
        30.5004
 -22476245.366 7  20768401.141 7 -17353806.06249  20768397.26649        50.000
        44.2504
 -10472163.944 6  23241593.062 6  -8147764.23547  23241589.22747        42.750
        28.2504
 -14206680.908 6  22756378.930 6 -11060751.53347  22756375.69147        43.000
        31.0004
  -5375195.556 5  24140941.406 5  -4168883.42546  24140938.29746        41.250
        25.7504
 11  3 11  1 50  0.0000000  0  9G 2G 4G 5G 7G 8G10G13G26G29
 -28650578.871 8  19959517.211 8 -22248455.16649  19959510.78949        52.750
        49.7504
 -19140224.420 7  21373641.875 7 -14900313.02949  21373638.28949        49.500
        42.0004
 -20387169.751 7  21308008.820 7 -15878434.29649  21308004.91449        50.750
        42.5004
 -12482648.120 7  22859408.000 7  -9722355.25348  22859403.84448        48.500
        35.7504
 -11092028.442 6  23500052.172 6  -8630152.68847  23500049.75847        42.750
        30.2504
 -22438988.072 7  20775491.164 7 -17324774.41949  20775486.37949        50.000
        44.0004
 -10373280.319 6  23260409.805 6  -8070712.12347  23260406.37547        43.500
        28.2504
 -14319093.379 6  22734987.375 6 -11148345.56347  22734985.30547        42.750
        32.0004
  -5440063.402 6  24128597.156 6  -4219429.81646  24128594.45346        42.500
        26.0004
 11  3 11  1 50 30.0000000  0  9G 2G 4G 5G 7G 8G10G13G26G29
 -28664287.960 8  19956908.688 8 -22259137.59449  19956902.52349        53.000
        49.7504
 -19073893.234 7  21386264.492 7 -14848626.47549  21386260.62549        49.250
        42.5004
 -20427271.762 7  21300377.875 7 -15909682.61149  21300374.03549        50.250
        42.7504
 -12513152.605 7  22853602.859 7  -9746124.98048  22853599.14148        48.000
        36.0004
 -11169485.095 6  23485312.578 6  -8690508.47647  23485309.64147        43.500
        29.7504
 -22401517.044 7  20782621.875 7 -17295576.23649  20782617.09849        50.250
        44.2504
 -10274191.758 6  23279265.922 6  -7993500.35447  23279262.68847        42.500
        28.5004
 -14431241.245 6  22713647.008 6 -11235733.45547  22713645.18447        43.250
        30.5004
  -5504496.745 6  24116335.812 6  -4269637.63747  24116332.10547        43.500
        26.5004
 11  3 11  1 51  0.0000000  0  9G 2G 4G 5G 7G 8G10G13G26G29
 -28677503.286 8  19954393.742 8 -22269435.26949  19954387.22349        53.000
        49.7504
 -19007205.649 7  21398954.703 7 -14796662.17449  21398951.12949        49.250
        42.7504
 -20467174.972 7  21292784.297 7 -15940776.00849  21292780.07449        51.000
        42.7504
 -12543154.396 7  22847894.078 7  -9769503.00048  22847890.27748        48.250
        36.5004
 -11246706.921 5  23470617.117 5  -8750681.26347  23470615.60247        42.250
        29.5004
 -22363832.478 7  20789792.445 7 -17266211.65549  20789788.48449        50.500
        44.0004
 -10174900.593 5  23298160.359 5  -7916130.70247  23298157.16847        42.250
        29.2504
 -14543121.898 6  22692356.203 6 -11322913.12547  22692353.90647        43.250
        32.2504
  -5568492.886 6  24104157.969 6  -4319504.78547  24104154.02347        43.000
        26.2504
 11  3 11  1 51 30.0000000  0  9G 2G 4G 5G 7G 8G10G13G26G29
 -28690223.989 8  19951973.039 8 -22279347.53249  19951966.37549        53.250
        49.7504
 -18940162.697 7  21411712.117 7 -14744420.95549  21411709.51649        48.750
        41.5004
 -20506879.628 7  21285228.781 7 -15971714.70549  21285224.16849        50.000
        42.2504
 -12572651.644 7  22842280.516 7  -9792487.87148  22842277.63348        47.750
        36.0004
 -11323691.153 6  23455967.453 6  -8810668.90047  23455965.41447        44.250
        31.5004
 -22325935.329 7  20797004.258 7 -17236681.44749  20797000.23849        50.000
        44.0004
 -10075409.684 5  23317092.680 5  -7838605.41647  23317090.66847        41.750
        28.5004
 -14654733.073 6  22671117.156 6 -11409882.82047  22671114.29747        43.250
        31.0004
  -5632050.581 5  24092063.289 5  -4369030.23046  24092060.48846        41.750
        25.7504
 11  3 11  1 52  0.0000000  0  9G 2G 4G 5G 7G 8G10G13G26G29
 -28702448.943 8  19949646.648 8 -22288873.50049  19949640.27049        53.000
        50.0004
 -18872765.511 7  21424537.641 7 -14691903.71849  21424534.57049        49.500
        42.2504
 -20546386.084 7  21277711.148 7 -16002498.94649  21277706.77049        49.500
        42.0004
 -12601642.779 7  22836763.844 7  -9815078.37948  22836760.22348        48.750
        36.0004
 -11400434.638 6  23441364.250 6  -8870468.96947  23441362.12547        43.750
        31.5004
 -22287826.395 7  20804256.180 7 -17206986.21749  20804252.12549        50.750
        44.0004
  -9975721.682 5  23336062.781 5  -7760926.55047  23336060.49647        41.500
        27.5004
 -14766072.377 6  22649930.086 6 -11496640.64347  22649927.62147        43.000
        31.5004
  -5695167.491 5  24080052.367 5  -4418212.21447  24080049.62947        41.000
        26.2504
 11  3 11  1 52 30.0000000  0  9G 2G 4G 5G 7G 8G10G13G26G29
 -28714176.384 8  19947415.336 8 -22298011.79249  19947408.84049        53.250
        50.0004
 -18805014.987 7  21437429.922 7 -14639111.15249  21437426.78949        48.750
        41.7504
 -20585694.035 7  21270231.195 7 -16033128.50749  21270226.92649        49.750
        43.2504
 -12630126.174 7  22831343.750 7  -9837273.19648  22831340.02748        48.250
        36.2504
 -11476934.658 6  23426806.508 6  -8930079.30647  23426804.10547        44.500
        30.2504
 -22249505.832 7  20811548.422 7 -17177126.06549  20811544.40249        50.500
        44.0004
  -9875839.355 5  23355069.820 5  -7683096.28047  23355067.14847        41.750
        27.0004
 -14877137.610 6  22628794.578 6 -11583184.89847  22628792.60947        43.000
        32.0004
  -5757841.948 5  24068125.469 5  -4467049.41447  24068123.35947        40.500
        27.2504
 11  3 11  1 53  0.0000000  0  9G 2G 4G 5G 7G 8G10G13G26G29
 -28725405.602 8  19945278.219 8 -22306761.85849  19945271.83249        52.500
        50.0004
 -18736912.390 7  21450389.719 7 -14586044.24749  21450385.94549        49.000
        41.7504
 -20624803.971 7  21262788.406 7 -16063603.77249  21262784.12949        48.000
        43.0004
 -12658100.390 7  22826020.117 7  -9859071.29248  22826016.99248        48.000
        36.2504
 -11553188.357 6  23412295.695 6  -8989497.69947  23412293.59047        43.000
        30.5004
 -22210975.327 7  20818880.609 7 -17147102.30149  20818876.66849        50.000
        44.0004
  -9775765.872 6  23374113.555 6  -7605117.02747  23374110.16847        42.750
        26.2504
 -14987926.531 6  22607711.766 6 -11669513.84147  22607710.34847        43.000
        32.5004
  -5820072.439 5  24056282.945 5  -4515540.67647  24056281.42247        41.500
        26.5004
 11  3 11  1 53 30.0000000  0  9G 2G 4G 5G 7G 8G10G13G26G29
 -28736135.095 8  19943236.594 8 -22315122.52849  19943230.23449        52.500
        50.0004
 -18668458.543 7  21463415.812 7 -14532703.66149  21463412.35549        48.750
        41.5004
 -20663715.801 7  21255383.711 7 -16093924.68049  21255379.64149        48.250
        42.5004
 -12685564.060 7  22820794.164 7  -9880471.56148  22820790.35948        47.500
        36.0004
 -11629193.053 6  23397832.430 6  -9048722.08047  23397831.60247        45.000
        30.5004
 -22172235.549 7  20826252.484 7 -17116915.48149  20826248.63749        50.250
        44.2504
  -9675503.615 5  23393192.711 5  -7526990.69147  23393189.87947        42.250
        27.2504
 -15098436.686 6  22586683.188 6 -11755625.59647  22586681.36347        43.500
        33.0004
  -5881856.904 5  24044527.164 5  -4563684.43447  24044523.46147        42.000
        27.0004
 11  3 11  1 54  0.0000000  0  9G 2G 4G 5G 7G 8G10G13G26G29
 -28746363.494 7  19941290.312 7 -22323092.73749  19941284.06249        51.750
        50.0004
 -18599654.412 7  21476508.938 7 -14479090.12249  21476504.87549        48.500
        41.2504
 -20702429.726 7  21248016.688 7 -16124091.36149  21248012.37949        48.250
        42.5004
 -12712515.300 7  22815665.062 7  -9901472.54648  22815661.94148        48.750
        36.5004
 -11704945.797 6  23383417.164 6  -9107750.13547  23383414.50447        45.000
        31.0004
 -22133286.897 7  20833663.891 7 -17086565.92649  20833659.83249        50.000
        43.7504
  -9575055.594 6  23412307.984 6  -7448719.59747  23412304.77347        42.500
        26.5004
 -15208665.736 6  22565707.648 6 -11841518.32047  22565704.76647        43.500
        33.0004
  -5943193.330 6  24032854.102 6  -4611479.05147  24032851.58647        42.500
        27.2504
 11  3 11  1 54 30.0000000  0  9G 2G 4G 5G 7G 8G10G13G26G29
 -28756089.394 7  19939439.461 7 -22330671.39949  19939433.26649        52.000
        50.0004
 -18530500.624 7  21489668.258 7 -14425204.11849  21489665.33649        48.250
        41.2504
 -20740945.288 7  21240687.289 7 -16154103.48049  21240683.68049        48.500
        42.5004
 -12738952.517 7  22810634.664 7  -9922073.00348  22810630.84448        48.000
        36.2504
 -11780443.266 6  23369050.461 6  -9166579.29247  23369048.08247        44.750
        30.5004
 -22094129.885 7  20841115.391 7 -17056054.02649  20841111.42249        49.750
        44.2504
  -9474423.931 5  23431457.820 5  -7370305.37747  23431454.27347        41.750
        27.7504
 -15318611.107 6  22544785.695 6 -11927189.98847  22544782.47347        44.250
        33.5004
  -6004079.826 5  24021267.844 5  -4658923.07347  24021265.55947        41.500
        27.0004
 11  3 11  1 55  0.0000000  0  9G 2G 4G 5G 7G 8G10G13G26G29
 -28765310.600 8  19937684.758 8 -22337856.78249  19937678.74649        52.500
        50.0004
 -18460997.456 7  21502894.656 7 -14371045.86949  21502891.94549        48.500
        42.0004
 -20779262.238 7  21233395.703 7 -16183960.83049  21233391.78549        48.500
        43.0004
 -12764873.057 7  22805702.164 7  -9942270.84448  22805698.57848        47.750
        36.0004
 -11855681.629 6  23354733.242 6  -9225206.54147  23354731.34047        46.000
        32.0004
 -22054764.652 7  20848606.492 7 -17025379.84849  20848602.33649        49.750
        43.5004
  -9373610.670 5  23450641.133 5  -7291749.70346  23450638.37946        41.000
        25.5004
 -15428269.788 6  22523917.039 6 -12012638.25647  22523914.37547        43.500
        32.2504
  -6064514.008 5  24009767.391 5  -4706014.57547  24009765.78947        41.500
        27.0004
 11  3 11  1 55 30.0000000  0  9G 2G 4G 5G 7G 8G10G13G26G29
 -28774026.643 8  19936026.195 8 -22344648.52449  19936019.74249        52.500
        50.0004
 -18391146.558 7  21516186.836 7 -14316616.67549  21516183.10549        48.250
        41.5004
 -20817381.033 7  21226142.594 7 -16213663.77549  21226138.57449        49.000
        43.2504
 -12790276.043 7  22800868.062 7  -9962065.38548  22800864.41448        48.000
        35.5004
 -11930658.934 6  23340465.688 6  -9283630.35647  23340462.97747        45.000
        31.5004
 -22015192.362 7  20856136.820 7 -16994544.33749  20856133.01249        50.500
        44.2504
  -9272619.046 5  23469859.789 5  -7213055.03246  23469856.16446        41.250
        26.0004
 -15537639.951 6  22503104.664 6 -12097861.69547  22503101.41047        43.250
        32.2504
  -6124494.567 5  23998353.945 5  -4752752.73647  23998350.90247        42.250
        27.5004
 11  3 11  1 56  0.0000000  0  9G 2G 4G 5G 7G 8G10G13G26G29
 -28782236.404 8  19934463.914 8 -22351045.77049  19934457.74249        53.500
        50.0004
 -18320948.893 7  21529544.906 7 -14261917.25549  21529541.94949        48.500
        41.7504
 -20855301.729 7  21218926.188 7 -16243212.36049  21218921.81249        49.750
        43.2504
 -12815160.246 7  22796133.000 7  -9981455.67648  22796128.81648        48.250
        36.0004
 -12005371.687 6  23326248.430 6  -9341848.04247  23326245.95347        46.500
        31.7504
 -21975413.993 7  20863706.609 7 -16963548.23349  20863702.69549        50.000
        44.0004
  -9171451.850 5  23489110.906 5  -7134223.54446  23489107.52046        41.000
        25.5004
 -15646719.515 6  22482347.797 6 -12182858.71347  22482345.30947        44.000
        32.5004
  -6184019.632 6  23987027.312 6  -4799135.92447  23987023.52347        42.500
        27.0004
 11  3 11  1 56 30.0000000  0  9G 2G 4G 5G 7G 8G10G13G26G29
 -28789938.272 8  19932998.344 8 -22357047.25049  19932992.02349        53.000
        50.0004
 -18250405.008 7  21542969.609 7 -14206948.05749  21542966.03949        48.750
        41.7504
 -20893023.712 7  21211747.953 7 -16272606.10549  21211743.94549        49.250
        43.5004
 -12839523.756 7  22791496.164 7 -10000440.24848  22791492.84448        47.500
        36.2504
 -12079816.555 6  23312081.688 6  -9399856.94647  23312080.05147        45.250
        31.0004
 -21935429.523 7  20871315.219 7 -16932391.53149  20871311.37949        50.000
        43.7504
  -9070110.957 5  23508395.742 5  -7055256.71346  23508392.77346        41.000
        25.7504
 -15755505.588 6  22461646.914 6 -12267627.03947  22461644.45747        44.500
        33.5004
  -6243087.444 5  23975786.578 5  -4845162.78847  23975783.51247        41.250
        27.5004
 11  3 11  1 57  0.0000000  0  9G 2G 4G 5G 7G 8G10G13G26G29
 -28797130.982 8  19931629.578 8 -22362651.98649  19931623.50849        53.000
        50.0004
 -18179516.046 7  21556458.672 7 -14151709.96249  21556455.77749        48.250
        41.5004
 -20930547.364 7  21204607.656 7 -16301845.30449  21204603.46149        49.500
        44.2504
 -12863364.787 7  22786959.812 7 -10019017.68148  22786956.02348        47.500
        36.2504
 -12153990.807 6  23297966.602 6  -9457655.02447  23297964.46147        44.750
        31.5004
 -21895239.650 7  20878963.062 7 -16901074.77149  20878958.91049        50.000
        43.5004
  -8968599.546 5  23527712.977 5  -6976157.01247  23527710.22747        41.500
        27.0004
 -15863995.757 6  22441001.977 6 -12352164.79647  22440999.95747        44.250
        33.0004
  -6301695.938 5  23964633.398 5  -4890831.70946  23964631.14146        41.750
        26.0004
 11  3 11  1 57 30.0000000  0  9G 2G 4G 5G 7G 8G10G13G26G29
 -28803813.498 8  19930357.891 8 -22367859.16049  19930351.78149        53.250
        50.0004
 -18108283.152 7  21570013.961 7 -14096203.89948  21570011.37948        48.250
        40.7504
 -20967872.780 7  21197504.938 7 -16330930.03949  21197500.44949        49.250
        43.5004
 -12886682.199 7  22782522.281 7 -10037187.11848  22782518.99248        47.500
        36.0004
 -12227892.182 6  23283903.609 6  -9515240.43947  23283901.31647        45.250
        31.7504
 -21854845.695 7  20886650.000 7 -16869598.99349  20886646.03149        50.000
        43.5004
  -8866920.524 5  23547061.727 5  -6896926.71047  23547059.31247        41.500
        26.2504
 -15972187.896 6  22420413.641 6 -12436470.33547  22420411.42247        44.250
        33.5004
  -6359843.606 5  23953568.711 5  -4936141.59547  23953565.60547        42.250
        29.0004
 11  3 11  1 58  0.0000000  0  9G 2G 4G 5G 7G 8G10G13G26G29
 -28809984.636 7  19929183.844 7 -22372667.86549  19929177.68449        51.750
        50.0004
 -18036707.501 7  21583634.258 7 -14040430.74248  21583631.46948        48.000
        40.7504
 -21004999.951 7  21190439.602 7 -16359860.28549  21190435.52349        48.500
        43.7504
 -12909474.745 6  22778185.180 6 -10054947.56748  22778181.84048        46.750
        36.0004
 -12301517.418 6  23269893.523 6  -9572610.68547  23269890.78147        45.250
        31.5004
 -21814247.828 7  20894375.680 7 -16837964.31149  20894371.90249        50.000
        44.0004
  -8765076.139 5  23566442.336 5  -6817567.51747  23566439.30947        42.000
        27.5004
 -16080079.837 6  22399881.812 6 -12520541.94448  22399880.95748        43.750
        34.0004
  -6417528.689 6  23942591.680 6  -4981090.98847  23942589.48047        43.500
        28.2504
 11  3 11  1 58 30.0000000  0  9G 2G 4G 5G 7G 8G10G13G26G29
 -28815643.117 8  19928107.023 8 -22377077.09549  19928100.49649        52.500
        50.0004
 -17964789.607 7  21597320.000 7 -13984390.91548  21597316.70348        48.000
        40.2504
 -21041928.660 7  21183412.242 7 -16388635.88949  21183408.23449        49.250
        43.2504
 -12931740.513 6  22773948.148 6 -10072297.54148  22773944.46148        47.000
        36.0004
 -12374863.468 6  23255935.547 6  -9629763.42547  23255933.37147        45.500
        32.0004
 -21773446.795 7  20902139.609 7 -16806171.30049  20902135.61349        50.750
        44.0004
  -8663069.088 5  23585853.680 5  -6738081.57146  23585850.70346        41.250
        25.0004
 -16187668.902 6  22379409.031 6 -12604377.53948  22379406.45748        44.000
        33.7504
  -6474749.157 6  23931702.719 6  -5025678.33247  23931700.46147        42.750
        28.5004
 11  3 11  1 59  0.0000000  0  9G 2G 4G 5G 7G 8G10G13G26G29
 -28820787.972 8  19927128.094 8 -22381086.09049  19927121.27349        53.250
        50.2504
 -17892530.887 7  21611070.977 7 -13928085.47848  21611067.24648        48.250
        40.2504
 -21078659.062 7  21176422.758 7 -16417256.96949  21176418.58249        49.000
        43.0004
 -12953478.435 7  22769812.172 7 -10089236.19848  22769808.46948        47.500
        36.0004
 -12447927.408 6  23242031.828 6  -9686696.30847  23242029.90647        45.750
        31.2504
 -21732443.437 7  20909942.445 7 -16774220.65949  20909938.35249        50.250
        44.0004
  -8560902.021 5  23605294.984 5  -6658470.94246  23605291.93046        39.750
        24.0004
 -16294953.078 6  22358993.039 6 -12687975.57148  22358990.84448        44.500
        34.5004
  -6531503.577 6  23920902.469 6  -5069902.56347  23920899.77347        42.500
        27.7504
 11  3 11  1 59 30.0000000  0  9G 2G 4G 5G 7G 8G10G13G26G29
 -28825417.299 8  19926247.086 8 -22384693.37549  19926240.59849        53.250
        50.2504
 -17819931.582 7  21624885.445 7 -13871514.63548  21624883.12948        47.750
        40.0004
 -21115190.792 7  21169471.047 7 -16445723.24549  21169466.89549        50.250
        43.2504
 -12974686.498 7  22765776.000 7 -10105762.00148  22765772.47348        47.750
        36.2504
 -12520705.829 6  23228182.406 6  -9743406.72947  23228179.80947        45.500
        31.0004
 -21691237.438 7  20917783.492 7 -16742112.11749  20917779.53949        49.750
        44.0004
  -8458576.676 5  23624766.570 5  -6578737.02146  23624764.46146        40.250
        25.5004
 -16401929.290 6  22338636.156 6 -12771333.64047  22338633.86347        43.500
        33.5004
  -6587789.892 5  23910191.594 5  -5113762.02947  23910188.12547        42.000
        28.0004
                            4  1
RINEX FILE SPLICE; other post-header comments skipped       COMMENT
 11  3 11  2  0  0.0000000  0  9G 2G 4G 5G 7G 8G10G13G26G29
 -28829530.965 8  19925464.445 8 -22387898.86749  19925458.06249        53.750
        50.2504
 -17746993.603 7  21638765.789 7 -13814679.90648  21638762.67248        48.500
        40.0004
 -21151524.451 7  21162557.023 7 -16474035.18549  21162552.43849        50.500
        43.0004
 -12995363.860 6  22761841.383 6 -10121874.26548  22761837.57848        46.000
        36.0004
 -12593196.353 6  23214388.195 6  -9799892.80947  23214386.13747        45.750
        32.0004
 -21649830.437 7  20925663.359 7 -16709846.95749  20925659.03949        49.750
        44.0004
  -8356096.521 5  23644268.617 5  -6498882.41946  23644265.59446        40.000
        24.5004
 -16508596.075 6  22318338.094 6 -12854450.58347  22318335.48447        44.500
        33.5004
  -6643606.810 5  23899570.078 5  -5157255.70247  23899567.85547        42.000
        27.7504
 11  3 11  2  0 30.0000000  0  9G 2G 4G 5G 7G 8G10G13G26G29
 -28833126.977 8  19924779.906 8 -22390700.96349  19924773.72349        54.250
        50.2504
 -17673717.306 7  21652709.422 7 -13757581.55448  21652706.72748        48.000
        40.2504
 -21187659.245 7  21155680.742 7 -16502192.16249  21155676.32449        50.000
        43.0004
 -13015508.440 6  22758008.352 6 -10137571.36248  22758004.59048        46.000
        36.0004
 -12665395.434 6  23200649.438 6  -9856151.79347  23200646.71147        45.750
        32.0004
 -21608222.053 7  20933581.133 7 -16677424.86649  20933577.13349        49.500
        44.0004
  -8253463.264 5  23663798.477 5  -6418908.50446  23663794.84846        40.250
        25.2504
 -16614950.416 6  22298099.711 6 -12937324.07147  22298096.56647        44.500
        33.5004
  -6698952.126 5  23889038.367 5  -5200381.92047  23889035.53947        42.000
        26.7504
 11  3 11  2  1  0.0000000  0  9G 2G 4G 5G 7G 8G10G13G26G29
 -28836204.881 8  19924194.273 8 -22393099.36049  19924187.58649        54.000
        50.2504
 -17600104.206 7  21666717.328 7 -13700220.75348  21666714.89548        48.250
        40.7504
 -21223595.602 7  21148842.414 7 -16530194.50649  21148837.88749        50.750
        43.2504
 -13035119.755 6  22754276.086 6 -10152852.94948  22754272.21148        45.250
        36.2504
 -12737300.790 6  23186966.141 6  -9912181.92347  23186963.69547        46.500
        31.7504
 -21566413.872 7  20941536.805 7 -16644847.08449  20941533.11749        50.000
        43.5004
  -8150680.468 5  23683357.539 5  -6338818.10846  23683354.56646        40.000
        26.0004
 -16720990.532 6  22277920.344 6 -13019952.70848  22277918.44548        44.500
        34.0004
  -6753824.638 6  23878596.203 6  -5243139.72447  23878593.61747        42.500
        27.5004
 11  3 11  2  1 30.0000000  0  9G 2G 4G 5G 7G 8G10G13G26G29
 -28838763.201 8  19923707.492 8 -22395092.88149  19923701.04749        53.250
        50.0004
 -17526155.182 7  21680789.609 7 -13642598.18848  21680786.82848        48.750
        40.5004
 -21259333.232 7  21142041.602 7 -16558042.00149  21142037.30149        50.750
        43.5004
 -13054196.046 6  22750646.070 6 -10167717.61548  22750642.16048        45.250
        36.5004
 -12808909.196 6  23173339.000 6  -9967980.63647  23173336.90247        45.500
        31.0004
 -21524405.893 7  20949530.711 7 -16612113.63549  20949526.80549        50.000
        43.5004
  -8047750.241 5  23702944.875 5  -6258612.80446  23702941.68046        40.500
        25.0004
 -16826713.768 6  22257801.953 6 -13102334.42448  22257799.51648        44.500
        34.2504
  -6808222.540 5  23868244.617 5  -5285527.71047  23868241.09447        41.750
        26.5004
 11  3 11  2  2  0.0000000  0  9G 2G 4G 5G 7G 8G10G13G26G29
 -28840801.279 7  19923319.664 7 -22396681.02549  19923313.21549        52.000
        50.0004
 -17451871.600 7  21694925.320 7 -13584714.95548  21694922.92248        48.000
        40.0004
 -21294872.490 7  21135278.438 7 -16585734.91749  21135274.48849        50.000
        43.7504
 -13072736.039 6  22747117.883 6 -10182164.39548  22747114.15248        45.500
        35.2504
 -12880218.222 6  23159769.617 6 -10023546.07947  23159767.67247        44.500
        31.7504
 -21482199.289 7  20957562.477 7 -16579225.39349  20957558.27349        50.000
        43.7504
  -7944675.033 5  23722560.039 5  -6178294.51546  23722555.95746        40.250
        25.0004
 -16932118.278 6  22237744.227 6 -13184467.78148  22237741.87148        45.500
        34.0004
  -6862144.215 5  23857983.227 5  -5327544.58247  23857981.22347        42.000
        27.2504
 11  3 11  2  2 30.0000000  0  9G 2G 4G 5G 7G 8G10G13G26G29
 -28842317.678 8  19923031.117 8 -22397862.64349  19923024.93449        52.500
        50.0004
 -17377254.272 7  21709124.703 7 -13526571.65648  21709122.04748        48.500
        40.7504
 -21330213.213 7  21128553.812 7 -16613273.14249  21128549.61349        51.250
        43.7504
 -13090738.560 6  22743692.195 6 -10196192.33548  22743688.82848        47.000
        36.0004
 -12951224.147 6  23146257.406 6 -10078875.32447  23146255.13347        46.250
        31.7504
 -21439794.365 7  20965631.430 7 -16546182.62149  20965628.16049        50.000
        43.5004
  -7841457.595 5  23742201.328 5  -6097865.44146  23742198.46146        40.250
        24.5004
 -17037201.427 6  22217747.672 6 -13266350.73348  22217744.96948        45.250
        33.7504
  -6915588.109 6  23847814.109 6  -5369189.16647  23847811.62547        42.750
        28.5004
 11  3 11  2  3  0.0000000  0  9G 2G 4G 5G 7G 8G10G13G26G29
 -28843311.205 8  19922842.094 8 -22398636.84149  19922835.90249        53.500
        50.2504
 -17302304.076 7  21723387.258 7 -13468168.99148  21723384.76248        48.500
        39.7504
 -21365354.982 7  21121866.320 7 -16640656.33849  21121862.42249        50.750
        44.0004
 -13108202.175 6  22740368.977 6 -10209800.35148  22740365.44948        46.500
        36.5004
 -13021924.700 6  23132803.930 6 -10133966.62547  23132801.46547        46.250
        32.5004
 -21397191.374 7  20973738.805 7 -16512985.51449  20973734.93849        49.500
        43.0004
  -7738100.340 5  23761869.664 5  -6017327.40846  23761866.92246        40.250
        24.5004
 -17141960.671 6  22197812.461 6 -13347981.30348  22197809.91848        46.000
        34.5004
  -6968552.522 6  23837735.180 6  -5410460.12247  23837732.35247        42.750
        29.2504
 11  3 11  2  3 30.0000000  0  9G 2G 4G 5G 7G 8G10G13G26G29
 -28843781.264 8  19922752.633 8 -22399003.14649  19922746.12549        54.000
        50.0004
 -17227022.188 7  21737713.172 7 -13409507.87148  21737710.62548        48.750
        39.7504
 -21400297.947 7  21115216.930 7 -16667884.61749  21115212.68049        51.000
        43.5004
 -13125125.684 6  22737148.734 6 -10222987.52148  22737144.73848        47.000
        35.5004
 -13092316.750 6  23119408.570 6 -10188817.53747  23119406.29347        47.000
        32.5004
 -21354391.257 7  20981883.430 7 -16479634.79549  20981879.81249        49.750
        43.5004
  -7634605.674 5  23781563.891 5  -5936682.33746  23781560.98046        39.750
        23.7504
 -17246394.042 6  22177940.000 6 -13429357.92548  22177937.66848        45.250
        35.5004
  -7021035.637 6  23827748.398 6  -5451356.07347  23827744.91047        43.250
        29.2504
 11  3 11  2  4  0.0000000  0  9G 2G 4G 5G 7G 8G10G13G26G29
 -28843726.700 8  19922762.891 8 -22398960.65649  19922756.89149        53.750
        50.0004
 -17151410.288 7  21752101.820 7 -13350589.58648  21752099.03148        47.500
        40.2504
 -21435042.430 7  21108605.305 7 -16694958.22749  21108601.08249        50.750
        43.7504
 -13141508.211 6  22734031.062 6 -10235753.14348  22734027.67248        47.000
        36.0004
 -13162397.165 6  23106072.641 6 -10243425.62747  23106070.03547        44.750
        33.5004
 -21311394.726 7  20990065.430 7 -16446131.02049  20990061.80549        49.500
        43.5004
  -7530976.461 5  23801284.273 5  -5855932.39446  23801281.76646        40.000
        25.2504
 -17350499.417 6  22158129.031 6 -13510478.98848  22158126.77048        47.000
        35.0004
  -7073036.307 6  23817853.023 6  -5491876.06547  23817849.75447        42.750
        29.2504
 11  3 11  2  4 30.0000000  0  9G 2G 4G 5G 7G 8G10G13G26G29
 -28843146.688 8  19922873.359 8 -22398508.71549  19922867.47349        54.000
        50.0004
 -17075468.853 7  21766552.906 7 -13291414.53248  21766550.43848        48.000
        39.5004
 -21469588.003 7  21102031.391 7 -16721876.85349  21102027.11749        51.000
        43.2504
 -13157348.364 6  22731017.133 6 -10248096.13248  22731013.39148        46.250
        37.2504
 -13232162.995 6  23092796.727 6 -10297788.57347  23092794.55547        47.000
        32.7504
 -21268202.120 7  20998284.836 7 -16412474.45749  20998280.49649        50.250
        43.5004
  -7427214.737 5  23821028.898 5  -5775079.22546  23821027.38746        40.000
        22.7504
 -17454274.347 6  22138381.414 6 -13591342.55948  22138378.96548        45.250
        35.0004
  -7124552.969 5  23808048.703 5  -5532018.91747  23808046.08247        42.000
        27.0004
 11  3 11  2  5  0.0000000  0  9G 2G 4G 5G 7G 8G10G13G26G29
 -28842039.632 7  19923084.148 7 -22397646.09749  19923077.64149        52.000
        50.2504
 -16999198.644 7  21781066.953 7 -13231983.25448  21781064.20748        48.000
        40.0004
 -21503933.728 7  21095495.734 7 -16748639.75649  21095491.31649        51.500
        43.5004
 -13172644.251 6  22728106.195 6 -10260015.03248  22728102.75048        46.000
        36.7504
 -13301611.375 6  23079581.023 6 -10351904.16047  23079578.96147        47.250
        32.2504
 -21224813.647 7  21006541.562 7 -16378665.30449  21006537.77049        51.500
        43.7504
  -7323322.374 5  23840799.242 5  -5694124.23246  23840797.07446        40.250
        25.0004
 -17557715.991 6  22118697.234 6 -13671946.41548  22118694.94548        44.500
        34.5004
  -7175583.561 5  23798337.672 5  -5571782.99547  23798335.73047        40.500
        27.5004
 11  3 11  2  5 30.0000000  0  9G 2G 4G 5G 7G 8G10G13G26G29
 -28840405.709 7  19923394.812 7 -22396372.93249  19923388.75449        52.000
        50.0004
 -16922601.966 7  21795642.445 7 -13172297.58348  21795639.97748        49.000
        39.5004
 -21538081.374 7  21088997.492 7 -16775248.30749  21088993.50449        50.500
        43.5004
 -13187396.021 6  22725299.195 6 -10271509.93648  22725296.01648        46.000
        36.5004
 -13370740.556 6  23066426.328 6 -10405771.02847  23066423.84047        46.500
        32.5004
 -21181230.842 7  21014834.930 7 -16344704.69049  21014830.52349        50.000
        43.0004
  -7219303.492 5  23860593.570 5  -5613070.67246  23860590.84046        39.500
        24.0004
 -17660823.323 6  22099076.117 6 -13752289.76348  22099074.39148        45.000
        35.5004
  -7226127.172 5  23788720.508 5  -5611167.61647  23788717.64147        41.250
        28.5004
 11  3 11  2  6  0.0000000  0  9G 2G 4G 5G 7G 8G10G13G26G29
 -28838243.078 8  19923806.797 8 -22394687.79849  19923800.34049        53.750
        50.0004
 -16845679.053 7  21810280.953 7 -13112357.70748  21810277.86748        48.750
        39.5004
 -21572029.661 7  21082537.500 7 -16801701.52249  21082533.28949        50.500
        43.5004
 -13201601.703 6  22722595.625 6 -10282579.31248  22722592.19948        46.250
        36.7504
 -13439546.240 6  23053333.203 6 -10459385.82647  23053330.35947        46.250
        32.7504
 -21137453.164 7  21023165.836 7 -16310592.22349  21023162.03149        50.000
        43.5004
  -7115159.410 5  23880411.930 5  -5531919.55346  23880408.81646        39.500
        22.0004
 -17763593.243 6  22079519.578 6 -13832370.19648  22079517.51648        45.750
        35.0004
  -7276181.938 4  23779194.469 4  -5650171.31247  23779192.39547        39.000
        26.5004
 11  3 11  2  6 30.0000000  0  9G 2G 4G 5G 7G 8G10G13G26G29
 -28835551.090 8  19924318.914 8 -22392590.17949  19924312.70749        54.000
        50.2504
 -16768431.638 7  21824980.211 7 -13052164.99148  21824977.52048        48.500
        39.7504
 -21605779.000 7  21076115.055 7 -16827999.70549  21076111.12549        51.000
        43.5004
 -13215260.631 6  22719996.938 6 -10293222.65548  22719993.13348        46.500
        37.0004
 -13508026.379 6  23040301.750 6 -10512746.96547  23040298.67247        46.000
        33.5004
 -21093482.071 7  21031532.648 7 -16276329.05749  21031528.43849        49.500
        42.5004
  -7010893.190 5  23900253.320 5  -5450673.25346  23900250.24246        39.500
        22.0004
 -17866023.810 6  22060028.242 6 -13912186.19948  22060025.60248        45.750
        34.7504
  -7325746.593 5  23769763.203 5  -5688793.11547  23769760.56247        41.750
        29.5004
 11  3 11  2  7  0.0000000  0  9G 2G 4G 5G 7G 8G10G13G26G29
 -28832329.295 8  19924931.992 8 -22390079.71449  19924925.63749        54.250
        50.0004
 -16690860.960 7  21839741.812 7 -12991720.40648  21839738.75848        48.500
        39.0004
 -21639329.584 7  21069730.500 7 -16854142.99949  21069726.25849        50.750
        43.7504
 -13228371.795 6  22717501.719 6 -10303439.15748  22717498.55148        46.500
        36.2504
 -13576177.993 6  23027332.641 6 -10565852.09148  23027330.53548        46.250
        34.0004
 -21049317.964 7  21039937.344 7 -16241915.51349  21039933.53149        51.000
        43.5004
  -6906507.354 4  23920117.148 4  -5369333.74446  23920114.12546        38.750
        23.0004
 -17968113.098 6  22040600.773 6 -13991736.28948  22040598.30548        45.000
        34.7504
  -7374819.958 5  23760424.781 5  -5727032.09647  23760422.00847        41.250
        29.2504
 11  3 11  2  7 30.0000000  0  9G 2G 4G 5G 7G 8G10G13G26G29
 -28828575.518 8  19925646.750 8 -22387154.72849  19925640.23449        53.750
        50.0004
 -16612966.877 7  21854564.523 7 -12931023.81448  21854562.28148        49.250
        39.7504
 -21672679.957 7  21063384.289 7 -16880130.30249  21063380.23049        51.500
        43.5004
 -13240933.042 7  22715111.547 7 -10313227.14548  22715108.25048        47.500
        36.5004
 -13643997.483 6  23014427.453 6 -10618698.41848  23014425.06648        47.000
        34.0004
 -21004960.367 7  21048378.070 7 -16207351.16649  21048373.46149        50.500
        42.7504
  -6802003.090 5  23940004.008 5  -5287902.01046  23940001.47346        40.000
        22.7504
 -18069857.767 6  22021239.625 6 -14071017.83548  22021237.33648        45.250
        35.5004
  -7423399.722 5  23751180.625 5  -5764886.48147  23751177.54347        40.750
        27.5004
 11  3 11  2  8  0.0000000  0  9G 2G 4G 5G 7G 8G10G13G26G29
 -28824290.230 8  19926461.688 8 -22383815.57249  19926455.63349        53.000
        50.0004
 -16534751.990 7  21869448.258 7 -12870077.25648  21869445.69148        49.250
        39.5004
 -21705831.156 7  21057075.758 7 -16905962.41349  21057071.69549        51.000
        43.5004
 -13252944.486 6  22712825.758 6 -10322586.74148  22712822.05548        46.500
        36.7504
 -13711482.939 6  23001585.211 6 -10671284.47148  23001582.53548        45.750
        34.0004
 -20960411.027 7  21056855.688 7 -16172637.43149  21056851.42249        50.500
        43.0004
  -6697384.096 5  23959912.531 5  -5206380.81046  23959909.24646        40.000
        22.5004
 -18171256.584 6  22001943.914 6 -14150029.87148  22001941.58648        46.000
        35.7504
  -7471485.011 5  23742030.578 5  -5802355.54947  23742026.49247        42.000
        28.5004
 11  3 11  2  8 30.0000000  0  9G 2G 4G 5G 7G 8G10G13G26G29
 -28819471.908 8  19927378.578 8 -22380061.05649  19927372.58649        53.000
        50.0004
 -16456217.054 7  21884393.148 7 -12808881.28848  21884389.80948        48.750
        38.5004
 -21738782.938 7  21050805.367 7 -16931639.14049  21050801.17249        51.000
        43.5004
 -13264404.681 7  22710645.109 7 -10331516.78248  22710641.20748        48.000
        36.7504
 -13778631.232 6  22988807.188 6 -10723607.82348  22988804.83648        47.000
        34.0004
 -20915669.819 7  21065369.570 7 -16137774.18449  21065365.74249        50.250
        43.5004
  -6592652.338 4  23979842.750 4  -5124771.76146  23979839.09046        38.250
        21.2504
 -18272307.118 6  21982714.609 6 -14228770.54348  21982712.19948        46.000
        35.5004
  -7519074.402 5  23732974.078 5  -5839438.20647  23732971.42647        41.000
        29.5004
 11  3 11  2  9  0.0000000  0  9G 2G 4G 5G 7G 8G10G13G26G29
 -28814119.483 8  19928397.359 8 -22375890.36849  19928391.14149        53.000
        50.0004
 -16377362.652 7  21899398.266 7 -12747436.40548  21899396.30148        48.250
        39.0004
 -21771535.075 7  21044572.828 7 -16957160.28849  21044568.42649        51.000
        43.7504
 -13275312.344 7  22708569.492 7 -10340016.26048  22708565.47348        47.750
        36.7504
 -13845439.220 6  22976093.891 6 -10775665.96447  22976091.60547        46.750
        33.5004
 -20870737.070 7  21073920.297 7 -16102761.66349  21073915.90649        51.500
        43.5004
  -6487810.412 4  23999793.016 4  -5043076.86046  23999789.63746        38.500
        22.0004
 -18373006.850 6  21963552.531 6 -14307237.84048  21963549.68448        46.500
        35.5004
  -7566166.024 5  23724013.203 5  -5876132.98347  23724010.72347        41.000
        31.0004
 11  3 11  2  9 30.0000000  0  9G 2G 4G 5G 7G 8G10G13G26G29
 -28808232.595 8  19929517.625 8 -22371303.20149  19929511.50049        53.500
        50.0004
 -16298190.485 7  21914464.586 7 -12685743.89848  21914461.96548        48.250
        38.5004
 -21804087.220 7  21038378.281 7 -16982525.61849  21038374.08649        51.250
        44.0004
 -13285666.859 6  22706598.898 6 -10348084.73248  22706595.19948        47.250
        36.7504
 -13911904.169 6  22963445.938 6 -10827456.84947  22963443.39847        46.500
        33.2504
 -20825613.623 7  21082506.898 7 -16067600.56549  21082503.68049        51.500
        43.5004
  -6382860.153 4  24019764.039 4  -4961297.59046  24019762.06246        38.000
        22.0004
 -18473353.700 6  21944456.789 6 -14385430.18248  21944454.71148        46.000
        36.7504
  -7612758.861 5  23715146.133 5  -5912439.10347  23715143.93047        40.250
        29.0004
 11  3 11  2 10  0.0000000  0  9G 2G 4G 5G 7G 8G10G13G26G29
 -28801810.505 8  19930739.750 8 -22366299.00949  19930733.44149        53.000
        50.0004
 -16218701.853 7  21929591.422 7 -12623804.78148  21929588.06248        47.500
        39.0004
 -21836439.546 7  21032222.070 7 -17007735.22749  21032217.55149        51.500
        43.7504
 -13295467.325 6  22704733.789 6 -10355721.49948  22704730.27348        46.000
        36.7504
 -13978023.581 6  22950864.023 6 -10878978.46347  22950861.63347        47.000
        33.2504
 -20780299.836 7  21091129.625 7 -16032291.17349  21091125.26649        50.500
        43.0004
  -6277804.431 4  24039756.016 4  -4879436.06546  24039754.06246        39.000
        21.7504
 -18573345.536 6  21925429.133 6 -14463345.86648  21925427.39148        46.500
        37.2504
  -7658851.523 5  23706375.695 5  -5948355.45847  23706373.30547        40.750
        29.0004
 11  3 11  2 10 30.0000000  0  9G 2G 4G 5G 7G 8G10G13G26G29
 -28794852.821 8  19932063.938 8 -22360877.48449  19932057.30949        53.250
        50.0004
 -16138898.328 7  21944776.953 7 -12561620.31848  21944774.35548        48.250
        39.0004
 -21868592.368 7  21026103.234 7 -17032789.38249  21026099.02749        50.000
        44.0004
 -13304713.345 6  22702974.398 6 -10362926.22948  22702971.50848        46.500
        36.7504
 -14043794.824 6  22938348.016 6 -10930228.77048  22938345.62548        46.250
        34.0004
 -20734796.828 7  21099788.812 7 -15996834.34149  21099785.05949        50.750
        43.5004
  -6172646.025 4  24059767.375 4  -4797494.58446  24059764.69146        39.000
        20.7504
 -18672980.664 6  21906468.938 6 -14540983.61448  21906467.22348        46.500
        37.0004
  -7704442.951 5  23697699.898 5  -5983881.27347  23697697.47747        41.000
        29.0004
 11  3 11  2 11  0.0000000  0  9G 2G 4G 5G 7G 8G10G13G26G29
 -28787357.860 8  19933490.172 8 -22355037.29049  19933483.84849        54.500
        50.0004
 -16058780.248 7  21960022.922 7 -12499190.74548  21960020.60248        48.250
        38.5004
 -21900544.714 7  21020023.242 7 -17057687.32549  21020018.67249        51.250
        44.0004
 -13313403.265 6  22701320.367 6 -10369697.62748  22701317.71948        45.500
        36.5004
 -14109214.627 7  22925899.344 7 -10981205.24547  22925897.21547        47.500
        33.5004
 -20689104.307 7  21108483.500 7 -15961229.80249  21108480.04749        50.500
        43.0004
  -6067386.639 5  24079797.484 5  -4715474.39246  24079795.25046        39.500
        21.5004
 -18772256.168 6  21887577.422 6 -14618341.13148  21887574.96148        45.750
        36.0004
  -7749531.442 5  23689119.938 5  -6019015.17047  23689116.82047        40.750
        29.2504
 11  3 11  2 11 30.0000000  0  9G 2G 4G 5G 7G 8G10G13G26G29
 -28779325.625 8  19935018.695 8 -22348778.43149  19935011.85949        53.500
        50.0004
 -15978349.566 7  21975328.742 7 -12436517.56648  21975325.95348        48.000
        38.5004
 -21932296.992 7  21013981.117 7 -17082429.36449  21013977.21949        51.000
        44.2504
 -13321536.648 6  22699772.766 6 -10376035.36448  22699769.51648        46.750
        36.5004
 -14174280.385 6  22913517.445 6 -11031905.82548  22913515.28148        46.500
        33.7504
 -20643223.302 7  21117214.703 7 -15925478.40649  21117210.51249        50.500
        42.7504
  -5962028.721 5  24099846.469 5  -4633377.44846  24099844.37546        39.500
        21.0004
 -18871170.487 6  21868754.742 6 -14695417.20648  21868751.98448        45.750
        36.5004
  -7794115.990 5  23680635.375 5  -6053756.39447  23680632.62947        40.500
        28.7504
 11  3 11  2 12  0.0000000  0  9G 2G 4G 5G 7G 8G10G13G26G29
 -28770755.823 8  19936649.641 8 -22342100.69149  19936643.03949        54.000
        50.0004
 -15897607.697 6  21990693.375 6 -12373601.92748  21990690.92248        46.750
        38.5004
 -21963849.489 7  21007976.758 7 -17107015.74149  21007972.75449        51.250
        44.0004
 -13329112.747 6  22698331.086 6 -10381938.84148  22698328.71948        46.000
        37.0004
 -14238989.980 7  22901203.672 7 -11082328.88648  22901201.59048        47.500
        34.5004
 -20597154.867 7  21125980.953 7 -15889580.96949  21125977.64149        50.250
        43.0004
  -5856575.654 5  24119913.867 5  -4551206.34346  24119910.37946        40.250
        20.0004
 -18969721.901 6  21850000.820 6 -14772210.50148  21849998.93848        44.750
        36.2504
  -7838195.516 5  23672247.391 5  -6088104.11947  23672244.30147        41.500
        28.0004
 11  3 11  2 12 30.0000000  0  9G 2G 4G 5G 7G 8G10G13G26G29
 -28761647.074 8  19938382.641 8 -22335003.00549  19938376.35249        53.250
        50.0004
 -15816555.613 7  22006117.531 7 -12310444.55848  22006114.36348        48.250
        38.5004
 -21995201.893 7  21002010.672 7 -17131446.18849  21002006.13349        50.000
        44.0004
 -13336130.607 6  22696995.969 6 -10387407.33748  22696992.94948        46.500
        37.0004
 -14303340.079 6  22888958.320 6 -11132471.82248  22888955.52048        45.750
        33.7504
 -20550898.709 7  21134783.453 7 -15853537.23149  21134779.35949        50.750
        43.2504
  -5751028.670 5  24139999.125 5  -4468962.04146  24139995.70746        40.000
        20.2504
 -19067907.651 6  21831316.734 6 -14848718.85148  21831314.30548        46.000
        37.0004
  -7881768.331 5  23663955.992 5  -6122057.00147  23663953.12547        41.000
        29.2504
 11  3 11  2 13  0.0000000  0  9G 2G 4G 5G 7G 8G10G13G26G29
 -28751998.310 8  19940219.109 8 -22327484.53249  19940212.63349        53.500
        49.7504
 -15735194.132 7  22021599.828 7 -12247046.09648  22021596.82048        47.500
        38.2504
 -22026353.252 7  20996082.469 7 -17155719.98849  20996078.29749        50.500
        44.2504
 -13342589.028 7  22695766.797 7 -10392439.88848  22695763.91048        47.750
        36.5004
 -14367327.528 6  22876782.352 6 -11182332.19348  22876780.00448        46.250
        34.0004
 -20504455.050 7  21143621.164 7 -15817347.42449  21143618.10249        50.250
        43.2504
  -5645390.226 4  24160100.789 4  -4386646.47146  24160098.30146        39.000
        20.7504
 -19165725.160 6  21812702.414 6 -14924940.28448  21812700.54748        45.750
        35.7504
  -7924833.136 5  23655760.219 5  -6155614.00047  23655758.82847        40.000
        29.2504
 11  3 11  2 13 30.0000000  0  9G 2G 4G 5G 7G 8G10G13G26G29
 -28741809.438 7  19942157.859 7 -22319545.20149  19942151.37949        51.750
        50.0004
 -15653524.950 6  22037141.234 6 -12183407.87448  22037138.14848        47.250
        38.0004
 -22057303.940 7  20990193.023 7 -17179837.42649  20990188.75449        51.000
        44.0004
 -13348487.580 6  22694644.812 6 -10397036.19248  22694641.35948        47.250
        36.7504
 -14430949.856 6  22864675.281 6 -11231908.01948  22864673.02748        46.750
        34.0004
 -20457824.735 7  21152495.352 7 -15781012.17349  21152490.60249        52.000
        43.2504
  -5539663.077 4  24180220.695 4  -4304261.79846  24180218.22746        38.500
        20.5004
 -19263172.830 6  21794159.406 6 -15000873.51148  21794156.50448        46.000
        37.0004
  -7967388.704 5  23647662.648 5  -6188774.19347  23647660.30147        41.750
        30.5004
 11  3 11  2 14  0.0000000  0  9G 2G 4G 5G 7G 8G10G13G26G29
 -28731080.187 8  19944199.578 8 -22311184.76449  19944192.99249        53.000
        49.7504
 -15571549.685 7  22052740.547 7 -12119531.10148  22052737.92248        48.250
        37.7504
 -22088054.491 7  20984341.188 7 -17203798.91149  20984337.06249        50.750
        44.0004
 -13353825.912 6  22693628.703 6 -10401195.96948  22693625.48848        47.250
        36.5004
 -14494204.794 6  22852638.164 6 -11281197.59848  22852635.65648        46.500
        34.0004
 -20411008.521 7  21161403.711 7 -15744532.04749  21161399.80149        51.250
        42.5004
  -5433849.789 4  24200355.977 4  -4221809.96446  24200353.40646        38.500
        21.0004
 -19360248.880 6  21775686.172 6 -15076517.17748  21775683.69148        46.000
        37.0004
  -8009434.526 5  23639662.211 5  -6221537.22647  23639658.84847        41.750
        29.5004
 11  3 11  2 14 30.0000000  0 10G 2G 4G 5G 7G 8G10G13G15G26G29
 -28719809.687 8  19946344.398 8 -22302402.58749  19946338.37949        53.250
        49.7504
 -15489269.215 6  22068398.109 6 -12055416.51448  22068395.57448        47.250
        38.2504
 -22118603.820 7  20978527.977 7 -17227603.60149  20978523.91449        50.500
        44.0004
 -13358602.699 6  22692719.711 6 -10404918.16848  22692716.64548        47.250
        36.5004
 -14557089.140 6  22840671.133 6 -11330198.38748  22840669.08248        45.000
        33.7504
 -20364006.770 7  21170348.047 7 -15707907.35649  21170344.07849        51.500
        42.7504
  -5327952.001 4  24220506.586 4  -4139292.41346  24220504.88746        39.000
        21.0004
    334094.75911  25142754.508 1

 -19456950.665 6  21757284.680 6 -15151869.21048  21757281.70748        46.250
        37.0004
  -8050969.021 5  23631758.148 5  -6253901.77647  23631755.45347        41.750
        28.5004
 11  3 11  2 15  0.0000000  0 10G 2G 4G 5G 7G 8G10G13G15G26G29
 -28708002.661 7  19948591.297 7 -22293202.34549  19948585.07049        52.000
        49.5004
 -15406690.627 6  22084112.477 6 -11991069.67348  22084109.68048        47.000
        38.0004
 -22148957.908 7  20972751.719 7 -17251256.15149  20972747.34849        49.750
        44.0004
 -13362823.346 7  22691916.953 7 -10408206.99148  22691912.80948        47.500
        36.7504
 -14619606.243 6  22828774.969 6 -11378913.01248  22828771.92248        44.750
        34.0004
 -20316825.789 7  21179326.227 7 -15671142.99849  21179322.44949        51.000
        42.5004
  -5221978.017 3  24240673.992 3  -4056715.43746  24240671.60246        37.000
        20.2504
    228639.82611  25122689.750 1

 -19553282.193 6  21738953.094 6 -15226932.71848  21738950.83248        46.500
        37.5004
  -8091996.501 6  23623951.758 6  -6285871.27347  23623948.18047        43.000
        28.7504
 11  3 11  2 15 30.0000000  0 10G 2G 4G 5G 7G 8G10G13G15G26G29
 -28695647.895 7  19950942.109 7 -22283575.30149  19950935.97349        51.500
        49.5004
 -15323804.383 7  22099885.086 7 -11926483.09048  22099882.24248        47.750
        37.5004
 -22179105.600 7  20967014.641 7 -17274747.87949  20967010.35249        50.750
        43.7504
 -13366475.781 6  22691221.875 6 -10411053.05848  22691218.18048        47.250
        36.7504
 -14681742.417 6  22816950.719 6 -11427330.79748  22816948.39848        45.250
        34.0004
 -20269454.756 7  21188340.562 7 -15634230.51849  21188336.73849        51.250
        42.5004
  -5115919.024 3  24260856.023 3  -3974072.21046  24260854.18846        36.750
        20.2504
    123298.788 1  25102643.172 1

 -19649229.985 6  21720694.648 6 -15301697.22148  21720692.35948        46.000
        37.5004
  -8132504.722 6  23616243.102 6  -6317436.16347  23616239.47347        42.750
        28.7504
 11  3 11  2 16  0.0000000  0 10G 2G 4G 5G 7G 8G10G13G15G26G29
 -28682749.565 7  19953396.805 7 -22273524.68249  19953390.59849        52.000
        49.5004
 -15240616.417 6  22115715.211 6 -11861661.40848  22115712.64848        46.500
        38.0004
 -22209051.493 7  20961316.281 7 -17298082.35449  20961311.72749        50.000
        44.2504
 -13369564.534 7  22690634.352 7 -10413459.89448  22690630.45748        47.750
        36.7504
 -14743499.864 6  22805198.609 6 -11475453.49948  22805196.13348        44.250
        34.2504
 -20221899.189 7  21197389.961 7 -15597174.28449  21197385.89149        50.500
        42.0004
  -5009782.048 4  24281053.297 4  -3891368.22146  24281051.48046        38.250
        22.5004
     18068.124 1  25082617.500 1

 -19744797.064 6  21702509.383 6 -15376165.05948  21702507.13748        47.000
        38.5004
  -8172497.558 6  23608632.172 6  -6348599.44347  23608629.32047        42.500
        29.0004
 11  3 11  2 16 30.0000000  0 10G 2G 4G 5G 7G 8G10G13G15G26G29
 -28669307.647 8  19955954.500 8 -22263050.50049  19955948.98849        52.500
        49.7504
 -15157128.516 7  22131602.445 7 -11796606.00248  22131600.23048        48.500
        37.5004
 -22238795.966 7  20955656.422 7 -17321259.87749  20955652.12149        50.500
        44.5004
 -13372089.434 7  22690153.992 7 -10415427.37048  22690150.01248        47.750
        36.5004
 -14804875.647 6  22793519.086 6 -11523278.79748  22793516.94948        44.750
        34.0004
 -20174159.465 7  21206474.719 7 -15559974.54049  21206471.13749        50.500
        42.2504
  -4903570.227 4  24301265.062 4  -3808605.88246  24301263.93446        38.250
        21.7504
    -87050.769 1  25062613.961 1     53064.77255  25062616.35245        33.500
        18.2505
 -19839981.665 6  21684396.023 6 -15450334.84548  21684394.10548        46.750
        38.0004
  -8211974.529 6  23601119.609 6  -6379360.76547  23601117.07447        43.500
        29.2504
 11  3 11  2 17  0.0000000  0 10G 2G 4G 5G 7G 8G10G13G15G26G29
 -28655321.306 8  19958616.133 8 -22252152.08649  19958610.53949        53.500
        49.5004
 -15073341.778 6  22147546.734 6 -11731317.73648  22147544.30548        47.000
        36.7504
 -22268338.556 7  20950034.625 7 -17344280.09949  20950030.34849        49.500
        44.0004
 -13374049.282 6  22689780.531 6 -10416954.54848  22689776.96148        47.000
        36.7504
 -14865867.424 6  22781912.906 6 -11570804.86447  22781910.50847        45.250
        33.5004
 -20126236.153 7  21215594.320 7 -15522631.73749  21215590.71149        51.000
        42.5004
  -4797285.345 3  24321490.930 3  -3725786.63746  24321488.73446        37.000
        21.2504
   -192056.227 2  25042632.719 2    -28757.64345  25042634.32445        35.000
        18.2504
 -19934781.702 6  21666355.898 6 -15524205.00148  21666353.47348        46.250
        38.0004
  -8250934.335 6  23593706.398 6  -6409719.08647  23593703.34847        43.500
        29.2504
 11  3 11  2 17 30.0000000  0 10G 2G 4G 5G 7G 8G10G13G15G26G29
 -28640791.055 8  19961381.109 8 -22240829.85349  19961374.89149        53.250
        49.5004
 -14989258.470 7  22163547.602 7 -11665798.37848  22163544.73448        47.750
        38.0004
 -22297679.891 7  20944451.133 7 -17367143.49449  20944447.04749        49.500
        44.0004
 -13375444.587 6  22689515.289 6 -10418041.82148  22689511.41448        46.750
        36.5004
 -14926473.256 6  22770379.984 6 -11618030.19048  22770377.40648        45.000
        33.7504
 -20078130.282 8  21224748.859 8 -15485146.66649  21224744.82849        53.250
        42.5004
  -4690930.413 4  24341729.633 4  -3642912.79546  24341727.65646        37.750
        20.7504
   -296947.443 3  25022672.836 3   -110490.99245  25022673.64545        36.500
        18.5004
 -20029195.880 6  21648389.586 6 -15597774.46848  21648387.09048        46.750
        37.2504
  -8289376.509 6  23586390.953 6  -6439674.04647  23586388.81247        42.500
        29.7504
 11  3 11  2 18  0.0000000  0 10G 2G 4G 5G 7G 8G10G13G15G26G29
 -28625715.423 8  19964250.070 8 -22229082.65049  19964243.98049        53.500
        49.5004
 -14904878.983 6  22179604.172 6 -11600048.24848  22179601.21948        46.750
        36.5004
 -22326818.891 7  20938906.016 7 -17389849.23149  20938901.91849        49.500
        44.0004
 -13376273.921 6  22689357.703 6 -10418688.06148  22689353.46948        47.250
        36.2504
 -14986689.234 6  22758921.336 6 -11664951.74548  22758919.02348        45.000
        34.7504
 -20029841.647 7  21233937.539 7 -15447519.20649  21233933.87149        51.250
        42.2504
  -4584506.869 4  24361981.320 4  -3559985.49446  24361979.82846        38.500
        22.0004
   -401721.859 2  25002734.094 2   -192133.32346  25002736.11746        35.500
        19.2504
 -20123221.297 6  21630497.312 6 -15671041.01848  21630495.34848        46.750
        37.5004
  -8327299.007 5  23579174.344 5  -6469224.07347  23579171.36347        41.750
        30.5004
 11  3 11  2 18 30.0000000  0 10G 2G 4G 5G 7G 8G10G13G15G26G29
 -28610094.874 7  19967222.422 7 -22216910.82649  19967216.35549        52.250
        49.5004
 -14820205.423 7  22195717.156 7 -11534068.96948  22195714.39548        48.000
        37.5004
 -22355756.280 7  20933399.195 7 -17412397.86349  20933395.47349        49.000
        44.5004
 -13376537.667 6  22689307.211 6 -10418893.58748  22689303.71548        46.000
        36.2504
 -15046513.916 6  22747536.812 6 -11711568.38248  22747534.91048        45.750
        35.0004
 -19981371.693 7  21243161.312 7 -15409750.45349  21243157.74249        51.250
        42.5004
  -4478018.033 4  24382245.836 4  -3477007.30246  24382244.01246        39.000
        21.0004
   -506379.034 3  24982818.688 3   -273684.24546  24982820.64546        36.000
        20.7504
 -20216856.724 7  21612679.055 7 -15744003.66248  21612676.51648        48.000
        38.5004
  -8364701.879 5  23572057.195 5  -6498369.20247  23572053.87147        42.250
        29.2504
 11  3 11  2 19  0.0000000  0 10G 2G 4G 5G 7G 8G10G13G15G26G29
 -28593928.030 8  19970298.891 8 -22204313.32049  19970292.71549        53.000
        49.5004
 -14735238.596 7  22211886.250 7 -11467861.16148  22211882.75048        48.500
        37.0004
 -22384491.338 7  20927931.531 7 -17434788.83949  20927927.02749        49.000
        44.0004
 -13376234.726 6  22689364.609 6 -10418657.54448  22689361.24648        46.000
        36.0004
 -15105943.776 6  22736227.641 6 -11757877.35348  22736225.46948        45.250
        35.0004
 -19932720.026 7  21252419.094 7 -15371840.08849  21252415.30549        50.750
        42.7504
  -4371465.253 5  24402521.938 5  -3393979.31946  24402520.38746        39.250
        22.0004
   -610916.489 3  24962924.688 3   -355141.89846  24962928.34446        35.750
        20.7504
 -20310099.546 7  21594935.320 7 -15816660.38248  21594932.99648        47.500
        38.5004
  -8401583.494 5  23565038.008 5  -6527108.13447  23565036.07847        42.000
        29.7504
 11  3 11  2 19 30.0000000  0 10G 2G 4G 5G 7G 8G10G13G15G26G29
 -28577215.380 7  19973479.266 7 -22191290.51449  19973473.37149        52.000
        49.2504
 -14649980.385 7  22228110.164 7 -11401426.28548  22228107.46548        48.000
        37.0004
 -22413023.969 7  20922501.867 7 -17457022.07949  20922497.44949        49.500
        44.7504
 -13375364.922 6  22689530.305 6 -10417979.79548  22689527.13748        46.000
        37.0004
 -15164976.963 6  22724994.305 6 -11803877.24748  22724991.29748        45.500
        35.0004
 -19883887.225 7  21261711.984 7 -15333788.61649  21261707.65649        49.000
        42.0004
  -4264850.945 4  24422809.891 4  -3310903.34546  24422807.96146        38.750
        21.5004
   -715333.188 2  24943053.656 2   -436505.46346  24943056.06646        34.750
        22.0004
 -20402948.189 6  21577266.898 6 -15889009.93248  21577264.98848        47.000
        38.5004
  -8437942.933 6  23558120.219 6  -6555440.20547  23558117.49647        43.000
        30.7504
 11  3 11  2 20  0.0000000  0 10G 2G 4G 5G 7G 8G10G13G15G26G29
 -28559956.367 7  19976763.461 7 -22177841.98049  19976757.87949        52.000
        49.5004
 -14564432.185 6  22244389.398 6 -11334765.45648  22244387.17648        47.000
        36.7504
 -22441354.190 7  20917110.680 7 -17479097.60649  20917106.50849        50.000
        44.2504
 -13373927.574 6  22689803.438 6 -10416859.79448  22689800.48448        46.000
        36.0004
 -15223611.084 6  22713836.680 6 -11849566.17448  22713833.95348        46.250
        35.2504
 -19834873.854 7  21271038.906 7 -15295596.40349  21271035.27749        49.500
        42.5004
  -4158177.465 4  24443109.273 4  -3227781.27246  24443107.27746        38.000
        21.2504
   -819627.555 2  24923209.367 2   -517773.70546  24923211.31246        35.000
        20.0004
 -20495400.667 7  21559674.156 7 -15961050.79948  21559671.14548        48.500
        38.2504
  -8473779.688 6  23551300.516 6  -6583364.99547  23551297.76647        43.000
        29.7504
 11  3 11  2 20 30.0000000  0 10G 2G 4G 5G 7G 8G10G13G15G26G29
 -28542149.914 7  19980152.141 7 -22163966.86749  19980146.45749        51.500
        49.2504
 -14478594.741 6  22260723.734 6 -11267879.28748  22260722.00848        47.250
        36.0004
 -22469481.405 7  20911758.266 7 -17501014.93649  20911753.94549        50.500
        44.0004
 -13371922.108 6  22690184.930 6 -10415297.10548  22690181.82448        46.500
        36.7504
 -15281842.890 6  22702755.383 6 -11894941.61948  22702752.90648        47.000
        35.7504
 -19785679.832 7  21280400.188 7 -15257263.43849  21280396.18449        49.000
        41.5004
  -4051446.642 4  24463419.844 4  -3144614.50146  24463417.27346        37.500
        20.2504
   -923797.576 3  24903386.297 3   -598945.00146  24903387.68846        36.500
        21.2504
 -20587454.357 7  21542156.312 7 -16032780.93548  21542154.08648        47.750
        38.2504
  -8509091.941 6  23544580.578 6  -6610881.04247  23544577.72747        42.750
        28.5004
 11  3 11  2 21  0.0000000  0 10G 2G 4G 5G 7G 8G10G13G15G26G29
 -28523796.415 8  19983644.719 8 -22149665.47649  19983638.85249        52.750
        49.2504
 -14392470.230 7  22277113.242 7 -11200769.41548  22277110.32848        48.750
        37.0004
 -22497406.143 7  20906444.203 7 -17522774.49749  20906440.15249        50.000
        44.0004
 -13369348.547 6  22690675.078 6 -10413291.74348  22690671.73448        45.750
        36.0004
 -15339669.856 6  22691751.336 6 -11940001.58848  22691748.59448        46.000
        35.5004
 -19736306.208 7  21289795.820 7 -15218790.52549  21289791.93049        49.750
        42.0004
  -3944661.198 4  24483740.320 4  -3061405.21146  24483739.02746        37.500
        20.5004
  -1027842.347 3  24883587.273 3   -680018.71546  24883588.58646        37.000
        20.2504
 -20679108.146 7  21524715.289 7 -16104199.43148  21524713.34848        48.500
        38.7504
  -8543879.420 6  23537961.156 6  -6637988.21547  23537957.35947        43.500
        30.0004
 11  3 11  2 21 30.0000000  0 10G 2G 4G 5G 7G 8G10G13G15G26G29
 -28504895.313 8  19987241.578 8 -22134937.37749  19987235.08649        53.000
        49.2504
 -14306059.464 7  22293556.562 7 -11133436.44748  22293553.94148        48.500
        36.5004
 -22525127.649 7  20901169.023 7 -17544375.68549  20901165.05949        50.000
        44.0004
 -13366206.333 6  22691273.164 6 -10410843.29548  22691269.29748        46.750
        36.5004
 -15397089.520 6  22680824.914 6 -11984744.17648  22680822.22348        45.500
        34.5004
 -19686753.184 7  21299225.453 7 -15180177.82549  21299221.74249        50.500
        41.7504
  -3837823.167 4  24504070.898 4  -2978154.91646  24504069.47346        37.750
        21.2504
  -1131759.933 3  24863811.734 3   -760993.33746  24863813.52046        37.250
        20.5004
 -20770359.663 7  21507350.336 7 -16175304.47648  21507348.70348        47.750
        38.5004
  -8578141.132 6  23531440.805 6  -6664685.70247  23531438.48847        42.500
        29.2504
 11  3 11  2 22  0.0000000  0 10G 2G 4G 5G 7G 8G10G13G15G26G29
 -28485445.925 8  19990942.352 8 -22119782.05749  19990936.75049        53.000
        49.0004
 -14219363.839 7  22310054.141 7 -11065881.52848  22310052.03148        48.500
        36.7504
 -22552645.210 7  20895932.883 7 -17565817.96849  20895928.63749        49.500
        44.0004
 -13362494.994 6  22691979.586 6 -10407951.36348  22691975.98848        46.250
        36.7504
 -15454099.215 6  22669976.102 6 -12029167.28648  22669973.66048        45.250
        35.5004
 -19637020.688 7  21308689.242 7 -15141425.24749  21308685.46149        51.250
        42.0004
  -3730934.234 5  24524411.508 5  -2894864.95446  24524409.71146        39.750
        19.7504
  -1235548.464 4  24844060.797 4   -841867.39546  24844062.72746        38.250
        20.0004
 -20861206.739 7  21490063.133 7 -16246094.37048  21490060.64548        47.750
        38.2504
  -8611876.083 6  23525021.891 6  -6690972.67947  23525019.84847        43.750
        30.5004
 11  3 11  2 22 30.0000000  0 10G 2G 4G 5G 7G 8G10G13G15G26G29
 -28465448.297 8  19994748.148 8 -22104199.52849  19994742.04349        52.750
        49.0004
 -14132385.035 7  22326605.820 7 -10998105.95948  22326603.36748        48.000
        36.0004
 -22579959.386 7  20890735.367 7 -17587101.76649  20890730.88349        50.750
        44.5004
 -13358214.164 6  22692794.016 6 -10404615.64948  22692790.88348        47.000
        37.0004
 -15510696.521 6  22659205.906 6 -12073269.07848  22659204.34048        45.750
        35.5004
 -19587109.989 7  21318186.766 7 -15102533.85949  21318182.93049        49.750
        41.2504
  -3623997.133 4  24544760.664 4  -2811537.45945  24544759.27345        38.250
        18.5004
  -1339207.012 4  24824336.141 4   -922640.14246  24824337.42246        38.250
        20.7504
 -20951647.777 7  21472852.516 7 -16316567.87248  21472850.42648        48.500
        38.7504
  -8645083.586 6  23518703.391 6  -6716848.71447  23518699.99647        44.250
        30.0004
 11  3 11  2 23  0.0000000  0 10G 2G 4G 5G 7G 8G10G13G15G26G29
 -28444902.422 7  19998657.828 7 -22088189.80049  19998651.99649        52.000
        49.2504
 -14045124.813 7  22343210.938 7 -10930111.09948  22343208.82848        48.000
        36.0004
 -22607070.295 7  20885576.445 7 -17608227.17949  20885571.62149        50.000
        44.2504
 -13353363.900 6  22693716.875 6 -10400836.24348  22693713.60548        45.750
        36.2504
 -15566879.139 6  22648514.812 6 -12117047.70448  22648512.53548        45.500
        35.5004
 -19537021.318 7  21327718.555 7 -15063503.77549  21327715.20749        49.000
        41.5004
  -3517013.857 4  24565119.977 4  -2728173.97145  24565117.19545        37.750
        17.2504
  -1442733.958 4  24804635.672 4  -1003310.34146  24804637.26246        38.500
        20.0004
 -21041681.183 7  21455719.648 7 -16386723.72048  21455717.55148        49.000
        38.7504
  -8677762.940 6  23512483.922 6  -6742313.16947  23512480.64847        43.500
        29.5004
 11  3 11  2 23 30.0000000  0 10G 2G 4G 5G 7G 8G10G13G15G26G29
 -28423808.318 8  20002671.922 8 -22071752.90149  20002666.19549        52.500
        49.0004
 -13957584.240 7  22359869.086 7 -10861897.78948  22359867.44948        48.000
        36.5004
 -22633977.248 7  20880455.789 7 -17629193.65749  20880451.66849        50.000
        44.7504
 -13347943.860 6  22694748.172 6 -10396612.85848  22694744.86748        47.250
        36.7504
 -15622644.325 6  22637903.258 6 -12160501.09448  22637901.18448        45.000
        36.0004
 -19486754.835 7  21337284.250 7 -15024335.13849  21337280.00449        49.750
        41.5004
  -3409986.706 4  24585485.523 4  -2644776.26646  24585483.08646        37.500
        19.0004
  -1546127.705 4  24784960.086 4  -1083876.76546  24784961.57446        38.500
        19.7504
 -21131304.655 7  21438664.781 7 -16456560.16048  21438662.73048        48.250
        38.5004
  -8709913.018 6  23506365.883 6  -6767365.21647  23506362.97747        44.500
        30.2504
 11  3 11  2 24  0.0000000  0 10G 2G 4G 5G 7G 8G10G13G15G26G29
 -28402165.755 7  20006790.617 7 -22054888.61249  20006784.81649        52.000
        49.0004
 -13869765.051 7  22376581.031 7 -10793467.37348  22376578.64148        48.000
        36.0004
 -22660680.296 7  20875374.609 7 -17650001.24549  20875370.23449        50.000
        44.5004
 -13341954.189 6  22695887.836 6 -10391945.62248  22695885.05948        47.250
        37.0004
 -15677990.109 6  22627371.336 6 -12203627.66548  22627368.51648        46.250
        36.0004
 -19436311.263 7  21346883.219 7 -14985028.51349  21346879.46949        49.000
        41.7504
  -3302918.130 4  24605859.555 4  -2561346.30845  24605857.97745        38.000
        17.7504
  -1649387.032 5  24765310.938 5  -1164338.49846  24765311.83246        39.750
        20.7504
 -21220516.574 7  21421688.883 7 -16526075.89848  21421686.24648        48.000
        39.0004
  -8741533.550 6  23500348.695 6  -6792004.63147  23500346.55147        43.000
        30.5004
 11  3 11  2 24 30.0000000  0 10G 2G 4G 5G 7G 8G10G13G15G26G29
 -28379973.520 7  20011013.578 7 -22037595.96849  20011007.56249        52.000
        49.2504
 -13781668.258 7  22393345.219 7 -10724820.61048  22393343.00448        48.250
        36.5004
 -22687178.299 7  20870332.109 7 -17670649.06349  20870327.96949        50.500
        44.5004
 -13335393.839 7  22697136.711 7 -10386833.67148  22697133.48848        47.500
        36.7504
 -15732913.059 6  22616920.047 6 -12246424.77148  22616917.29348        45.750
        36.0004
 -19385690.130 7  21356516.016 7 -14945583.50249  21356512.58649        49.000
        41.5004
  -3195809.290 3  24626242.305 3  -2477885.00245  24626240.94545        37.250
        16.7504
  -1752509.720 5  24745686.953 5  -1244693.67646  24745688.81246        40.250
        22.0004
 -21309314.611 6  21404790.867 6 -16595269.13648  21404788.31248        47.250
        39.0004
  -8772622.853 5  23494432.742 5  -6816230.10847  23494429.96147        42.000
        29.0004
 11  3 11  2 25  0.0000000  0 10G 2G 4G 5G 7G 8G10G13G15G26G29
 -28357232.354 8  20015341.047 8 -22019875.61849  20015334.85249        53.250
        49.0004
 -13693295.880 7  22410161.891 7 -10655959.13648  22410160.11348        48.000
        35.5004
 -22713472.217 7  20865328.445 7 -17691137.83949  20865324.20749        49.500
        44.0004
 -13328263.166 6  22698493.477 6 -10381277.33848  22698489.91448        46.500
        36.7504
 -15787411.592 6  22606549.273 6 -12288891.17048  22606546.73848        46.250
        36.2504
 -19334892.651 7  21366182.570 7 -14906001.09249  21366179.02749        50.000
        42.0004
  -3088663.042 4  24646632.070 4  -2394394.49345  24646629.87945        37.500
        17.2504
  -1855494.948 5  24726089.273 5  -1324941.76546  24726091.39846        42.000
        22.7504
 -21397697.467 7  21387972.195 7 -16664138.86348  21387969.63748        48.000
        39.5004
  -8803181.048 6  23488617.391 6  -6840041.73447  23488615.09047        42.500
        29.5004
 11  3 11  2 25 30.0000000  0 10G 2G 4G 5G 7G 8G10G13G15G26G29
 -28333941.972 8  20019773.117 8 -22001727.33049  20019767.36749        53.000
        48.7504
 -13604648.888 6  22427031.508 6 -10586883.70248  22427029.11748        46.000
        35.7504
 -22739561.231 7  20860363.844 7 -17711466.95049  20860359.77349        49.000
        44.5004
 -13320561.844 6  22699959.258 6 -10375276.33848  22699955.72348        46.750
        37.0004
 -15841482.773 6  22596259.375 6 -12331024.53548  22596257.44148        45.500
        35.5004
 -19283918.628 7  21375882.469 7 -14866281.12449  21375878.96149        51.000
        42.0004
  -2981481.151 3  24667028.125 3  -2310876.22645  24667026.55945        37.000
        16.7504
  -1958340.538 5  24706518.305 5  -1405081.11646  24706519.85246        41.000
        22.5004
 -21485662.986 7  21371232.992 7 -16732683.38348  21371230.30148        47.750
        40.0004
  -8833207.032 5  23482903.945 5  -6863438.64247  23482901.01247        42.000
        30.0004
 11  3 11  2 26  0.0000000  0 10G 2G 4G 5G 7G 8G10G13G15G26G29
 -28310102.258 8  20024309.781 8 -21983150.98149  20024303.85549        53.500
        48.7504
 -13515729.397 6  22443952.664 6 -10517595.93748  22443949.64148        47.000
        36.5004
 -22765445.516 7  20855438.359 7 -17731636.54049  20855434.46549        49.250
        45.2504
 -13312289.683 7  22701533.430 7 -10368830.51448  22701529.60948        49.000
        36.7504
 -15895124.494 6  22586052.008 6 -12372823.26848  22586049.57048        46.500
        35.5004
 -19232769.168 7  21385616.180 7 -14826424.47449  21385612.17649        51.750
        42.0004
  -2874266.327 3  24687430.555 3  -2227332.32845  24687428.67245        37.250
        18.2504
  -2061045.812 5  24686974.492 5  -1485111.14046  24686975.79746        40.000
        22.5004
 -21573209.614 6  21354572.633 6 -16800901.49448  21354570.78148        46.750
        39.2504
  -8862700.364 5  23477291.734 5  -6886420.49347  23477289.01247        41.750
        29.2504
 11  3 11  2 26 30.0000000  0 10G 2G 4G 5G 7G 8G10G13G15G26G29
 -28285712.827 8  20028950.805 8 -21964146.28049  20028945.22749        53.250
        48.5004
 -13426538.309 6  22460925.117 6 -10448096.53148  22460922.88348        47.000
        36.0004
 -22791124.372 7  20850551.906 7 -17751646.05549  20850547.50049        50.000
        44.7504
 -13303446.448 7  22703216.180 7 -10361939.69148  22703212.55548        47.750
        35.7504
 -15948334.153 6  22575926.266 6 -12414285.32148  22575923.41048        46.500
        36.0004
 -19181443.919 7  21395383.133 7 -14786430.80049  21395379.57849        50.250
        42.0004
  -2767019.934 3  24707839.359 3  -2143763.73445  24707837.22345        37.250
        17.2504
  -2163609.032 5  24667457.172 5  -1565030.42946  24667458.97346        40.750
        24.2504
 -21660334.998 7  21337993.805 7 -16868791.38248  21337991.12148        48.000
        39.5004
  -8891659.970 5  23471781.383 5  -6908986.47747  23471777.85247        42.250
        29.2504
 11  3 11  2 27  0.0000000  0 10G 2G 4G 5G 7G 8G10G13G15G26G29
 -28260774.269 8  20033696.484 8 -21944713.69549  20033690.82449        53.250
        48.2504
 -13337077.652 7  22477948.891 7 -10378387.07248  22477947.07848        48.000
        35.5004
 -22816597.948 7  20845704.188 7 -17771495.60449  20845700.23449        49.750
        44.5004
 -13294032.403 7  22705007.797 7 -10354604.06848  22705004.11748        48.750
        36.5004
 -16001109.204 6  22565883.430 6 -12455408.73248  22565880.59448        46.500
        35.7504
 -19129943.656 7  21405183.289 7 -14746300.75749  21405179.86349        50.750
        42.2504
  -2659744.609 4  24728253.062 4  -2060172.70145  24728251.24245        37.750
        17.7504
  -2266028.746 5  24647967.211 5  -1644837.88046  24647969.57846        40.750
        24.5004
 -21747038.117 7  21321494.586 7 -16936352.20648  21321492.38748        47.500
        39.5004
  -8920085.710 5  23466371.297 5  -6931136.43947  23466368.99647        42.250
        29.5004
 11  3 11  2 27 30.0000000  0 10G 2G 4G 5G 7G 8G10G13G15G26G29
 -28235286.087 8  20038546.641 8 -21924852.82549  20038540.87549        53.000
        48.5004
 -13247348.294 7  22495023.492 7 -10308468.24348  22495021.48848        47.500
        35.0004
 -22841865.869 7  20840895.984 7 -17791184.92349  20840892.23049        50.250
        44.7504
 -13284047.427 7  22706908.023 7 -10346823.57248  22706904.28548        48.250
        36.7504
 -16053447.445 6  22555923.891 6 -12496191.76448  22555920.66048        47.000
        35.2504
 -19078268.802 7  21415016.273 7 -14706034.72349  21415013.13749        50.500
        41.5004
  -2552442.129 3  24748671.523 3  -1976560.41445  24748670.56245        37.000
        18.2504
  -2368303.154 5  24628504.914 5  -1724532.14946  24628506.56246        40.500
        23.7504
 -21833316.762 7  21305076.375 7 -17003582.29648  21305073.62148        48.250
        39.7504
  -8947976.762 6  23461064.016 6  -6952869.78847  23461061.29747        42.750
        28.7504
 11  3 11  2 28  0.0000000  0 10G 2G 4G 5G 7G 8G10G13G15G26G29
 -28209248.071 8  20043501.711 8 -21904563.51949  20043496.25449        52.750
        48.5004
 -13157352.141 7  22512149.445 7 -10238341.52848  22512147.87948        47.750
        35.2504
 -22866927.722 7  20836127.008 7 -17810713.67549  20836122.71949        50.000
        44.7504
 -13273491.322 7  22708916.977 7 -10338598.04148  22708913.10548        48.000
        36.7504
 -16105346.433 7  22546047.984 7 -12536632.52848  22546045.02048        48.000
        35.5004
 -19026419.410 7  21424883.289 7 -14665632.64549  21424879.62949        50.500
        41.2504
  -2445114.448 4  24769095.531 4  -1892928.59745  24769093.72345        37.500
        17.7504
  -2470430.930 5  24609070.562 5  -1804112.21046  24609070.86746        40.500
        22.5004
 -21919168.775 7  21288739.516 7 -17070479.96148  21288736.60248        48.000
        40.0004
  -8975332.229 6  23455858.234 6  -6974185.81447  23455856.07847        42.750
        29.0004
 11  3 11  2 28 30.0000000  0 10G 2G 4G 5G 7G 8G10G13G15G26G29
 -28182660.478 8  20048561.164 8 -21883845.96249  20048555.57049        53.750
        48.5004
 -13067090.780 7  22529325.789 7 -10168008.12548  22529324.11748        48.000
        34.2504
 -22891783.583 7  20831397.383 7 -17830081.90449  20831392.90249        51.000
        45.0004
 -13262364.300 6  22711033.555 6 -10329927.63048  22711029.93448        47.250
        37.0004
 -16156803.934 6  22536255.398 6 -12576729.28748  22536253.37148        46.000
        35.7504
 -18974396.260 7  21434782.898 7 -14625095.16949  21434779.16449        50.750
        41.2504
  -2337764.000 4  24789524.367 4  -1809279.00245  24789521.56245        37.750
        17.2504
  -2572410.651 5  24589664.867 5  -1883576.88946  24589665.36346        40.000
        20.2504
 -22004593.012 7  21272483.523 7 -17137044.26748  21272481.00048        49.250
        39.7504
  -9002152.004 6  23450754.391 6  -6995084.40647  23450751.68047        43.250
        30.0004
 11  3 11  2 29  0.0000000  0 10G 2G 4G 5G 7G 8G10G13G15G26G29
 -28155523.382 8  20053725.438 8 -21862700.23049  20053719.50049        53.500
        48.5004
 -12976565.812 7  22546552.312 7 -10097469.30448  22546549.77748        47.500
        34.7504
 -22916433.192 7  20826706.688 7 -17849289.39549  20826702.03149        51.500
        45.0004
 -13250666.152 6  22713259.836 6 -10320812.17048  22713256.18848        46.500
        36.7504
 -16207817.592 7  22526548.023 7 -12616480.18448  22526545.57848        47.500
        35.5004
 -18922199.456 7  21444715.766 7 -14584422.40149  21444711.95749        51.250
        41.2504
  -2230392.477 4  24809956.117 4  -1725612.96245  24809954.53545        37.500
        17.2504
  -2674240.964 5  24570286.406 5  -1962925.10346  24570288.81246        39.500
        21.5004
 -22089587.547 7  21256309.398 7 -17203273.74848  21256307.23448        49.000
        39.5004
  -9028435.356 5  23445753.344 5  -7015564.99047  23445750.46547        42.250
        29.2504
 11  3 11  2 29 30.0000000  0 10G 2G 4G 5G 7G 8G10G13G15G26G29
 -28127835.876 8  20058993.938 8 -21841125.58049  20058988.52349        53.250
        48.2504
 -12885777.906 6  22563828.883 6 -10026725.61348  22563826.07848        47.000
        34.0004
 -22940875.229 7  20822055.578 7 -17868335.15649  20822051.39149        50.500
        45.5004
 -13238396.553 6  22715594.617 6 -10311251.42148  22715591.11748        46.500
        37.0004
 -16258384.477 7  22516925.086 7 -12655882.93648  22516923.20348        47.500
        36.2504
 -18869828.651 7  21454681.883 7 -14543614.03249  21454678.42249        51.000
        41.7504
  -2123001.499 3  24830392.086 3  -1641931.77745  24830390.86345        36.250
        16.2504
  -2775919.694 4  24550936.875 4  -2042155.20146  24550939.61746        39.000
        22.0004
 -22174150.027 7  21240218.305 7 -17269166.55548  21240215.48848        49.000
        40.5004
  -9054181.164 5  23440853.727 5  -7035626.70847  23440852.07847        42.000
        30.7504
 11  3 11  2 30  0.0000000  0 10G 2G 4G 5G 7G 8G10G13G15G26G29
 -28099599.866 7  20064367.445 7 -21819123.54449  20064361.31649        51.750
        48.2504
 -12794730.071 6  22581154.664 6  -9955779.39048  22581152.68048        47.250
        34.7504
 -22965111.045 7  20817443.453 7 -17887220.21349  20817439.22749        49.750
        45.0004
 -13225556.807 6  22718038.125 6 -10301246.40248  22718034.58648        46.750
        37.2504
 -16308503.569 6  22507388.352 6 -12694936.77848  22507385.96948        47.000
        36.5004
 -18817285.398 7  21464680.641 7 -14502671.31848  21464676.79748        52.000
        41.0004
  -2015594.460 3  24850830.977 3  -1558238.03045  24850829.48845        36.750
        16.7504
  -2877446.500 5  24531617.719 5  -2121266.96946  24531619.38346        39.750
        22.0004
 -22258280.004 7  21224208.430 7 -17334722.36148  21224206.02748        48.250
        40.0004
  -9079389.883 5  23436057.258 5  -7055269.91447  23436055.18047        42.000
        29.2504
 11  3 11  2 30 30.0000000  0 10G 2G 4G 5G 7G 8G10G13G15G26G29
 -28070814.058 8  20069845.156 8 -21796693.10649  20069839.71949        53.000
        48.0004
 -12703422.612 7  22598529.859 7  -9884630.84748  22598527.90648        47.500
        35.0004
 -22989139.593 7  20812870.828 7 -17905943.76849  20812866.46549        50.500
        44.5004
 -13212145.906 6  22720590.148 6 -10290796.34548  22720586.44948        47.000
        37.0004
 -16358171.573 6  22497936.844 6 -12733639.12548  22497934.94548        46.750
        36.5004
 -18764569.212 7  21474711.930 7 -14461593.78548  21474708.07848        51.000
        41.0004
  -1908171.922 2  24871272.375 2  -1474532.24545  24871271.13745        35.500
        15.5004
  -2978819.428 5  24512326.938 5  -2200258.81046  24512330.03146        41.000
        24.5004
 -22341974.580 7  21208282.125 7 -17399938.88648  21208279.48048        49.000
        40.2504
  -9104060.663 5  23431362.430 5  -7074493.93447  23431359.91847        41.250
        29.2504
 11  3 11  2 31  0.0000000  0 10G 2G 4G 5G 7G 8G10G13G15G26G29
 -28041478.502 8  20075427.672 8 -21773834.29449  20075421.71949        52.750
        48.0004
 -12611857.230 6  22615954.328 6  -9813281.32948  22615953.35948        46.250
        34.5004
 -23012960.334 7  20808338.039 7 -17924505.39049  20808333.96949        49.500
        44.7504
 -13198164.008 7  22723250.602 7 -10279901.35248  22723247.82448        48.000
        37.5004
 -16407386.197 6  22488571.328 6 -12771988.18848  22488569.32848        46.250
        36.7504
 -18711680.643 7  21484776.102 7 -14420381.97149  21484772.82449        50.750
        41.2504
  -1800736.309 3  24891716.555 3  -1390816.26145  24891715.59845        37.000
        15.5004
  -3080036.350 5  24493066.031 5  -2279129.08846  24493067.89146        39.500
        22.7504
 -22425232.323 7  21192438.484 7 -17464815.01948  21192435.50848        49.000
        40.5004
  -9128192.539 5  23426770.586 5  -7093298.04447  23426767.36347        41.250
        30.0004
 11  3 11  2 31 30.0000000  0 10G 2G 4G 5G 7G 8G10G13G15G26G29
 -28011594.186 7  20081114.289 7 -21750547.85149  20081108.30549        51.750
        47.7504
 -12520036.597 6  22633427.258 6  -9741732.94248  22633426.65248        45.750
        35.7504
 -23036573.641 7  20803844.688 7 -17942905.39249  20803840.34849        49.500
        45.0004
 -13183611.995 7  22726019.945 7 -10268562.11448  22726016.29348        49.500
        36.7504
 -16456146.007 6  22479292.922 6 -12809982.84248  22479290.07048        45.750
        36.5004
 -18658620.579 7  21494873.000 7 -14379036.49948  21494869.45748        51.000
        40.7504
  -1693290.151 3  24912162.938 3  -1307092.05645  24912161.03945        36.000
        14.7504
  -3181096.943 4  24473834.844 4  -2357877.53246  24473836.43046        39.000
        22.5004
 -22508052.114 7  21176678.594 7 -17529349.90248  21176675.79348        48.250
        41.0004
  -9151785.527 5  23422280.469 5  -7111682.25847  23422278.52047        41.250
        30.5004
 11  3 11  2 32  0.0000000  0 10G 2G 4G 5G 7G 8G10G13G15G26G29
 -27981160.654 7  20086905.727 7 -21726833.43349  20086900.02349        51.750
        47.7504
 -12427961.325 6  22650948.211 6  -9669986.14648  22650947.23448        45.500
        35.0004
 -23059978.792 7  20799390.820 7 -17961143.18549  20799386.53949        49.500
        44.7504
 -13168489.279 7  22728897.562 7 -10256778.18948  22728893.68848        49.250
        36.5004
 -16504448.050 6  22470101.008 6 -12847620.79148  22470099.30148        46.000
        36.5004
 -18605388.888 7  21505002.844 7 -14337557.32449  21504999.17249        51.000
        41.2504
  -1585834.865 2  24932611.633 2  -1223360.73045  24932609.00445        35.000
        14.7504
  -3281999.222 4  24454633.727 4  -2436502.59346  24454635.18046        38.500
        22.7504
 -22590432.014 7  21161001.906 7 -17593542.00548  21160999.10548        48.000
        40.5004
  -9174839.108 5  23417894.133 5  -7129646.11247  23417891.78547        42.000
        31.0004
 11  3 11  2 32 30.0000000  0 10G 2G 4G 5G 7G 8G10G13G15G26G29
 -27950178.344 7  20092801.102 7 -21702691.41149  20092795.55149        51.250
        47.7504
 -12335633.250 6  22668518.242 6  -9598042.31648  22668516.56648        45.500
        34.5004
 -23083175.798 7  20794976.555 7 -17979218.79849  20794972.12949        49.500
        45.0004
 -13152796.583 7  22731883.586 7 -10244550.13848  22731880.07848        48.000
        37.0004
 -16552290.161 6  22460997.234 6 -12884900.34648  22460995.04748        46.500
        36.7504
 -18551985.916 7  21515165.062 7 -14295944.69448  21515162.00848        50.750
        40.7504
  -1478372.663 1  24953060.844 1  -1139624.02745  24953057.71945        33.250
        15.5004
  -3382741.981 4  24435462.266 4  -2515003.37246  24435465.82846        39.000
        22.2504
 -22672370.334 7  21145409.422 7 -17657390.02048  21145407.11748        47.750
        40.5004
  -9197352.987 5  23413609.133 5  -7147189.42847  23413606.68047        41.500
        29.7504
 11  3 11  2 33  0.0000000  0 10G 2G 4G 5G 7G 8G10G13G15G26G29
 -27918647.121 7  20098801.883 7 -21678121.65649  20098795.69949        51.750
        47.7504
 -12243053.949 6  22686135.422 6  -9525902.75648  22686134.44548        45.500
        34.2504
 -23106164.075 7  20790601.914 7 -17997131.75449  20790597.47349        49.500
        45.0004
 -13136533.888 7  22734978.422 7 -10231877.92348  22734974.87148        49.000
        36.5004
 -16599669.993 6  22451981.172 6 -12921819.69748  22451979.45348        46.000
        37.0004
 -18498412.024 7  21525360.195 7 -14254198.88348  21525356.21948        50.500
        40.7504
  -1370905.361 2  24973511.805 2  -1055883.44545  24973509.03545        34.500
        14.7504
  -3483323.624 4  24416323.000 4  -2593378.64646  24416324.91446        39.000
        24.0004
 -22753865.265 7  21129902.031 7 -17720892.53548  21129899.37548        48.750
        41.0004
  -9219326.779 5  23409428.438 5  -7164311.90747  23409425.60947        42.250
        30.5004
 11  3 11  2 33 30.0000000  0 10G 2G 4G 5G 7G 8G10G13G15G26G29
 -27886567.513 7  20104906.281 7 -21653124.60649  20104900.05149        52.000
        47.7504
 -12150224.993 6  22703801.141 6  -9453568.66448  22703798.65648        46.250
        34.2504
 -23128943.462 7  20786267.008 7 -18014881.93949  20786263.20749        49.500
        45.0004
 -13119701.253 7  22738181.836 7 -10218761.61348  22738178.43448        48.000
        36.0004
 -16646585.860 6  22443053.094 6 -12958377.50548  22443050.99248        46.000
        36.7504
 -18444667.312 7  21535587.375 7 -14212319.92348  21535583.67248        51.500
        40.5004
  -1263435.346 1  24993960.734 1

  -3583742.670 5  24397214.172 5  -2671627.19646  24397214.66846        41.000
        22.7504
 -22834915.252 7  21114478.266 7 -17784048.35448  21114475.70348        48.250
        40.7504
  -9240760.196 6  23405349.625 6  -7181013.31447  23405347.39547        43.000
        31.0004
 11  3 11  2 34  0.0000000  0 10G 2G 4G 5G 7G 8G10G13G15G26G29
 -27853939.439 8  20111115.391 8 -21627700.18149  20111109.00449        52.500
        47.5004
 -12057148.005 6  22721513.242 6  -9381041.27048  22721510.94148        45.750
        33.7504
 -23151513.904 7  20781972.250 7 -18032469.30349  20781968.16449        50.000
        45.0004
 -13102299.044 6  22741493.000 6 -10205201.50248  22741490.07048        47.000
        35.5004
 -16693035.024 6  22434214.820 6 -12994571.64048  22434212.38748        46.250
        37.5004
 -18390752.460 7  21545847.148 7 -14170308.42348  21545843.77348        51.000
        41.0004
  -1155963.985 2  25014413.938 2

  -3683997.971 5  24378136.250 5  -2749748.15246  24378136.85946        40.750
        24.5004
 -22915518.852 7  21099139.648 7 -17846856.33248  21099137.23848        48.750
        41.0004
  -9261652.746 6  23401373.930 6  -7197293.27347  23401371.89147        44.500
        31.0004
 11  3 11  2 34 30.0000000  0 10G 2G 4G 5G 7G 8G10G13G15G26G29
 -27820763.179 7  20117428.266 7 -21601848.58549  20117422.62549        52.000
        47.5004
 -11963824.397 6  22739271.414 6  -9308321.73448  22739270.40248        45.500
        34.0004
 -23173874.354 7  20777717.219 7 -18049893.04449  20777713.15649        49.750
        45.0004
 -13084327.362 7  22744912.641 7 -10191197.63848  22744909.86348        48.250
        35.5004
 -16739015.098 7  22425464.500 7 -13030400.26548  22425461.96548        47.500
        36.7504
 -18336667.283 7  21556139.352 7 -14128164.18348  21556135.79348        51.500
        40.7504
  -1048493.176 1  25034863.242 1

  -3784087.989 5  24359089.281 5  -2827740.32046  24359091.57846        39.500
        25.0004
 -22995674.143 7  21083886.836 7 -17909314.97749  21083884.03149        48.750
        41.2504
  -9282004.101 6  23397500.961 6  -7213151.51847  23397498.78147        42.500
        30.0004
 11  3 11  2 35  0.0000000  0  9G 2G 4G 5G 7G 8G10G15G26G29
 -27787041.000 8  20123845.367 8 -21575571.60749  20123839.86349        52.500
        47.5004
 -11870257.718 6  22757077.086 6  -9235412.80347  22757075.27347        45.000
        33.0004
 -23196027.093 7  20773501.539 7 -18067154.94649  20773497.87949        51.500
        45.2504
 -13065788.599 7  22748440.828 7 -10176751.89348  22748437.33648        47.500
        35.0004
 -16784526.274 7  22416804.602 7 -13065863.50048  22416801.91848        48.750
        37.2504
 -18282414.278 7  21566463.500 7 -14085889.15848  21566459.68448        51.000
        40.5004
  -3884012.969 5  24340074.188 5  -2905603.86746  24340075.29346        40.000
        24.5004
 -23075381.431 7  21068719.250 7 -17971424.52749  21068716.56649        49.000
        41.2504
  -9301815.676 6  23393731.344 6  -7228589.14647  23393728.72747        43.750
        31.0004
 11  3 11  2 35 30.0000000  0  9G 2G 4G 5G 7G 8G10G15G26G29
 -27752770.076 7  20130367.117 7 -21548867.02549  20130361.65649        52.000
        47.5004
 -11776446.582 6  22774928.680 6  -9162313.38847  22774927.25847        45.250
        33.5004
 -23217968.500 7  20769326.102 7 -18084252.16049  20769321.99249        51.750
        45.0004
 -13046679.961 7  22752076.719 7 -10161862.09348  22752073.22748        47.500
        34.5004
 -16829563.169 7  22408233.992 7 -13100957.15448  22408231.84048        48.750
        37.2504
 -18227990.527 7  21576820.078 7 -14043481.07948  21576816.66448        51.250
        40.7504
  -3983768.601 5  24321091.562 5  -2983335.45446  24321092.62546        40.500
        25.2504
 -23154636.214 7  21053637.992 7 -18033181.47749  21053634.84449        48.750
        42.0004
  -9321083.996 6  23390064.531 6  -7243603.48247  23390062.18447        43.500
        30.2504
 11  3 11  2 36  0.0000000  0  9G 2G 4G 5G 7G 8G10G15G26G29
 -27717951.601 8  20136992.969 8 -21521735.78549  20136987.11349        52.750
        47.5004
 -11682393.591 6  22792826.672 6  -9089025.51348  22792825.06648        45.500
        33.7504
 -23239699.290 7  20765190.797 7 -18101185.26149  20765187.07449        51.250
        44.7504
 -13027003.100 7  22755821.188 7 -10146529.50748  22755818.28948        48.500
        35.0004
 -16874124.716 7  22399753.727 7 -13135680.42848  22399751.84448        47.750
        36.5004
 -18173397.378 7  21587208.961 7 -14000941.04648  21587205.22348        50.250
        40.2504
  -4083354.565 5  24302140.789 5  -3060934.85446  24302141.95346        40.250
        22.5004
 -23233438.025 7  21038642.008 7 -18094585.46948  21038639.03948        48.750
        41.0004
  -9339810.507 5  23386501.203 5  -7258195.62647  23386498.39147        41.250
        30.0004
 11  3 11  2 36 30.0000000  0  9G 2G 4G 5G 7G 8G10G15G26G29
 -27682586.665 8  20143722.758 8 -21494178.75849  20143716.62149        52.500
        47.2504
 -11588100.662 6  22810769.586 6  -9015550.67347  22810768.34447        45.000
        32.5004
 -23261219.204 7  20761095.617 7 -18117954.04649  20761091.60549        49.750
        45.0004
 -13006758.274 7  22759673.859 7 -10130754.35648  22759669.86748        48.000
        35.5004
 -16918209.579 7  22391364.594 7 -13170032.23848  22391362.38348        47.500
        37.0004
 -18118635.291 7  21597629.578 7 -13958269.31949  21597626.67649        51.500
        41.2504
  -4182769.642 5  24283222.711 5  -3138401.11346  24283223.19546        40.500
        22.2504
 -23311785.332 7  21023733.039 7 -18155635.28349  21023730.02049        49.750
        41.5004
  -9357994.761 5  23383041.172 5  -7272365.21247  23383038.44147        42.000
        30.5004
 11  3 11  2 37  0.0000000  0  9G 2G 4G 5G 7G 8G10G15G26G29
 -27646675.588 8  20150556.445 8 -21466196.16949  20150550.90249        52.500
        47.2504
 -11493569.573 6  22828759.133 6  -8941890.23247  22828757.67647        44.750
        32.5004
 -23282528.244 7  20757041.219 7 -18134558.51949  20757036.68049        50.750
        45.0004
 -12985946.121 7  22763633.992 7 -10114537.11348  22763631.23048        48.000
        35.2504
 -16961815.244 7  22383067.117 7 -13204010.64348  22383064.59848        48.500
        36.5004
 -18063705.079 7  21608082.273 7 -13915466.62448  21608079.67648        50.500
        41.0004
  -4282012.489 5  24264336.875 5  -3215733.18946  24264337.82046        39.500
        22.2504
 -23389677.030 7  21008910.469 7 -18216330.10549  21008908.42649        49.000
        41.5004
  -9375636.914 5  23379684.219 5  -7286112.40147  23379681.12547        41.500
        29.7504
 11  3 11  2 37 30.0000000  0  9G 2G 4G 5G 7G 8G10G15G26G29
 -27610218.027 8  20157494.070 8 -21437787.70549  20157488.42649        52.500
        47.2504
 -11398801.433 6  22846792.297 6  -8868045.06147  22846791.07447        44.500
        33.5004
 -23303625.583 7  20753026.469 7 -18150998.01649  20753022.42249        49.750
        45.2504
 -12964566.701 7  22767702.609 7 -10097877.85348  22767699.71148        47.500
        34.5004
 -17004939.103 7  22374860.391 7 -13237613.61748  22374858.05148        48.000
        37.0004
 -18008606.374 7  21618567.562 7 -13872532.62348  21618564.30148        50.250
        40.0004
  -4381081.409 5  24245484.906 5  -3292929.68746  24245485.64846        40.500
        24.7504
 -23467111.039 7  20994175.500 7 -18276668.26349  20994172.56249        49.500
        41.7504
  -9392736.378 5  23376429.469 5  -7299436.71847  23376428.09447        41.250
        30.0004
